t,yaw,pitch,roll,speed.x,speed.y,speed.z,altBar,altRad,egt,myloclat,myloclon,weightlb,collective,bank,pitch,rudder
0.000000,5.375005,0.027157,0.000000,0.000000,0.000000,0.000000,481.204865,1.510040,0.000000,41.659724,44.965707,7008.602206,1.000000,-1.000000,0.218337,0.805781
0.100000,5.375044,0.031624,0.000737,-0.092455,0.517147,0.016868,481.239288,1.544464,0.000000,41.659724,44.965707,7004.964901,-0.056833,-0.851524,-1.000000,-0.342490
0.200000,5.375190,0.037061,0.001933,-0.055141,0.084451,0.037719,481.264679,1.569855,0.000000,41.659724,44.965707,7004.964901,-0.843179,0.098886,1.000000,-0.998354
0.300000,5.372556,0.041001,0.005350,-0.060351,0.162524,0.030048,481.275085,1.580261,0.000000,41.659724,44.965707,7000.556034,-0.583317,-0.783493,-0.019688,0.484557
0.400000,5.367465,0.044211,0.004956,-0.052706,0.135542,0.006032,481.294678,1.599854,0.000000,41.659724,44.965707,7000.556034,0.543187,1.000000,-0.262403,1.000000
0.500000,5.366596,0.046007,0.004227,-0.033116,-0.074496,-0.035152,481.296967,1.602142,0.000000,41.659724,44.965707,7000.556034,-0.479600,-0.704755,0.531453,1.000000
0.600000,5.374458,0.045771,0.000121,-0.023928,-0.187096,-0.068596,481.283234,1.588409,0.000000,41.659724,44.965707,7000.556034,0.803148,1.000000,-0.031042,0.884872
0.700000,5.385251,0.043789,-0.002920,-0.009054,0.003334,-0.048026,481.274689,1.579834,0.000000,41.659724,44.965707,7000.541649,0.216120,1.000000,0.874916,0.773295
0.800000,5.392661,0.043784,-0.002230,-0.008235,-0.003357,0.028505,481.276306,1.581482,0.000000,41.659724,44.965707,7000.541649,1.000000,-0.221192,-0.572244,0.118915
0.900000,5.394097,0.045229,0.000382,-0.030935,-0.079653,0.067222,481.272156,1.577332,0.000000,41.659724,44.965707,7000.526974,1.000000,0.431271,-1.000000,-0.869781
1.000000,5.387945,0.048502,0.003520,-0.057489,0.049826,0.061819,481.268585,1.573761,0.000000,41.659724,44.965707,7000.526974,-0.013903,1.000000,-1.000000,-0.376868
1.100000,5.376238,0.051225,0.004157,-0.041612,0.100497,0.009902,481.276306,1.581482,0.000000,41.659724,44.965707,7000.510475,-1.000000,0.456818,0.055483,0.800890
1.200000,5.369140,0.052048,0.005010,-0.017089,0.209247,-0.019893,481.291809,1.596985,0.000000,41.659724,44.965707,7000.510475,0.504544,0.211083,1.000000,0.614929
1.300000,5.369671,0.050533,0.003148,-0.002110,0.006794,-0.042180,481.307587,1.612762,0.000000,41.659724,44.965707,7000.491654,-0.086773,-0.263522,0.055839,-0.932954
1.400000,5.370190,0.048006,0.000733,0.057851,-0.044290,-0.016736,481.298340,1.603516,0.000000,41.659724,44.965707,7000.491654,-1.000000,-0.826635,-0.410797,-0.294149
1.500000,5.365108,0.043294,0.002583,0.124773,0.435802,-0.007260,481.316589,1.621765,0.000000,41.659724,44.965707,7000.472668,-0.298663,0.647038,-0.344859,0.532071
1.600000,5.362854,0.035016,0.006283,0.189944,0.709784,-0.046558,481.382843,1.688019,0.000000,41.659724,44.965707,7000.472668,0.095286,0.070796,-0.207596,0.385610
1.700000,5.368269,0.024666,0.008621,0.230087,0.725170,-0.075548,481.453278,1.758453,0.000000,41.659724,44.965707,7000.453391,-1.000000,-0.422949,0.870500,0.156898
1.800000,5.379310,0.013413,0.009802,0.290005,0.941484,-0.096094,481.531433,1.836609,0.000000,41.659724,44.965706,7000.453391,-0.322724,0.039688,-1.000000,-0.072507
1.900000,5.396316,-0.000207,0.010738,0.355253,1.046516,-0.123550,481.638458,1.943634,0.000000,41.659725,44.965706,7000.432664,-0.260438,-0.376901,0.904682,1.000000
2.000000,5.421527,-0.014753,0.009816,0.428762,1.080114,-0.144359,481.742737,2.047913,0.000000,41.659725,44.965706,7000.432664,-1.000000,0.327854,0.804240,-1.000000
2.100000,5.447134,-0.029304,0.009385,0.506403,1.082339,-0.119555,481.849945,2.155121,0.000000,41.659725,44.965705,7000.411314,0.631857,-0.723871,-0.778388,0.100115
2.200000,5.470630,-0.044712,0.010842,0.584700,0.804418,-0.089579,481.944733,2.249908,0.000000,41.659725,44.965705,7000.411314,-0.880501,0.078706,1.000000,0.457830
2.300000,5.499413,-0.059898,0.011069,0.693757,0.822144,-0.137026,482.018097,2.323273,0.000000,41.659726,44.965704,7000.387934,-1.000000,-1.000000,0.953363,0.644570
2.400000,5.535450,-0.074641,0.008078,0.835070,1.248802,-0.206526,482.117889,2.423065,0.000000,41.659726,44.965703,7000.387934,1.000000,-0.422740,-0.152365,0.331820
2.500000,5.580785,-0.089900,0.001859,0.944250,0.935099,-0.239830,482.227325,2.532501,0.000000,41.659727,44.965702,7000.361941,0.703367,-1.000000,-0.566156,-0.177071
2.600000,5.629539,-0.103164,-0.006728,1.039599,0.219017,-0.280057,482.276764,2.581970,0.000000,41.659728,44.965702,7000.361941,0.384390,-1.000000,-0.169788,0.697718
2.700000,5.682491,-0.113125,-0.018925,1.141000,-0.346636,-0.360123,482.256195,2.561371,0.000000,41.659728,44.965701,7000.335161,0.141708,-1.000000,-0.236309,0.941628
2.800000,5.745141,-0.120651,-0.034860,1.253040,-0.754709,-0.471989,482.182770,2.487946,0.000000,41.659729,44.965700,7000.335161,0.095387,0.699730,0.174410,0.153085
2.900000,5.810703,-0.124631,-0.050212,1.356168,-0.973732,-0.594841,482.075073,2.380249,0.000000,41.659730,44.965699,7000.307262,-0.054096,0.676542,0.758061,0.906558
3.000000,5.873866,-0.124821,-0.060579,1.443064,-0.852914,-0.730713,481.961731,2.266907,0.000000,41.659731,44.965697,7000.307262,-0.807580,-1.000000,0.287868,1.000000
3.100000,5.943279,-0.121322,-0.064027,1.533083,-0.604391,-0.883841,481.870728,2.175903,0.000000,41.659732,44.965696,7000.277580,0.607921,-0.730798,-0.944434,-0.833322
3.200000,6.008123,-0.115458,-0.061581,1.611735,-0.598431,-1.008033,481.785034,2.090210,0.000000,41.659733,44.965695,7000.277580,-0.795558,0.791295,-0.554928,1.000000
3.300000,6.063280,-0.108468,-0.054077,1.692601,-0.321022,-1.118490,481.714142,2.019318,0.000000,41.659734,44.965693,7000.249888,0.060447,-0.054526,0.107362,-0.792204
3.400000,6.115187,-0.100521,-0.041510,1.780427,-0.188867,-1.198763,481.671417,1.976593,0.000000,41.659736,44.965692,7000.249888,0.253625,-0.200704,0.633678,-0.494193
3.500000,6.148432,-0.092751,-0.024987,1.855283,-0.587590,-1.154728,481.609924,1.915100,0.000000,41.659737,44.965691,7000.224767,0.171088,-1.000000,1.000000,-1.000000
3.600000,6.160501,-0.085391,-0.006371,1.939275,-0.770844,-1.087761,481.522919,1.828094,0.000000,41.659739,44.965689,7000.224767,-0.353972,0.086577,-0.444842,1.000000
3.700000,6.168350,-0.073183,0.000697,1.520053,-0.144104,-0.891199,481.458618,1.763794,0.000000,41.659741,44.965688,7000.201552,0.376430,-0.802010,-0.726247,1.000000
3.800000,6.183230,-0.054420,-0.009160,1.342805,0.150624,-0.884259,481.451141,1.756317,0.000000,41.659742,44.965687,7000.201552,-1.000000,1.000000,0.412619,0.342351
3.900000,6.200530,-0.037144,-0.013544,1.444959,0.303493,-0.921314,481.466339,1.771515,0.000000,41.659743,44.965686,7000.181322,0.370644,0.351958,-1.000000,-1.000000
4.000000,6.212691,-0.021134,-0.015361,1.535444,0.227061,-0.888540,481.493042,1.798218,0.000000,41.659745,44.965685,7000.181322,-0.137964,0.073257,-0.263845,0.114703
4.100000,6.215391,-0.006966,-0.014429,1.590475,-0.080332,-0.871807,481.494751,1.799927,0.000000,41.659746,44.965684,7000.162418,0.086453,1.000000,1.000000,1.000000
4.200000,6.220283,0.004951,-0.013835,1.643006,-0.055791,-0.922238,481.481506,1.786682,0.000000,41.659747,44.965683,7000.162418,-1.000000,0.334867,0.042756,1.000000
4.300000,6.234464,0.015113,-0.012936,1.744045,0.703259,-0.998270,481.507629,1.812805,0.000000,41.659749,44.965682,7000.143763,-0.907578,-0.402343,0.789451,-0.670835
4.400000,6.250989,0.020666,-0.009725,1.868627,1.583849,-1.063019,481.630493,1.935669,0.000000,41.659751,44.965681,7000.143763,-0.772560,-0.608803,1.000000,0.664401
4.500000,6.265520,0.022118,-0.005480,1.932300,1.819061,-1.086253,481.804474,2.109650,0.000000,41.659753,44.965680,7000.125482,0.694713,-0.798187,-1.000000,-0.953816
4.600000,6.278189,0.021627,-0.000886,1.942511,1.382112,-1.072228,481.974121,2.279297,0.000000,41.659754,44.965679,7000.125482,-0.651669,-0.168233,0.781955,0.501507
4.700000,0.006230,0.019788,0.002815,1.964742,1.073174,-1.079125,482.099884,2.405060,0.000000,41.659756,44.965678,7000.105791,0.131072,-0.529592,-0.792732,-0.136302
4.800000,0.020247,0.016470,0.004474,1.980201,0.751087,-1.077550,482.194489,2.499664,0.000000,41.659758,44.965678,7000.105791,0.137810,1.000000,0.401227,-1.000000
4.900000,0.030043,0.012045,0.007099,1.995212,0.334747,-1.002650,482.250305,2.555511,0.000000,41.659760,44.965677,7000.083446,-0.285178,-1.000000,1.000000,-0.170202
5.000000,0.032259,0.006791,0.012631,2.035114,0.115599,-0.938019,482.274200,2.579376,0.000000,41.659762,44.965676,7000.083446,-0.022804,-0.589601,0.336209,0.313451
5.100000,0.036426,0.000768,0.018508,2.088284,0.053636,-0.921148,482.283508,2.588684,0.000000,41.659764,44.965675,7000.059693,-0.400733,1.000000,-0.482108,-0.131564
5.200000,0.046607,-0.006937,0.025023,2.136961,-0.149281,-0.909495,482.284515,2.589691,0.000000,41.659766,44.965675,7000.059693,0.894712,0.279538,0.482816,0.772997
5.300000,0.061907,-0.015098,0.030433,2.161693,-0.744658,-0.872126,482.240479,2.545624,0.000000,41.659768,44.965674,7000.034115,0.196640,1.000000,-0.494580,-1.000000
5.400000,0.076536,-0.022475,0.035142,2.189991,-1.356216,-0.798585,482.137878,2.443024,0.000000,41.659770,44.965674,7000.034115,1.000000,1.000000,-1.000000,-0.195526
5.500000,0.086566,-0.029565,0.041429,2.232281,-2.021606,-0.700962,481.962677,2.267853,0.000000,41.659772,44.965673,7000.006340,0.457980,0.684473,1.000000,0.630907
5.600000,0.100618,-0.036164,0.045330,2.283366,-2.482999,-0.687969,481.722717,2.027893,0.000000,41.659774,44.965673,7000.006340,-0.832665,-1.000000,0.746984,1.000000
5.700000,0.122647,-0.041891,0.044919,2.344435,-2.106420,-0.738733,481.488678,1.793854,0.000000,41.659776,44.965673,6999.978233,-1.000000,0.741222,0.680461,-0.719443
5.800000,0.152462,-0.042747,0.019491,1.883003,0.087896,-0.895710,481.374939,1.680115,0.000000,41.659778,44.965672,6999.978233,-0.595330,0.403990,-1.000000,1.000000
5.900000,0.187186,-0.039216,-0.004355,1.952012,0.706065,-0.968907,481.419556,1.724731,0.000000,41.659780,44.965672,6999.949339,-0.346883,0.809262,1.000000,0.939461
6.000000,0.226492,-0.037010,-0.020738,2.034635,0.842057,-1.072570,481.486633,1.791809,0.000000,41.659782,44.965672,6999.949339,-0.472793,-1.000000,-0.382733,0.045809
6.100000,0.272183,-0.035761,-0.035193,2.092630,0.715810,-1.191454,481.558350,1.863525,0.000000,41.659784,44.965671,6999.921316,0.192124,-0.301341,-0.240282,0.229126
6.200000,0.320132,-0.035230,-0.048374,2.139877,0.653858,-1.352001,481.610870,1.916046,0.000000,41.659786,44.965671,6999.921316,-0.987823,1.000000,1.000000,0.213432
6.300000,0.370479,-0.035830,-0.060307,2.208485,1.088155,-1.533752,481.673004,1.978180,0.000000,41.659789,44.965671,6999.896609,-1.000000,0.731722,0.651373,0.183441
6.400000,0.424373,-0.039615,-0.070619,2.294225,1.836117,-1.733522,481.810028,2.115204,0.000000,41.659791,44.965670,6999.896609,-0.136546,0.201779,0.349691,1.000000
6.500000,0.481159,-0.045132,-0.081289,2.293878,1.752694,-1.952644,481.973694,2.278870,0.000000,41.659794,44.965670,6999.873601,-0.048791,-0.738690,-0.869733,1.000000
6.600000,0.539151,-0.050129,-0.094486,2.260366,1.471198,-2.163489,482.098328,2.403534,0.000000,41.659797,44.965670,6999.873601,-0.374468,-0.990617,1.000000,-1.000000
6.700000,0.599704,-0.055599,-0.108883,2.242362,1.527746,-2.351124,482.208679,2.513855,0.000000,41.659800,44.965669,6999.850552,-1.000000,-0.332331,0.423952,-0.870509
6.800000,0.646926,-0.063186,-0.117293,2.261184,1.751465,-2.462864,482.337769,2.642914,0.000000,41.659803,44.965669,6999.850552,0.202581,0.171674,-1.000000,-0.348628
6.900000,0.679710,-0.072117,-0.117765,2.296920,1.753016,-2.579082,482.461365,2.766541,0.000000,41.659806,44.965669,6999.827876,-1.000000,0.027888,1.000000,-0.164989
7.000000,0.710747,-0.082728,-0.112271,2.358408,1.840222,-2.746218,482.591156,2.896332,0.000000,41.659809,44.965669,6999.827876,-0.170881,-0.172632,1.000000,0.493479
7.100000,0.748098,-0.093777,-0.105032,2.412800,2.038664,-2.977719,482.734253,3.039459,0.000000,41.659813,44.965669,6999.803459,-1.000000,-0.536212,-1.000000,0.435106
7.200000,0.790786,-0.104419,-0.098402,2.451886,2.383270,-3.220362,482.887787,3.192963,0.000000,41.659817,44.965669,6999.803459,-0.554386,-0.014182,0.499728,1.000000
7.300000,0.845656,-0.115856,-0.093002,2.433345,2.572670,-3.502058,483.084869,3.390045,0.000000,41.659821,44.965669,6999.776596,-0.141527,1.000000,1.000000,1.000000
7.400000,0.910393,-0.125806,-0.090803,2.355109,2.508334,-3.791360,483.276642,3.581818,0.000000,41.659825,44.965669,6999.776596,-0.728647,0.468032,-1.000000,1.000000
7.500000,0.977915,-0.133898,-0.091857,2.270022,2.592070,-4.060658,483.454315,3.759491,0.000000,41.659829,44.965669,6999.749236,-0.400726,1.000000,0.396291,0.382331
7.600000,1.052721,-0.141766,-0.095829,2.149600,2.588600,-4.329248,483.648132,3.953278,0.000000,41.659834,44.965670,6999.749236,0.076027,-1.000000,-0.804486,0.620505
7.700000,1.126473,-0.148169,-0.102527,1.997497,2.259300,-4.553345,483.817017,4.122162,0.000000,41.659838,44.965671,6999.720673,-0.307274,1.000000,0.650099,-0.039966
7.800000,1.192181,-0.152607,-0.110494,1.856262,1.822500,-4.734503,483.937103,4.242279,0.000000,41.659843,44.965672,6999.720673,0.698077,-1.000000,0.575849,-0.262093
7.900000,1.255447,-0.155310,-0.119694,1.718001,1.137702,-4.899129,484.002930,4.308105,0.000000,41.659847,44.965673,6999.690370,0.428349,1.000000,0.574595,0.216609
8.000000,1.313642,-0.155530,-0.130096,1.601780,0.501250,-5.068526,483.992218,4.297394,0.000000,41.659852,44.965674,6999.690370,-0.689108,-1.000000,-1.000000,1.000000
8.100000,1.366713,-0.153587,-0.139740,1.519186,0.470350,-5.243997,483.942596,4.247772,0.000000,41.659857,44.965675,6999.660771,-0.396562,0.616179,-0.113382,-0.495400
8.200000,1.418931,-0.150690,-0.144239,1.459334,0.686553,-5.410608,483.906677,4.211853,0.000000,41.659862,44.965677,6999.660771,1.000000,1.000000,-0.375911,-1.000000
8.300000,1.455074,-0.148782,-0.140643,1.443551,0.234744,-5.458459,483.853943,4.159119,0.000000,41.659867,44.965678,6999.632416,-0.659423,1.000000,0.465477,-0.649329
8.400000,1.467968,-0.148742,-0.128507,1.545425,-0.058362,-5.478371,483.766571,4.071747,0.000000,41.659871,44.965680,6999.632416,-0.509827,0.392063,-0.506792,1.000000
8.500000,1.472641,-0.149583,-0.109488,1.753295,0.451892,-5.571885,483.688354,3.993500,0.000000,41.659876,44.965682,6999.606050,-1.000000,-0.712597,-0.385932,-0.352464
8.600000,1.473316,-0.152808,-0.087464,2.050043,1.442089,-5.668159,483.695526,4.000702,0.000000,41.659881,44.965685,6999.606050,-1.000000,1.000000,0.498962,1.000000
8.700000,1.472196,-0.159710,-0.069389,2.338839,2.062657,-5.797423,483.792847,4.098022,0.000000,41.659886,44.965688,6999.583374,-0.359023,1.000000,-0.615643,0.503150
8.800000,1.477097,-0.169310,-0.056332,2.561097,2.211582,-5.910532,483.935547,4.240723,0.000000,41.659891,44.965691,6999.583374,1.000000,-0.656270,1.000000,0.101752
8.900000,1.481981,-0.179621,-0.046998,2.734986,1.779673,-5.972851,484.059937,4.365112,0.000000,41.659897,44.965695,6999.562937,-1.000000,0.708001,-0.038689,1.000000
9.000000,1.491652,-0.188594,-0.044167,2.880799,1.416436,-6.043903,484.133240,4.438416,0.000000,41.659902,44.965699,6999.562937,0.715141,-0.783014,-0.248223,-0.266562
9.100000,1.505979,-0.197398,-0.045379,3.025857,1.084297,-6.097303,484.174194,4.479370,0.000000,41.659907,44.965703,6999.543163,-0.754967,1.000000,-0.708118,-0.275538
9.200000,1.516149,-0.205541,-0.045835,3.197738,0.675720,-6.106177,484.171387,4.476563,0.000000,41.659912,44.965708,6999.543163,1.000000,-0.266384,1.000000,0.028557
9.300000,1.521399,-0.212233,-0.044642,3.380011,0.171641,-6.077592,484.120331,4.425507,0.000000,41.659918,44.965712,6999.522104,-0.271919,1.000000,-0.154689,-1.000000
9.400000,1.517165,-0.218001,-0.038149,3.634147,-0.359206,-5.983481,484.007843,4.313019,0.000000,41.659923,44.965717,6999.522104,0.742235,0.468700,0.089675,-0.568455
9.500000,1.499911,-0.222125,-0.023901,3.960295,-1.009033,-5.817412,483.839569,4.144745,0.000000,41.659928,44.965721,6999.498889,0.890560,-0.231321,1.000000,-0.840597
9.600000,1.474408,-0.224041,-0.005668,4.311993,-1.819366,-5.616386,483.610992,3.916168,0.000000,41.659932,44.965726,6999.498889,0.841844,0.117886,-0.617097,1.000000
9.700000,1.447852,-0.223570,0.013036,4.667116,-2.455976,-5.426945,483.292999,3.598175,0.000000,41.659937,44.965731,6999.472980,-0.239995,1.000000,-0.648623,-1.000000
9.800000,1.424165,-0.219669,0.031094,4.975536,-2.767706,-5.205491,482.936340,3.241516,0.000000,41.659942,44.965736,6999.472980,1.000000,-1.000000,-0.152095,-0.527131
9.900000,1.397019,-0.211912,0.050334,5.245125,-2.828127,-4.944609,482.584320,2.889496,0.000000,41.659947,44.965741,6999.446407,-0.998523,-0.225504,0.590994,0.692890
10.000000,1.370691,-0.198023,0.067255,5.460068,-2.279528,-4.764644,482.237518,2.542694,0.000000,41.659951,44.965747,6999.446407,-0.101357,0.850155,0.298697,1.000000
10.100000,1.353149,-0.177749,0.075375,5.631846,-1.408830,-4.655484,481.989410,2.294586,0.000000,41.659956,44.965752,6999.419088,-0.429113,-0.007901,0.056492,-0.356814
10.200000,1.338839,-0.155166,0.078101,5.816128,-0.664741,-4.538624,481.829529,2.134705,0.000000,41.659961,44.965758,6999.419088,-1.000000,-0.919320,-1.000000,0.495611
10.300000,1.323532,-0.129950,0.077763,6.060949,-0.093203,-4.373457,481.753632,2.058807,0.000000,41.659965,44.965765,6999.391852,1.000000,1.000000,0.169781,-0.847797
10.400000,1.305701,-0.105541,0.076574,6.285105,-0.346030,-4.162679,481.692261,1.997437,0.000000,41.659969,44.965771,6999.391852,-1.000000,-0.042370,0.981844,1.000000
10.500000,1.291026,-0.083928,0.072632,6.469357,-0.210766,-4.026324,481.630005,1.935181,0.000000,41.659974,44.965778,6999.367020,-0.438155,-0.981008,-0.287302,0.433145
10.600000,1.282766,-0.063603,0.064948,6.659989,0.268680,-3.941836,481.619354,1.924530,0.000000,41.659978,44.965785,6999.367020,-0.001460,-0.435992,1.000000,-0.754999
10.700000,1.275013,-0.046202,0.058465,6.829529,0.364537,-3.774001,481.636444,1.941620,0.000000,41.659982,44.965793,6999.344096,-0.861540,-1.000000,-0.447927,-0.415687
10.800000,1.259489,-0.032230,0.057195,7.005146,0.366945,-3.553116,481.668549,1.973694,0.000000,41.659987,44.965800,6999.344096,0.371241,-0.168855,0.197118,-0.288657
10.900000,1.240183,-0.020204,0.058500,7.183792,0.298037,-3.341493,481.702789,2.007996,0.000000,41.659991,44.965808,6999.321337,-1.000000,1.000000,-1.000000,0.784482
11.000000,1.226357,-0.011836,0.059126,7.321246,0.135826,-3.187646,481.736267,2.041443,0.000000,41.659995,44.965815,6999.321337,0.875869,-1.000000,-0.687669,-0.369837
11.100000,1.217321,-0.006615,0.058782,7.411200,-0.134552,-3.033036,481.746857,2.052032,0.000000,41.659999,44.965823,6999.299490,-1.000000,-0.743312,0.728780,-1.000000
11.200000,1.200193,-0.002946,0.061528,7.536445,-0.145982,-2.748588,481.740295,2.045471,0.000000,41.660003,44.965831,6999.299490,-0.518333,0.254235,0.907332,-1.000000
11.300000,1.168329,-0.001280,0.070408,7.701205,0.043809,-2.344966,481.755219,2.060394,0.000000,41.660007,44.965839,6999.276566,0.009788,-0.682792,0.857568,-1.000000
11.400000,1.127330,-0.000895,0.082818,7.840378,-0.111781,-1.880739,481.770996,2.076172,0.000000,41.660010,44.965847,6999.276566,0.604533,-0.046627,-0.562917,1.000000
11.500000,1.084739,-0.001666,0.095199,7.937040,-0.705277,-1.442924,481.745239,2.050415,0.000000,41.660014,44.965855,6999.251237,0.591271,0.213874,-1.000000,-0.124222
11.600000,1.052570,-0.004025,0.102283,8.009982,-1.194260,-1.095255,481.654022,1.959198,0.000000,41.660018,44.965864,6999.251237,-1.000000,0.138564,-1.000000,-1.000000
11.700000,1.023719,-0.007318,0.104869,8.115066,-0.895272,-0.760401,481.551178,1.856354,0.000000,41.660021,44.965872,6999.225742,-0.369090,-0.028835,0.018757,-0.060460
11.800000,0.988159,-0.012484,0.103921,8.259143,-0.088169,-0.390088,481.506500,1.811676,0.000000,41.660025,44.965881,6999.225742,-0.263844,0.370057,-1.000000,-0.636686
11.900000,0.953071,-0.019910,0.100153,8.374050,0.329902,-0.038615,481.507538,1.812714,0.000000,41.660028,44.965889,6999.199998,-0.526504,-0.875601,0.067381,1.000000
12.000000,0.926286,-0.029611,0.092579,8.496478,0.832083,0.224496,481.538757,1.843964,0.000000,41.660032,44.965898,6999.199998,-1.000000,1.000000,1.000000,-0.609740
12.100000,0.904749,-0.043207,0.083356,8.614612,1.250781,0.463735,481.617126,1.922302,0.000000,41.660035,44.965907,6999.173757,0.332943,-1.000000,1.000000,0.956084
12.200000,0.890615,-0.058529,0.074194,8.711770,1.356344,0.638193,481.700409,2.005585,0.000000,41.660039,44.965917,6999.173757,-1.000000,-0.099406,-0.059310,-0.001270
12.300000,0.885417,-0.074245,0.065881,8.834695,1.645882,0.735164,481.780701,2.085876,0.000000,41.660042,44.965926,6999.149796,-0.213709,-1.000000,-1.000000,-0.164510
12.400000,0.884273,-0.092175,0.060094,8.972583,1.895235,0.798610,481.884827,2.190002,0.000000,41.660046,44.965936,6999.149796,0.017306,-0.430284,-1.000000,1.000000
12.500000,0.892926,-0.110451,0.054543,9.093593,1.577690,0.754652,481.964844,2.270020,0.000000,41.660049,44.965946,6999.126540,0.099456,0.832846,-0.527070,0.257516
12.600000,0.912141,-0.127234,0.048044,9.222087,1.169358,0.612482,481.989136,2.294281,0.000000,41.660053,44.965956,6999.126540,1.000000,1.000000,0.456925,0.867408
12.700000,0.940897,-0.143677,0.040480,9.369622,0.759162,0.402349,481.951416,2.256592,0.000000,41.660056,44.965966,6999.101833,-0.957974,0.744395,0.846291,-0.189389
12.800000,0.973335,-0.157876,0.035618,9.532613,0.861025,0.148057,481.879028,2.184204,0.000000,41.660060,44.965976,6999.101833,-0.651812,1.000000,-0.068404,-1.000000
12.900000,0.998819,-0.168669,0.039043,9.701236,1.106582,0.007222,481.828033,2.133179,0.000000,41.660063,44.965986,6999.076462,0.592404,0.366330,-1.000000,-0.330689
13.000000,1.014035,-0.177793,0.052218,9.874520,0.866855,-0.038806,481.758392,2.063568,0.000000,41.660067,44.965997,6999.076462,0.852959,1.000000,0.228087,1.000000
13.100000,1.032913,-0.185747,0.042083,9.185284,0.959941,-0.235438,481.666565,1.971741,0.000000,41.660070,44.966007,6999.050180,0.067823,-0.463182,-0.947339,-0.114277
13.200000,1.065247,-0.196010,-0.000223,7.683423,1.863857,-0.552577,481.641754,1.946930,0.000000,41.660074,44.966016,6999.050180,0.158280,-1.000000,0.049761,-0.186396
13.300000,1.091865,-0.212032,-0.010123,6.916365,2.457999,-0.658102,481.716431,2.021606,0.000000,41.660076,44.966025,6999.024022,-1.000000,1.000000,0.359483,-0.196976
13.400000,1.110316,-0.229472,-0.005384,7.147164,2.616197,-0.794712,481.812164,2.117340,0.000000,41.660079,44.966033,6999.024022,0.266786,0.535420,0.866908,0.537434
13.500000,1.125510,-0.245712,0.000703,7.364457,2.453590,-0.896519,481.889008,2.194153,0.000000,41.660082,44.966041,6999.000309,0.931911,-1.000000,-0.525789,-1.000000
13.600000,1.133921,-0.261384,0.010318,7.583986,1.822999,-0.896605,481.911255,2.216461,0.000000,41.660085,44.966049,6999.000309,0.701976,-0.062707,-0.253243,-0.323581
13.700000,1.130061,-0.274679,0.022886,7.672784,1.123040,-0.783101,481.844757,2.149933,0.000000,41.660088,44.966058,6998.978587,1.000000,-1.000000,0.376322,0.344517
13.800000,1.130562,-0.290434,0.003575,5.954062,1.800368,-0.669200,481.783356,2.088531,0.000000,41.660090,44.966066,6998.978587,-0.082620,-1.000000,-0.658862,-0.457207
13.900000,1.123778,-0.322733,-0.016375,4.200855,2.665404,-0.391577,481.858124,2.163300,0.000000,41.660092,44.966072,6998.958150,-1.000000,-0.232354,-0.308296,-1.000000
14.000000,1.094811,-0.360586,-0.012739,4.226484,2.735377,-0.155069,481.982727,2.287933,0.000000,41.660094,44.966077,6998.958150,1.000000,-0.945486,-0.027059,-0.280890
14.100000,1.057080,-0.391933,-0.000210,4.517544,2.384614,0.033658,482.057983,2.363159,0.000000,41.660095,44.966082,6998.939287,-0.226451,-0.023759,1.000000,1.000000
14.200000,1.020259,-0.419547,0.012704,4.806515,2.070700,0.175082,482.073608,2.378784,0.000000,41.660097,44.966088,6998.939287,-0.178093,0.172856,1.000000,0.214295
14.300000,0.997254,-0.443751,0.011659,4.714959,2.669855,0.278353,482.084229,2.389404,0.000000,41.660099,44.966094,6998.921420,-1.000000,1.000000,-1.000000,-0.081045
14.400000,0.982961,-0.464788,0.008048,5.057823,3.363033,0.348894,482.138397,2.443573,0.000000,41.660100,44.966100,6998.921420,-0.446119,-0.366823,0.476914,1.000000
14.500000,0.975317,-0.484686,0.006537,5.508324,3.719672,0.374796,482.220123,2.525330,0.000000,41.660103,44.966107,6998.903636,1.000000,0.005782,0.515270,-0.114841
14.600000,0.975588,-0.501582,0.005558,5.936643,3.457258,0.379155,482.266022,2.571198,0.000000,41.660105,44.966115,6998.903636,-1.000000,-1.000000,-1.000000,0.330535
14.700000,0.981717,-0.513957,0.006303,6.352686,3.225732,0.327885,482.258575,2.563751,0.000000,41.660107,44.966122,6998.886018,1.000000,-1.000000,-0.325853,1.000000
14.800000,0.999526,-0.522564,0.004990,6.582551,3.040928,0.159762,482.203705,2.508881,0.000000,41.660110,44.966130,6998.886018,-0.862209,-0.847326,0.619227,0.646612
14.900000,1.026341,-0.524300,0.003441,5.640445,3.514038,-0.124718,482.175507,2.480682,0.000000,41.660112,44.966138,6998.867322,-0.787598,-0.779942,0.229695,-0.309007
15.000000,1.057041,-0.524601,0.003058,6.099023,3.936462,-0.324632,482.204895,2.510071,0.000000,41.660115,44.966145,6998.867322,-0.405470,0.972365,0.351561,-0.711432
15.100000,1.086622,-0.523471,0.009414,6.641020,3.988340,-0.528866,482.235352,2.540527,0.000000,41.660118,44.966153,6998.845599,0.854038,0.486572,-1.000000,1.000000
15.200000,1.119786,-0.520308,0.014352,7.073948,3.612479,-0.790787,482.219147,2.524323,0.000000,41.660120,44.966162,6998.845599,-1.000000,0.507715,0.872333,0.338906
15.300000,1.158892,-0.512442,0.012676,7.065188,3.651821,-1.092815,482.184265,2.489441,0.000000,41.660123,44.966171,6998.822260,0.478691,-0.938090,0.937044,-0.807200
15.400000,1.204078,-0.500811,0.005082,7.149757,3.543977,-1.372830,482.155548,2.460724,0.000000,41.660126,44.966180,6998.822260,-0.337505,0.661331,-0.655291,0.989767
15.500000,1.252647,-0.491973,-0.008398,6.892979,3.692077,-1.654559,482.131073,2.436249,0.000000,41.660129,44.966188,6998.797097,-1.000000,-0.474422,-0.003959,-0.226918
15.600000,1.298442,-0.488714,-0.020083,6.894307,4.080451,-1.928749,482.148956,2.454132,0.000000,41.660131,44.966197,6998.797097,0.368157,0.986264,-0.994385,-0.432193
15.700000,1.341160,-0.488442,-0.031611,7.126218,3.895148,-2.158702,482.174255,2.479401,0.000000,41.660134,44.966207,6998.769653,0.500522,-0.094874,1.000000,0.058423
15.800000,1.372856,-0.489343,-0.036480,7.131705,3.445013,-2.281517,482.152466,2.457642,0.000000,41.660137,44.966216,6998.769653,0.345896,1.000000,0.079220,-0.555193
15.900000,1.385284,-0.496023,-0.030987,6.248058,3.318554,-2.032655,482.121552,2.426727,0.000000,41.660139,44.966225,6998.742127,1.000000,0.970778,-0.724760,-1.000000
16.000000,1.379424,-0.510286,-0.023810,4.954618,3.395851,-1.549160,482.148071,2.453247,0.000000,41.660141,44.966232,6998.742127,-1.000000,0.177945,-1.000000,1.000000
16.100000,1.371150,-0.528437,-0.027800,4.763270,3.558994,-1.372116,482.209747,2.514923,0.000000,41.660143,44.966239,6998.715264,-0.174655,-0.325983,-0.229133,0.015501
16.200000,1.369423,-0.546542,-0.040840,5.224278,3.955332,-1.348415,482.271484,2.576660,0.000000,41.660144,44.966246,6998.715264,-0.662471,-0.024368,1.000000,-0.623181
16.300000,1.367823,-0.564175,-0.055726,5.478642,4.059283,-1.235039,482.330963,2.636169,0.000000,41.660146,44.966254,6998.689065,0.914392,0.128867,-0.339341,0.233401
16.400000,1.366111,-0.577292,-0.070812,5.525245,3.787482,-1.112495,482.358490,2.663666,0.000000,41.660148,44.966262,6998.689065,1.000000,0.811579,0.946089,0.941927
16.500000,1.374226,-0.582842,-0.092079,5.337865,3.420356,-1.068606,482.351440,2.656616,0.000000,41.660149,44.966269,6998.665850,0.069679,-1.000000,-1.000000,0.194595
16.600000,1.394003,-0.581011,-0.120777,4.736861,3.222066,-1.045562,482.336212,2.641388,0.000000,41.660151,44.966276,6998.665850,0.393361,-0.869453,-0.615981,-1.000000
16.700000,1.410487,-0.581116,-0.144586,4.217707,3.123293,-0.968091,482.343384,2.648560,0.000000,41.660152,44.966283,6998.644791,0.006532,-0.402982,0.681504,1.000000
16.800000,1.421367,-0.586290,-0.163387,3.968094,3.120076,-0.934581,482.363220,2.668427,0.000000,41.660153,44.966289,6998.644791,-0.795991,-0.001318,-0.125720,0.064406
16.900000,1.433584,-0.595449,-0.182297,4.034717,3.324510,-0.987692,482.392700,2.697845,0.000000,41.660155,44.966295,6998.624395,0.517463,1.000000,-0.653025,0.448803
17.000000,1.448431,-0.606662,-0.201735,3.926511,3.329839,-1.032745,482.421661,2.726837,0.000000,41.660156,44.966301,6998.624395,0.971964,-0.871100,1.000000,1.000000
17.100000,1.469775,-0.618723,-0.227585,3.423890,3.123091,-1.026050,482.449615,2.754791,0.000000,41.660157,44.966306,7000.139825,-0.037271,-0.134723,-0.063598,-1.000000
17.200000,1.493800,-0.636242,-0.259590,2.844943,2.921351,-0.946403,482.484131,2.789307,0.000000,41.660159,44.966311,7000.139825,0.776094,0.072305,-0.990457,0.503207
17.300000,1.517571,-0.658113,-0.293492,2.290735,2.692179,-0.862063,482.526428,2.831573,0.000000,41.660160,44.966315,7000.121834,0.264815,-0.512133,-0.156621,-0.832980
17.400000,1.544960,-0.677539,-0.327536,1.897576,2.515029,-0.864229,482.570221,2.875397,0.000000,41.660161,44.966319,7000.121834,-0.460150,-1.000000,-0.204097,1.000000
17.500000,1.581726,-0.692914,-0.363670,1.864529,2.560575,-1.001301,482.613525,2.918701,0.000000,41.660162,44.966323,7000.103759,0.304602,1.000000,0.492108,0.661718
17.600000,1.629065,-0.701464,-0.401859,2.006488,2.789336,-1.245435,482.646332,2.951508,0.000000,41.660164,44.966326,7000.103759,-1.000000,0.292539,-0.649575,1.000000
17.700000,1.681412,-0.701826,-0.421112,3.096167,3.195893,-0.949888,482.673370,2.978577,0.000000,41.660165,44.966331,7000.086058,-1.000000,0.057406,1.000000,0.138051
17.800000,1.751792,-0.695454,-0.405404,2.765820,4.167763,-2.188742,482.674683,2.979858,0.000000,41.660166,44.966336,7000.086058,-1.000000,0.298124,1.000000,0.011883
17.900000,1.816440,-0.701236,-0.441668,3.688876,4.741104,-1.934547,482.725830,3.031006,0.000000,41.660168,44.966343,7000.068481,-0.194208,-0.262425,-1.000000,0.783891
18.000000,1.880139,-0.701778,-0.483310,3.804489,4.770442,-2.261418,482.738647,3.043823,0.000000,41.660169,44.966350,7000.068481,1.000000,-0.054990,0.249912,1.000000
18.100000,1.958578,-0.695355,-0.543975,3.480450,4.485264,-2.584346,482.719635,3.024811,0.000000,41.660171,44.966358,7000.050324,0.063530,-0.368945,-0.542414,0.213182
18.200000,2.049403,-0.682164,-0.616263,2.983719,4.108546,-2.811247,482.674652,2.979828,0.000000,41.660173,44.966365,7000.050324,0.718260,-0.275632,0.014423,-0.995230
18.300000,2.141247,-0.669137,-0.705014,1.820502,3.818139,-2.664781,482.635956,2.941132,0.000000,41.660174,44.966371,7000.031420,0.487971,-1.000000,-0.881689,-0.325166
18.400000,2.242028,-0.658447,-0.797551,1.112752,3.493593,-2.210189,482.628357,2.933502,0.000000,41.660176,44.966375,7000.031420,0.062771,0.996014,1.000000,-1.000000
18.500000,2.348744,-0.651313,-0.849400,0.952986,3.033044,-2.521089,482.593536,2.898712,0.000000,41.660177,44.966380,7000.009988,0.581108,1.000000,-0.121884,1.000000
18.600000,2.445631,-0.640646,-0.963400,-0.006306,2.918576,-2.280160,482.567810,2.872986,0.000000,41.660179,44.966384,7000.009988,-0.554363,0.242982,0.517593,0.325976
18.700000,2.554770,-0.608085,-1.028838,0.180675,2.722017,-2.990371,482.495148,2.800323,0.000000,41.660181,44.966388,6999.985695,-1.000000,-0.381351,-0.383821,1.000000
18.800000,2.663620,-0.562215,-1.133035,-0.332396,2.991886,-2.688847,482.404785,2.709961,0.000000,41.660183,44.966392,6999.985695,0.331034,0.135743,-0.533485,-1.000000
18.900000,2.759146,-0.510278,-1.204085,-0.239355,2.805759,-2.702074,482.302612,2.607819,0.000000,41.660185,44.966396,6999.960657,-0.833186,0.496748,0.822750,-1.000000
19.000000,2.848038,-0.460663,-1.281062,-0.058879,2.492951,-2.885341,482.142181,2.447357,0.000000,41.660186,44.966399,6999.960657,-1.000000,-0.334679,0.401726,-0.128111
19.100000,2.924778,-0.404592,-1.386531,-0.570947,2.385320,-2.653802,481.960144,2.265320,0.000000,41.660187,44.966403,6999.934291,0.494670,0.777367,-0.553917,0.579833
19.200000,2.988636,-0.333920,-1.466433,-0.887697,2.198331,-2.784214,481.777313,2.082489,0.000000,41.660189,44.966406,6999.934291,-0.224006,-1.000000,0.097367,-0.759018
19.300000,3.049412,-0.246955,-1.530685,-0.988936,2.058079,-2.918880,481.540100,1.845276,0.000000,41.660190,44.966409,6999.905770,-0.007775,0.375292,0.302917,0.035408
19.400000,3.099371,-0.151903,-1.591305,-1.021319,1.936825,-3.056109,481.263702,1.568878,0.000000,41.660192,44.966411,6999.905770,0.139755,1.000000,-0.314942,1.000000
19.500000,3.138702,-0.047343,-1.653957,-1.324478,1.917443,-3.043348,480.971497,1.276672,0.000000,41.660193,44.966413,6999.877166,0.395628,0.857829,0.972434,0.389777
19.600000,3.168300,0.075220,-1.775320,-1.344485,2.316018,-2.666647,480.639648,0.944824,0.000000,41.660194,44.966416,6999.877166,0.458153,-0.764055,-1.000000,-0.090762
19.700000,3.168824,0.189365,-2.007296,-1.435823,3.026435,-2.213546,480.303070,0.608246,0.000000,41.660194,44.966418,6999.851215,1.000000,-1.000000,-0.328733,0.573685
19.800000,3.149838,0.297165,-2.220464,-1.635776,3.510432,-1.935254,479.943329,0.248535,0.000000,41.660195,44.966420,6999.851215,0.430070,-1.000000,-0.392533,-1.000000
19.900000,3.114993,0.382371,-2.499125,0.834306,-0.395377,2.458029,479.715637,0.020813,0.000000,41.660195,44.966422,6312.000000,1.000000,-0.327670,-0.078105,-1.000000
20.000000,3.072896,0.350660,-2.663889,1.030334,-1.080444,1.987944,479.969025,0.274170,0.000000,41.660194,44.966423,6312.000000,-0.533010,0.879415,-0.618639,-0.128836
20.100000,3.033173,0.317025,-2.764475,0.872129,-0.601639,1.746776,480.141602,0.446777,0.000000,41.660194,44.966425,6868.668803,0.646932,0.121455,-0.942684,-0.396191
20.200000,2.990710,0.276436,-2.852086,0.599763,-0.029467,1.442419,480.241974,0.547180,0.000000,41.660193,44.966426,6868.668803,1.000000,-0.442880,0.223138,0.674136
20.300000,2.948649,0.227272,-2.935112,0.523037,0.349592,1.111479,480.266296,0.571472,0.000000,41.660193,44.966428,6868.647329,0.475271,0.526315,1.000000,0.389852
20.400000,2.926582,0.179387,-3.053979,0.306471,0.029508,0.940618,480.269806,0.574982,0.000000,41.660193,44.966429,6868.647329,-0.216491,-0.134159,-0.017069,0.952166
20.500000,2.910697,0.145218,3.101003,0.200966,-0.231041,0.760230,480.289337,0.594513,0.000000,41.660193,44.966430,6868.627887,-1.000000,1.000000,-0.216773,1.000000
20.600000,2.900450,0.130336,3.010585,0.083703,-0.454127,0.456487,480.322540,0.627716,0.000000,41.660193,44.966431,6868.627887,0.663924,0.480289,0.028695,-0.685120
20.700000,2.893093,0.127125,2.950051,0.067893,-0.360074,0.386777,480.357208,0.662384,0.000000,41.660193,44.966432,6312.000000,-0.475804,0.803260,-0.494957,0.096097
20.800000,2.885026,0.120847,2.894028,0.100509,-0.331184,0.366847,480.387390,0.692566,0.000000,41.660193,44.966432,6312.000000,0.303126,0.752223,-1.000000,0.976725
20.900000,2.878081,0.118139,2.844302,0.035206,-0.220913,0.308686,480.403717,0.708893,0.000000,41.660193,44.966433,6312.000000,1.000000,-0.338150,0.508111,-0.238852
21.000000,2.873252,0.116493,2.808830,0.026887,-0.166843,0.235895,480.413513,0.718689,0.000000,41.660193,44.966433,6312.000000,-0.861246,1.000000,0.693425,0.670087
21.100000,2.869343,0.115070,2.780301,0.020416,-0.122856,0.175597,480.420410,0.725586,0.000000,41.660193,44.966433,6312.000000,0.285951,0.461769,1.000000,-0.123851
21.200000,2.866469,0.111698,2.761355,0.088484,-0.200533,0.040623,480.429779,0.734955,0.000000,41.660193,44.966433,6312.000000,-0.181018,1.000000,-1.000000,-1.000000
21.300000,2.865279,0.104030,2.753463,0.079084,-0.130284,-0.001946,480.444580,0.749756,0.000000,41.660193,44.966434,6312.000000,0.913246,0.405061,-0.496941,-1.000000
21.400000,2.864799,0.098124,2.752205,0.052882,-0.069768,-0.044986,480.455383,0.760590,0.000000,41.660192,44.966434,6312.000000,0.770555,1.000000,-1.000000,0.532977
21.500000,2.865023,0.094273,2.758535,0.032674,-0.015522,-0.092677,480.462372,0.767548,0.000000,41.660192,44.966434,6312.000000,-1.000000,0.517930,0.257027,-0.749630
21.600000,2.865905,0.092108,2.771924,0.018044,0.031576,-0.144223,480.466003,0.771179,0.000000,41.660192,44.966433,6312.000000,1.000000,-0.348449,0.180912,0.625854
21.700000,2.867618,0.091041,2.794825,0.005227,0.081298,-0.206855,480.466919,0.772095,0.000000,41.660192,44.966433,6312.000000,0.216663,-1.000000,1.000000,-1.000000
21.800000,2.870234,0.090997,2.827748,-0.005821,0.133016,-0.279301,480.464600,0.769745,0.000000,41.660192,44.966433,6312.000000,-0.468259,0.441363,1.000000,0.338192
21.900000,2.873653,0.091710,2.869122,-0.015279,0.184501,-0.358355,480.458740,0.763916,0.000000,41.660192,44.966432,6312.000000,-0.408970,0.220886,0.259606,-0.754404
22.000000,2.878489,0.093086,2.925656,-0.025112,0.244105,-0.454995,480.447388,0.752563,0.000000,41.660192,44.966432,6312.000000,-0.613187,0.078819,0.597113,-1.000000
22.100000,2.884797,0.094877,2.996911,-0.035112,0.309694,-0.565521,480.428711,0.733887,0.000000,41.660192,44.966431,6312.000000,-0.741016,-0.574254,-0.295355,-0.681912
22.200000,2.892565,0.096662,3.075082,-0.022457,0.194008,-0.526418,480.405121,0.710297,0.000000,41.660192,44.966431,6312.000000,0.071733,-0.164099,1.000000,0.340251
22.300000,2.898326,0.098556,3.115972,-0.037553,0.054109,-0.203327,480.398926,0.704102,0.000000,41.660192,44.966430,6312.000000,-0.359159,0.463131,1.000000,1.000000
22.400000,2.899560,0.101109,3.134259,-0.020836,-0.042127,-0.040639,480.399872,0.705048,0.000000,41.660192,44.966430,6312.000000,-0.631070,-0.144138,0.323255,1.000000
22.500000,2.898892,0.101514,3.134388,-0.002332,-0.023441,0.045531,480.402710,0.707886,0.000000,41.660192,44.966430,6312.000000,1.000000,1.000000,0.906063,0.418462
22.600000,2.897738,0.101670,3.129874,-0.001655,-0.014431,0.048779,480.404541,0.709717,0.000000,41.660192,44.966430,6312.000000,-1.000000,-1.000000,1.000000,0.638879
22.700000,2.896794,0.101824,3.125349,-0.000840,-0.009190,0.038305,480.405609,0.710785,0.000000,41.660192,44.966430,6312.000000,-0.810851,-0.146562,-0.890838,-0.675457
22.800000,2.896189,0.101872,3.122191,-0.000397,-0.009681,0.023749,480.406433,0.711609,0.000000,41.660192,44.966430,6312.000000,1.000000,-0.192664,0.536927,1.000000
22.900000,2.895784,0.101855,3.120355,-0.000797,-0.007780,0.013504,480.407288,0.712463,0.000000,41.660192,44.966430,6312.000000,-1.000000,0.855810,0.604236,1.000000
23.000000,2.895517,0.101837,3.119247,0.003430,-0.005239,0.009664,480.407928,0.713104,0.000000,41.660192,44.966430,6312.000000,-0.053287,0.205365,-0.518249,0.020221
23.100000,2.895285,0.101803,3.118510,-0.005794,-0.004627,0.006876,480.408356,0.713531,0.000000,41.660192,44.966430,6312.000000,-1.000000,-0.517673,0.540936,-0.129519
23.200000,2.895121,0.101793,3.117912,0.002297,-0.002865,0.006014,480.408691,0.713867,0.000000,41.660192,44.966430,6312.000000,1.000000,0.132540,-0.253930,0.066763
23.300000,2.894994,0.101778,3.117504,-0.000846,-0.002215,0.003674,480.408936,0.714111,0.000000,41.660192,44.966430,6312.000000,0.181140,1.000000,0.555522,-0.579157
23.400000,2.894925,0.101768,3.117207,-0.000266,-0.001610,0.002332,480.409119,0.714294,0.000000,41.660192,44.966430,6312.000000,0.324898,0.815918,0.529696,0.727834
23.500000,2.894886,0.101759,3.116991,-0.000030,-0.001159,0.001421,480.409241,0.714417,0.000000,41.660192,44.966430,6312.000000,0.138358,0.528247,0.763521,-1.000000
23.600000,2.894863,0.101752,3.116844,0.000045,-0.000823,0.000906,480.409332,0.714508,0.000000,41.660192,44.966430,6312.000000,-0.348825,-0.279041,-0.070236,1.000000
23.700000,2.894850,0.101746,3.116747,0.000062,-0.000609,0.000624,480.409424,0.714630,0.000000,41.660192,44.966430,6312.000000,0.423579,0.698040,0.224313,-0.704507
23.800000,2.894841,0.101741,3.116674,0.000058,-0.000443,0.000435,480.409454,0.714630,0.000000,41.660192,44.966430,6312.000000,0.999076,1.000000,-1.000000,0.155274
23.900000,2.894834,0.101738,3.116621,0.000048,-0.000316,0.000311,480.409515,0.714691,0.000000,41.660192,44.966430,6312.000000,-1.000000,-1.000000,0.504593,-0.294521
24.000000,2.894829,0.101735,3.116584,0.000038,-0.000234,0.000230,480.409515,0.714691,0.000000,41.660192,44.966430,6312.000000,-0.384701,0.107183,0.423086,1.000000
24.100000,2.894825,0.101733,3.116555,0.000029,-0.000171,0.000168,480.409546,0.714722,0.000000,41.660192,44.966430,6312.000000,0.391017,1.000000,0.071481,-1.000000
24.200000,2.894822,0.101731,3.116534,0.000021,-0.000122,0.000122,480.409546,0.714722,0.000000,41.660192,44.966430,6312.000000,-1.000000,0.676810,-0.358719,0.463764
24.300000,2.894819,0.101730,3.116520,0.000016,-0.000091,0.000091,480.409576,0.714752,0.000000,41.660192,44.966430,6312.000000,-0.327437,0.785093,0.990878,0.660982
24.400000,2.894817,0.101729,3.116508,0.000012,-0.000066,0.000066,480.409576,0.714722,0.000000,41.660192,44.966430,6312.000000,-0.867275,-1.000000,-1.000000,-1.000000
24.500000,2.894815,0.101728,3.116500,0.000009,-0.000047,0.000048,480.409576,0.714752,0.000000,41.660192,44.966430,6312.000000,0.943648,-0.071246,0.544653,-0.881537
24.600000,2.894813,0.101728,3.116494,0.000006,-0.000035,0.000035,480.409576,0.714752,0.000000,41.660192,44.966430,6312.000000,-0.115922,-0.638594,0.217356,-0.116471
24.700000,2.894811,0.101728,3.116489,0.000005,-0.000024,0.000025,480.409576,0.714752,0.000000,41.660192,44.966430,6312.000000,0.364924,0.405525,0.206815,0.117510
24.800000,2.894809,0.101727,3.116486,0.000003,-0.000018,0.000018,480.409607,0.714783,0.000000,41.660192,44.966430,6312.000000,0.735209,0.954741,0.376914,0.956102
24.900000,2.894808,0.101727,3.116484,0.000003,-0.000014,0.000013,480.409607,0.714783,0.000000,41.660192,44.966430,6312.000000,0.348200,0.667870,-1.000000,-0.963459
25.000000,2.894806,0.101727,3.116482,0.000002,-0.000011,0.000009,480.409607,0.714783,0.000000,41.660192,44.966430,6312.000000,-0.022369,1.000000,1.000000,-0.492207
25.100000,2.894805,0.101727,3.116481,0.000001,-0.000007,0.000005,480.409607,0.714752,0.000000,41.660192,44.966430,6312.000000,0.602336,-1.000000,-0.120849,0.103685
25.200000,2.894804,0.101727,3.116480,0.000001,-0.000005,0.000003,480.409607,0.714783,0.000000,41.660192,44.966430,6312.000000,-1.000000,0.035248,0.401473,0.550400
25.300000,2.894802,0.101726,3.116480,0.000000,-0.000003,0.000002,480.409607,0.714783,0.000000,41.660192,44.966430,6312.000000,-0.810744,-0.467499,0.742532,0.703991
25.400000,2.894801,0.101726,3.116479,0.000000,-0.000003,0.000001,480.409607,0.714783,0.000000,41.660192,44.966430,6312.000000,1.000000,1.000000,-1.000000,0.612019
25.500000,2.894800,0.101726,3.116479,0.000000,-0.000002,0.000001,480.409607,0.714783,0.000000,41.660192,44.966430,6312.000000,0.770023,1.000000,0.234171,-0.241452
25.600000,2.894798,0.101726,3.116479,0.000000,-0.000001,0.000001,480.409607,0.714783,0.000000,41.660192,44.966430,6312.000000,0.195202,-1.000000,-0.761095,-0.302228
25.700000,2.894797,0.101726,3.116479,0.000000,-0.000001,0.000000,480.409607,0.714783,0.000000,41.660192,44.966430,6312.000000,0.622842,0.655083,0.380279,-0.631770
25.800000,2.894796,0.101726,3.116478,-0.000001,-0.000000,0.000000,480.409607,0.714783,0.000000,41.660192,44.966430,6312.000000,-1.000000,-0.045348,0.346557,0.164784
25.900000,2.894794,0.101726,3.116478,-0.000000,-0.000000,0.000000,480.409607,0.714813,0.000000,41.660192,44.966430,6312.000000,-0.013780,0.939224,0.034144,-0.508644
26.000000,2.894793,0.101726,3.116478,0.000000,-0.000001,0.000000,480.409607,0.714783,0.000000,41.660192,44.966430,6312.000000,1.000000,-0.253513,0.084208,0.466502
26.100000,2.894792,0.101726,3.116478,-0.000000,-0.000001,0.000000,480.409607,0.714783,0.000000,41.660192,44.966430,6312.000000,-0.702958,1.000000,0.928470,-0.855142
26.200000,2.894790,0.101726,3.116478,-0.000000,-0.000001,0.000000,480.409607,0.714783,0.000000,41.660192,44.966430,6312.000000,-1.000000,0.476014,0.114250,1.000000
26.300000,2.894789,0.101726,3.116478,-0.000000,-0.000000,0.000000,480.409607,0.714783,0.000000,41.660192,44.966430,6312.000000,-1.000000,0.244866,-0.499425,-0.522390
26.400000,2.894788,0.101726,3.116477,-0.000001,-0.000000,0.000000,480.409607,0.714813,0.000000,41.660192,44.966430,6312.000000,-0.007745,-0.442564,0.209877,-0.291923
26.500000,2.894786,0.101726,3.116477,-0.000000,-0.000000,0.000000,480.409607,0.714783,0.000000,41.660192,44.966430,6312.000000,-0.928900,-1.000000,1.000000,1.000000
26.600000,2.894785,0.101726,3.116477,-0.000000,-0.000000,0.000000,480.409607,0.714783,0.000000,41.660192,44.966430,6312.000000,0.418166,1.000000,-1.000000,-0.489636
26.700000,2.894784,0.101726,3.116477,-0.000001,0.000001,0.000000,480.409607,0.714813,0.000000,41.660192,44.966430,6312.000000,-0.092064,0.884938,0.946774,0.478316
26.800000,2.894782,0.101726,3.116477,0.000000,-0.000001,0.000000,480.409607,0.714783,0.000000,41.660192,44.966430,6312.000000,-0.175091,1.000000,1.000000,-0.602524
26.900000,2.894781,0.101726,3.116477,-0.000000,-0.000000,0.000000,480.409607,0.714783,0.000000,41.660192,44.966430,6312.000000,0.015200,-0.586129,0.030539,-1.000000
27.000000,2.894780,0.101726,3.116477,-0.000001,0.000001,0.000000,480.409607,0.714783,0.000000,41.660192,44.966430,6312.000000,0.341551,0.983705,1.000000,1.000000
27.100000,2.894778,0.101726,3.116477,0.000000,-0.000001,0.000000,480.409607,0.714783,0.000000,41.660192,44.966430,6312.000000,1.000000,-1.000000,0.307727,-1.000000
27.200000,2.894777,0.101726,3.116477,0.000000,-0.000000,0.000001,480.409607,0.714783,0.000000,41.660192,44.966430,6312.000000,-0.098095,-0.276838,-0.579177,-0.458552
27.300000,2.894776,0.101726,3.116476,-0.000001,0.000001,0.000000,480.409607,0.714783,0.000000,41.660192,44.966430,6312.000000,-0.359279,1.000000,0.775330,-1.000000
27.400000,2.894774,0.101726,3.116476,-0.000001,0.000002,0.000001,480.409607,0.714783,0.000000,41.660192,44.966430,6312.000000,-0.504394,-1.000000,0.011987,-1.000000
27.500000,2.894773,0.101726,3.116476,0.000000,-0.000000,0.000001,480.409607,0.714783,0.000000,41.660192,44.966430,6312.000000,1.000000,-0.381730,-1.000000,-1.000000
27.600000,2.894772,0.101726,3.116475,-0.000000,0.000001,0.000004,480.409607,0.714783,0.000000,41.660192,44.966430,6312.000000,-0.623442,0.112900,-1.000000,1.000000
27.700000,2.894770,0.101726,3.116475,-0.000001,0.000001,0.000006,480.409607,0.714783,0.000000,41.660192,44.966430,6312.000000,-0.336611,0.373171,-1.000000,1.000000
27.800000,2.894768,0.101726,3.116474,-0.000000,0.000001,0.000006,480.409607,0.714783,0.000000,41.660192,44.966430,6312.000000,0.759286,-0.381239,0.499169,-0.194599
27.900000,2.894767,0.101726,3.116473,0.000000,0.000001,0.000005,480.409607,0.714783,0.000000,41.660192,44.966430,6312.000000,0.396502,0.993870,1.000000,1.000000
28.000000,2.894766,0.101726,3.116472,-0.000000,-0.000000,0.000005,480.409607,0.714783,0.000000,41.660192,44.966430,6312.000000,-0.397413,-1.000000,-0.615365,0.504314
28.100000,2.894764,0.101726,3.116472,-0.000000,0.000000,0.000004,480.409607,0.714783,0.000000,41.660192,44.966430,6312.000000,-1.000000,1.000000,0.347498,-0.912750
28.200000,2.894763,0.101726,3.116471,0.000000,0.000000,0.000005,480.409607,0.714783,0.000000,41.660192,44.966430,6312.000000,-0.087387,-0.326616,1.000000,0.517126
28.300000,2.894761,0.101726,3.116470,-0.000000,0.000001,0.000005,480.409607,0.714783,0.000000,41.660192,44.966430,6312.000000,-0.536613,-1.000000,-0.244839,0.869225
28.400000,2.894760,0.101726,3.116470,-0.000000,0.000001,0.000006,480.409607,0.714783,0.000000,41.660192,44.966430,6312.000000,0.355519,0.943595,0.941586,-1.000000
28.500000,2.894758,0.101726,3.116469,-0.000000,0.000000,0.000005,480.409607,0.714783,0.000000,41.660192,44.966430,6312.000000,-1.000000,0.589973,0.980489,1.000000
28.600000,2.894757,0.101726,3.116468,0.000000,-0.000001,0.000005,480.409607,0.714783,0.000000,41.660192,44.966430,6312.000000,0.394621,-1.000000,-0.306987,-0.207479
28.700000,2.894756,0.101726,3.116467,-0.000000,0.000001,0.000005,480.409607,0.714752,0.000000,41.660192,44.966430,6312.000000,1.000000,1.000000,0.699910,-0.339855
28.800000,2.894754,0.101726,3.116467,-0.000000,0.000000,0.000005,480.409607,0.714783,0.000000,41.660192,44.966430,6312.000000,-0.128396,0.361836,0.897199,-0.297196
28.900000,2.894752,0.101726,3.116466,-0.000000,-0.000000,0.000005,480.409607,0.714783,0.000000,41.660192,44.966430,6312.000000,-0.907620,-0.929862,-1.000000,0.311943
29.000000,2.894751,0.101726,3.116465,-0.000000,0.000000,0.000005,480.409607,0.714783,0.000000,41.660192,44.966430,6312.000000,0.477996,0.619726,0.925685,1.000000
29.100000,2.894749,0.101726,3.116464,-0.000000,0.000000,0.000005,480.409607,0.714783,0.000000,41.660192,44.966430,6312.000000,-1.000000,0.167883,-1.000000,-0.199047
