t,yaw,pitch,roll,speed.x,speed.y,speed.z,altBar,altRad,egt,myloclat,myloclon,weightlb,collective,bank,pitch,rudder
0.100000,5.374811,0.031623,0.000871,-0.098516,0.517274,0.027773,481.239288,1.544464,0.000000,41.659724,44.965707,7004.964901,1.000000,0.771121,-1.000000,0.707793
0.200000,5.373966,0.037316,0.003410,-0.074950,0.116317,0.028196,481.265198,1.570374,0.000000,41.659724,44.965707,7004.964901,-0.510635,-1.000000,-0.438817,1.000000
0.300000,5.375535,0.041413,0.004443,-0.057567,0.147011,-0.034955,481.275818,1.580994,0.000000,41.659724,44.965707,7000.556034,-0.200848,-1.000000,-0.855000,0.030986
0.400000,5.379075,0.044210,0.000716,-0.033337,0.050194,-0.065511,481.291443,1.596619,0.000000,41.659724,44.965707,7000.556034,1.000000,-0.965693,-1.000000,0.377725
0.500000,5.382825,0.044334,-0.001616,-0.010415,-0.091309,-0.013047,481.283813,1.588989,0.000000,41.659724,44.965707,7000.556034,-1.000000,1.000000,-0.000955,-0.393274
0.600000,5.383836,0.042555,-0.000028,0.057854,0.163383,0.037493,481.286438,1.591614,0.000000,41.659724,44.965707,7000.556034,-0.807826,-0.319454,0.608650,0.274749
0.700000,5.385072,0.037523,0.003491,0.123224,0.552137,0.000112,481.324554,1.629730,0.000000,41.659724,44.965707,7000.541649,-0.256590,0.314597,0.186375,0.992864
0.800000,5.393757,0.029763,0.005822,0.165604,0.613173,-0.056273,481.390778,1.695953,0.000000,41.659724,44.965707,7000.541649,1.000000,-0.114278,1.000000,0.620195
0.900000,5.409816,0.021321,0.005140,0.178299,0.233149,-0.076298,481.431915,1.737091,0.000000,41.659724,44.965707,7000.527057,-0.937581,-1.000000,-0.682544,0.063762
1.000000,5.431225,0.011837,0.002996,0.216876,0.075092,-0.077645,481.441437,1.746613,0.000000,41.659725,44.965706,7000.527057,-1.000000,-0.186582,-1.000000,-0.480781
1.100000,5.449985,0.001258,0.004140,0.283174,0.095203,-0.026439,481.455963,1.761139,0.000000,41.659725,44.965706,7000.510848,0.899344,0.629547,0.327312,-0.507920
1.200000,5.462003,-0.009310,0.009457,0.329462,-0.245418,0.019576,481.451355,1.756500,0.000000,41.659725,44.965706,7000.510848,1.000000,-1.000000,-0.581404,0.557608
1.300000,5.477200,-0.020391,0.015363,0.368412,-0.915738,0.037206,481.392120,1.697327,0.000000,41.659725,44.965706,7000.491571,0.248402,0.758863,0.744260,-0.014397
1.400000,5.491801,-0.023076,0.011014,-0.114825,-0.395161,-0.277887,481.307129,1.612274,0.000000,41.659725,44.965705,7000.491571,1.000000,1.000000,1.000000,-1.000000
1.500000,5.494204,-0.004931,-0.002571,-0.393776,-0.045275,-0.126326,481.303223,1.608398,0.000000,41.659725,44.965705,7000.470346,1.000000,-0.168603,-1.000000,-0.411762
1.600000,5.490809,0.023058,-0.003099,-0.468909,-0.366821,0.050217,481.277161,1.582336,0.000000,41.659725,44.965706,7000.470346,-0.353054,0.498913,0.143570,-0.315201
1.700000,5.487338,0.049462,0.003801,-0.364453,0.070650,0.148323,481.252380,1.557556,0.000000,41.659724,44.965706,7000.446841,0.870332,-1.000000,-1.000000,-0.280393
1.800000,5.485192,0.069041,0.010532,-0.277590,0.479382,0.115567,481.280762,1.585968,0.000000,41.659724,44.965706,7000.446841,-1.000000,1.000000,-0.645712,-0.029512
1.900000,5.484678,0.087028,0.013316,-0.285668,0.305257,0.078338,481.322205,1.627380,0.000000,41.659724,44.965707,7000.421305,1.000000,1.000000,-1.000000,0.319086
2.000000,5.489150,0.102213,0.017163,-0.285647,0.009586,0.083526,481.335693,1.640869,0.000000,41.659724,44.965707,7000.421305,-0.322344,-1.000000,0.029419,1.000000
2.100000,5.497746,0.113384,0.019186,-0.222556,-0.073119,0.077004,481.326630,1.631805,0.000000,41.659724,44.965707,7000.396681,1.000000,0.761238,0.055846,-0.409710
2.200000,5.504609,0.120928,0.022581,-0.083727,0.153116,0.046741,481.327576,1.632751,0.000000,41.659724,44.965707,7000.396681,-1.000000,0.495906,-1.000000,0.385649
2.300000,5.508038,0.124120,0.024171,-0.026147,0.423790,0.019149,481.354156,1.659332,0.000000,41.659724,44.965707,7000.373258,-0.075079,0.379051,0.548557,0.664975
2.400000,5.515847,0.123541,0.022625,-0.007158,0.702810,-0.005846,481.412964,1.718140,0.000000,41.659724,44.965708,7000.373258,-0.573325,-0.092153,-0.375082,1.000000
2.500000,5.531827,0.119760,0.018920,-0.051339,0.601349,-0.013611,481.480865,1.786041,0.000000,41.659723,44.965708,7000.350665,0.263852,0.719679,-0.869762,-0.161132
2.600000,5.551948,0.113152,0.014932,-0.091629,0.470241,0.002647,481.533203,1.838379,0.000000,41.659723,44.965708,7000.350665,-0.669509,-0.633938,-0.826247,0.077624
2.700000,5.570196,0.104430,0.011989,-0.112928,0.481846,0.024390,481.574677,1.879852,0.000000,41.659723,44.965708,7000.330270,-0.912466,-1.000000,0.152895,1.000000
2.800000,5.592181,0.091672,0.009699,-0.071667,1.224640,-0.003631,481.654327,1.959503,0.000000,41.659723,44.965708,7000.330270,-1.000000,1.000000,-0.194081,-1.000000
2.900000,5.613718,0.075053,0.009466,-0.064735,1.705636,0.023636,481.813019,2.118195,0.000000,41.659723,44.965708,7000.311159,0.261381,1.000000,1.000000,0.413678
3.000000,5.630463,0.058287,0.010820,-0.098460,1.505412,0.052231,481.970734,2.275909,0.000000,41.659723,44.965708,7000.311159,0.319301,-0.850526,-0.369667,0.762241
3.100000,5.651112,0.040737,0.011156,-0.144652,0.792474,0.085728,482.089417,2.394592,0.000000,41.659723,44.965708,7000.291509,1.000000,0.566682,0.303352,-0.991728
3.200000,5.671099,0.024428,0.010848,-0.173141,-0.106874,0.162659,482.124084,2.429260,0.000000,41.659723,44.965709,7000.291509,0.818650,1.000000,1.000000,0.105983
3.300000,5.684686,0.010538,0.011730,-0.175779,-0.983634,0.250432,482.070221,2.375397,0.000000,41.659723,44.965709,7000.271486,1.000000,-0.395289,-0.536659,-0.971516
3.400000,5.693332,-0.002734,0.015247,-0.148503,-1.764826,0.347276,481.925507,2.230682,0.000000,41.659723,44.965709,7000.271486,-0.026197,0.824163,0.212388,-0.015726
3.500000,5.697632,-0.014779,0.022838,-0.089249,-2.168076,0.426119,481.722107,2.027283,0.000000,41.659723,44.965710,7000.249184,0.849591,-0.068636,-0.555211,-0.443089
3.600000,5.702243,-0.025169,0.032253,-0.026720,-2.590959,0.492061,481.495667,1.800842,0.000000,41.659723,44.965710,7000.249184,0.959136,0.115385,1.000000,1.000000
3.700000,5.706382,-0.022701,0.029326,-0.357335,-1.238150,-0.260422,481.255676,1.560852,0.000000,41.659723,44.965710,7000.224559,0.753486,1.000000,-0.311545,-0.699522
3.800000,5.708147,0.019401,0.006935,-0.679405,0.298804,-0.334248,481.249664,1.554840,0.000000,41.659722,44.965710,7000.224559,-1.000000,0.152338,0.151954,0.285678
3.900000,5.707407,0.058105,-0.006583,-0.591588,0.434301,-0.148063,481.280914,1.586090,0.000000,41.659721,44.965711,7000.200847,0.669427,0.651386,1.000000,0.762920
4.000000,5.710021,0.092881,-0.010956,-0.542328,0.383639,-0.068380,481.323181,1.628357,0.000000,41.659721,44.965711,7000.200847,0.164678,-1.000000,0.484504,-0.206461
4.100000,5.714213,0.123057,-0.017745,-0.492839,0.322809,-0.071862,481.347900,1.653076,0.000000,41.659720,44.965711,7000.176389,-0.554394,-0.289313,0.590633,0.605502
4.200000,5.719341,0.147081,-0.021557,-0.472445,0.479274,-0.042483,481.377075,1.682251,0.000000,41.659720,44.965711,7000.176389,0.048303,1.000000,1.000000,-0.681631
4.300000,5.722821,0.169844,-0.021209,-0.363431,0.453249,0.049873,481.429077,1.734253,0.000000,41.659720,44.965711,7000.152262,0.595736,0.558740,-1.000000,-1.000000
4.400000,5.713637,0.189582,-0.011124,-0.428326,0.142731,0.143551,481.446930,1.752106,0.000000,41.659719,44.965712,7000.152262,-1.000000,-0.290791,1.000000,-1.000000
4.500000,5.690540,0.203494,0.004520,-0.487846,0.535751,0.177694,481.464661,1.769836,0.000000,41.659719,44.965712,7000.130539,-0.873376,-0.202759,1.000000,-0.198659
4.600000,5.658130,0.212188,0.019621,-0.557778,1.304542,0.144389,481.554291,1.859467,0.000000,41.659718,44.965713,7000.130539,0.363602,0.452787,0.405517,-0.014538
4.700000,5.627862,0.216773,0.030392,-0.713459,1.108520,0.102013,481.666656,1.971832,0.000000,41.659718,44.965713,7000.110226,-0.016796,-0.384064,0.103997,1.000000
4.800000,5.607154,0.218901,0.036244,-0.888990,0.563771,0.095342,481.729065,2.034241,0.000000,41.659717,44.965714,7000.110226,1.000000,-0.669251,0.584486,-1.000000
4.900000,5.590069,0.219051,0.038849,-1.056085,0.083717,0.115980,481.735138,2.040314,0.000000,41.659716,44.965715,7000.090369,-0.894701,-0.954692,-0.900326,1.000000
5.000000,5.577242,0.215670,0.038033,-1.164441,0.055955,0.124988,481.709656,2.014832,0.000000,41.659716,44.965716,7000.090369,-0.876734,-0.161094,-0.227724,-1.000000
5.100000,5.567687,0.207765,0.035383,-1.246044,0.275251,0.164647,481.704132,2.009308,0.000000,41.659715,44.965716,7000.071010,0.444006,0.594590,0.900673,-0.604634
5.200000,5.551307,0.196127,0.033159,-1.366053,0.166250,0.235730,481.703461,2.008636,0.000000,41.659714,44.965718,7000.071010,-0.284590,-0.865410,1.000000,0.270233
5.300000,5.536773,0.182054,0.030394,-1.470305,0.056387,0.228818,481.683258,1.988464,0.000000,41.659713,44.965719,7000.049412,0.013312,-0.083339,-0.613195,0.086791
5.400000,5.530267,0.166265,0.026384,-1.535548,0.142964,0.232904,481.665222,1.970398,0.000000,41.659712,44.965720,7000.049412,-0.549280,0.857765,-0.234961,-0.469840
5.500000,5.525893,0.147392,0.022081,-1.612453,0.005017,0.273559,481.652771,1.957947,0.000000,41.659711,44.965721,7000.025036,0.828148,-0.624859,0.381464,-0.103280
5.600000,5.522562,0.128010,0.018039,-1.694161,-0.461401,0.305416,481.608887,1.914032,0.000000,41.659710,44.965723,7000.025036,1.000000,-0.540771,0.419259,1.000000
5.700000,5.526490,0.109978,0.013024,-1.746606,-0.921099,0.302876,481.518616,1.823792,0.000000,41.659709,44.965724,6999.999666,-0.620944,-1.000000,1.000000,-0.021564
5.800000,5.539811,0.090675,0.007105,-1.750084,-1.083124,0.307988,481.396606,1.701782,0.000000,41.659708,44.965726,6999.999666,0.731735,-1.000000,-1.000000,0.588987
5.900000,5.558301,0.072081,-0.000474,-1.401640,-0.636698,0.271008,481.282684,1.587860,0.000000,41.659707,44.965727,6999.973590,-1.000000,1.000000,-1.000000,-1.000000
6.000000,5.576414,0.062629,0.001022,-0.695024,0.377385,0.221688,481.269165,1.574371,0.000000,41.659706,44.965728,6999.973590,0.527325,-1.000000,-0.794242,1.000000
6.100000,5.594267,0.058662,0.005532,-0.609736,0.385867,0.217117,481.311615,1.616791,0.000000,41.659706,44.965728,6999.947225,0.109910,-0.171097,0.590947,-0.644946
6.200000,5.612648,0.054732,0.010416,-0.613762,-0.160792,0.254926,481.320801,1.626007,0.000000,41.659705,44.965729,6999.947225,1.000000,-1.000000,0.200549,0.470982
6.300000,5.626972,0.052206,0.008975,-0.445620,-0.337447,0.203229,481.285217,1.590393,0.000000,41.659705,44.965730,6999.923306,-0.688109,-0.630469,0.837642,1.000000
6.400000,5.643287,0.054875,0.003373,-0.142479,0.194256,-0.033315,481.274475,1.579651,0.000000,41.659705,44.965730,6999.923306,-0.043700,0.045208,-1.000000,0.891698
6.500000,5.663983,0.056811,0.000195,-0.118311,0.378235,-0.090262,481.310150,1.615326,0.000000,41.659705,44.965730,6999.901542,0.282074,0.101029,-1.000000,-0.094067
6.600000,5.687673,0.057969,-0.002748,-0.115029,0.217835,-0.104837,481.333832,1.639008,0.000000,41.659705,44.965730,6999.901542,-1.000000,0.231448,-0.574234,1.000000
6.700000,5.716251,0.058132,-0.005100,-0.101693,0.141228,-0.139739,481.356506,1.661682,0.000000,41.659705,44.965730,6999.880856,1.000000,-0.816860,-0.029978,0.697625
6.800000,5.750196,0.057504,-0.008283,-0.114205,-0.238434,-0.163174,481.353607,1.658783,0.000000,41.659704,44.965730,6999.880856,-0.052197,0.115837,0.959071,0.121208
6.900000,5.782050,0.056314,-0.010309,-0.154441,-0.481605,-0.104502,481.311005,1.616180,0.000000,41.659704,44.965729,6999.862325,-0.962931,1.000000,0.804379,-0.288019
7.000000,5.807536,0.050689,-0.005963,-0.102650,0.154287,0.059773,481.291992,1.597168,0.000000,41.659704,44.965729,6999.862325,-0.003388,-0.920359,1.000000,-0.624836
7.100000,5.822088,0.041997,0.004081,-0.054586,0.553179,0.098774,481.329346,1.634521,0.000000,41.659704,44.965730,6999.844624,-1.000000,0.548976,0.406893,-0.179089
7.200000,5.829301,0.032191,0.016939,0.005999,1.028905,0.103140,481.400208,1.705383,0.000000,41.659704,44.965730,6999.844624,-1.000000,0.332545,0.344264,0.824157
7.300000,5.839999,0.018893,0.030444,0.106780,1.906631,0.038715,481.553558,1.858734,0.000000,41.659704,44.965730,6999.826301,-0.712182,1.000000,-1.000000,0.725029
7.400000,5.859871,0.002634,0.041550,0.196861,2.607460,-0.009776,481.785065,2.090240,0.000000,41.659704,44.965730,6999.826301,-1.000000,-0.209886,0.830054,-0.370766
7.500000,5.882579,-0.014468,0.050746,0.249798,2.801962,-0.002096,482.051636,2.356812,0.000000,41.659705,44.965730,6999.808102,0.808416,-1.000000,-0.045492,0.480681
7.600000,5.908971,-0.032535,0.058232,0.270286,2.289526,0.032522,482.314087,2.619263,0.000000,41.659705,44.965730,6999.808102,0.533642,0.181248,-1.000000,-0.032952
7.700000,5.938381,-0.049323,0.062342,0.310743,1.619140,0.120032,482.509399,2.814575,0.000000,41.659705,44.965730,6999.788121,-0.264434,-0.216914,-0.256210,-1.000000
7.800000,5.961368,-0.063525,0.066599,0.381380,1.053234,0.226563,482.633453,2.938629,0.000000,41.659706,44.965730,6999.788121,0.507218,0.366235,-1.000000,0.461383
7.900000,5.985048,-0.077372,0.070859,0.486232,0.516176,0.303346,482.706757,3.011932,0.000000,41.659706,44.965731,6999.765030,-0.366243,0.569297,-0.149009,1.000000
8.000000,6.017008,-0.090740,0.071641,0.628828,0.232549,0.330626,482.731812,3.036987,0.000000,41.659707,44.965731,6999.765030,-0.408388,-0.082121,-0.730446,0.163149
8.100000,6.055269,-0.103761,0.069061,0.830910,0.562426,0.338806,482.757172,3.062347,0.000000,41.659707,44.965731,6999.740655,-0.963069,0.473847,-0.725610,0.125426
8.200000,6.101353,-0.119311,0.065484,1.099644,1.257685,0.338272,482.831940,3.137115,0.000000,41.659708,44.965732,6999.740655,-0.931101,-1.000000,0.690674,0.177346
8.300000,6.152349,-0.137648,0.061792,1.376597,1.988522,0.301611,482.983490,3.288666,0.000000,41.659710,44.965732,6999.714621,-0.242271,-0.803800,-0.263199,0.247614
8.400000,6.205325,-0.155693,0.055537,1.580498,2.003051,0.284322,483.154938,3.460114,0.000000,41.659711,44.965733,6999.714621,0.091551,0.560983,-1.000000,-0.898515
8.500000,6.257923,-0.173279,0.048349,1.798300,1.762204,0.290000,483.311890,3.617065,0.000000,41.659713,44.965733,6999.686431,-0.697420,-0.913976,-0.701308,0.699368
8.600000,0.026464,-0.189682,0.039511,2.056957,1.773594,0.236219,483.448120,3.753296,0.000000,41.659715,44.965734,6999.686431,-0.626998,-1.000000,-0.024597,0.269941
8.700000,0.081083,-0.204603,0.026380,2.310966,1.915666,0.125883,483.581696,3.886871,0.000000,41.659717,44.965735,6999.657910,-0.356715,-1.000000,1.000000,-0.011813
8.800000,0.142385,-0.218813,0.008131,2.587809,2.107794,0.018321,483.726807,4.031982,0.000000,41.659719,44.965736,6999.657910,-1.000000,1.000000,-1.000000,-0.315014
8.900000,0.202954,-0.231262,-0.010309,2.859962,2.124695,-0.125993,483.881104,4.186279,0.000000,41.659722,44.965737,6999.628519,0.946906,0.394684,0.825980,1.000000
9.000000,0.264315,-0.240376,-0.029869,3.081656,1.641983,-0.302853,483.991974,4.297150,0.000000,41.659725,44.965738,6999.628519,-0.148216,-1.000000,0.479246,0.519119
9.100000,0.335684,-0.246071,-0.054886,3.301274,0.969979,-0.551206,484.039948,4.345123,0.000000,41.659728,44.965739,6999.597386,0.907654,1.000000,-1.000000,0.921173
9.200000,0.411742,-0.247129,-0.083490,3.502896,0.280754,-0.853527,484.012360,4.317535,0.000000,41.659731,44.965741,6999.597386,0.261584,-1.000000,-0.596029,0.482087
9.300000,0.484128,-0.243754,-0.111887,3.665299,-0.414915,-1.161946,483.912476,4.217651,0.000000,41.659734,44.965742,6999.566585,0.998100,0.828403,0.908440,-1.000000
9.400000,0.550498,-0.236820,-0.136027,3.820689,-1.024809,-1.399980,483.731354,4.036530,0.000000,41.659737,44.965743,6999.566585,-0.440794,0.171832,-0.663454,-1.000000
9.500000,0.594669,-0.228617,-0.142176,3.981808,-1.249600,-1.540886,483.503540,3.808716,0.000000,41.659740,44.965745,6999.535162,0.348780,-0.033346,-1.000000,-0.074176
9.600000,0.621716,-0.219842,-0.130254,4.134751,-1.356765,-1.640329,483.277039,3.582214,0.000000,41.659743,44.965747,6999.535162,-0.266422,0.188611,0.489988,0.162308
9.700000,0.646517,-0.208600,-0.110680,4.278969,-1.649245,-1.788069,483.018097,3.323303,0.000000,41.659747,44.965748,6999.503283,0.795840,-1.000000,0.358263,1.000000
9.800000,0.674212,-0.194916,-0.092706,4.390074,-2.126937,-1.955785,482.726349,3.031525,0.000000,41.659750,44.965750,6999.503283,1.000000,1.000000,0.766850,1.000000
9.900000,0.704920,-0.180036,-0.081015,4.449059,-2.590081,-2.135157,482.403351,2.708527,0.000000,41.659754,44.965752,6999.475260,-0.847053,-0.345922,-0.757180,1.000000
10.000000,0.742236,-0.160716,-0.066807,4.433990,-2.303582,-2.299552,482.056732,2.361908,0.000000,41.659757,44.965754,6999.475260,0.438299,0.853035,1.000000,-0.018329
10.100000,0.779363,-0.137098,-0.043357,4.390716,-1.561658,-2.410425,481.782379,2.087555,0.000000,41.659761,44.965756,6999.450594,-1.000000,-0.907972,-0.087168,0.028839
10.200000,0.806317,-0.113020,-0.017081,4.389434,-1.248367,-2.445967,481.596588,1.901794,0.000000,41.659765,44.965759,6999.450594,1.000000,-0.520254,-0.604011,-1.000000
10.300000,0.821494,-0.084204,0.003271,3.823183,-0.787893,-2.153063,481.449341,1.754517,0.000000,41.659769,44.965761,6999.428125,0.096102,1.000000,0.948643,1.000000
10.400000,0.834069,-0.048450,-0.011724,3.112435,-0.369021,-1.918866,481.362061,1.667236,0.000000,41.659772,44.965763,6999.428125,0.623077,1.000000,1.000000,0.368938
10.500000,0.847750,-0.010785,-0.012614,2.676110,-0.305436,-1.765565,481.326111,1.631287,0.000000,41.659775,44.965765,6999.408890,0.613656,-0.935642,-0.311490,0.001614
10.600000,0.860825,0.025168,-0.002792,2.396547,-0.536525,-1.632649,481.275696,1.580872,0.000000,41.659777,44.965766,6999.408890,-0.152214,-0.428931,0.104666,0.364001
10.700000,0.865176,0.045589,-0.012562,1.797378,0.022510,-1.266465,481.253632,1.558777,0.000000,41.659779,44.965767,6999.391520,1.000000,-0.403304,0.165090,-1.000000
10.800000,0.852079,0.045606,-0.015765,1.462239,0.026298,-0.932069,481.266449,1.571625,0.000000,41.659781,44.965768,6999.391520,0.701634,0.591116,0.162324,-0.182989
10.900000,0.819992,0.033121,-0.011322,1.171004,0.003216,-0.500194,481.268738,1.573914,0.000000,41.659782,44.965769,6999.374773,0.206415,1.000000,-1.000000,-1.000000
11.000000,0.778983,0.019082,-0.008561,0.911889,0.053420,-0.072922,481.276428,1.581604,0.000000,41.659783,44.965770,6999.374773,1.000000,0.294545,-0.642162,-0.268436
11.100000,0.740184,0.011911,-0.009645,0.591322,0.010688,0.262733,481.281708,1.586884,0.000000,41.659783,44.965770,6999.359144,1.000000,1.000000,0.632235,-0.737518
11.200000,0.704896,0.012840,-0.009270,0.245705,0.011876,0.480746,481.282776,1.587952,0.000000,41.659783,44.965771,6999.359144,-0.917490,0.626212,-0.982577,1.000000
11.300000,0.681193,0.019727,-0.004052,0.133217,0.039192,0.418554,481.285400,1.590576,0.000000,41.659783,44.965772,6999.343889,0.760849,1.000000,-0.882868,-0.296699
11.400000,0.665520,0.024300,-0.003657,0.101155,-0.054725,0.344069,481.287964,1.593140,0.000000,41.659783,44.965772,6999.343889,0.433288,0.001310,1.000000,-0.223847
11.500000,0.652130,0.027313,0.001316,0.055207,-0.109215,0.262930,481.276123,1.581299,0.000000,41.659783,44.965772,6999.328011,-0.182233,-1.000000,-1.000000,1.000000
11.600000,0.648796,0.027935,0.006203,-0.009375,0.202475,0.034797,481.277435,1.582611,0.000000,41.659782,44.965773,6999.328011,-1.000000,-1.000000,1.000000,0.575696
11.700000,0.653718,0.026753,0.006666,0.076984,0.717316,-0.018710,481.317139,1.622314,0.000000,41.659782,44.965773,6999.312217,-0.693258,1.000000,0.698322,1.000000
11.800000,0.666796,0.021006,0.004815,0.175000,1.254191,-0.063016,481.425903,1.731079,0.000000,41.659783,44.965773,6999.312217,-0.412563,1.000000,0.198167,-0.609041
11.900000,0.682150,0.012142,0.000983,0.218974,1.144265,-0.033738,481.554565,1.859741,0.000000,41.659783,44.965773,6999.295262,0.937061,1.000000,0.021158,0.161889
12.000000,0.693247,0.002811,-0.003362,0.229386,0.526404,0.008338,481.636780,1.941925,0.000000,41.659783,44.965773,6999.295262,0.485004,0.031930,-0.902431,-0.365124
12.100000,0.704401,-0.007120,-0.009427,0.253505,-0.119686,0.030032,481.652679,1.957855,0.000000,41.659783,44.965773,6999.275944,-0.254369,-1.000000,0.850552,0.438625
12.200000,0.718125,-0.017208,-0.015827,0.315448,-0.314187,0.019854,481.625031,1.930206,0.000000,41.659783,44.965773,6999.275944,-0.067718,0.777473,-0.413417,0.220377
12.300000,0.735722,-0.026974,-0.020573,0.381525,-0.549694,0.008480,481.587189,1.892365,0.000000,41.659783,44.965774,6999.254968,1.000000,0.439064,-0.506222,0.035403
12.400000,0.759365,-0.037068,-0.024483,0.450618,-0.954627,-0.014473,481.505554,1.810730,0.000000,41.659783,44.965774,6999.254968,-0.811103,-0.759702,1.000000,1.000000
12.500000,0.790320,-0.045634,-0.017143,0.413134,-0.527098,-0.084447,481.416351,1.721527,0.000000,41.659784,44.965774,6999.231794,-0.180712,0.356918,0.475580,-0.203904
12.600000,0.820562,-0.046966,0.000934,0.453521,0.086326,-0.146240,481.405457,1.710632,0.000000,41.659784,44.965775,6999.231794,1.000000,1.000000,-0.401449,-0.430550
12.700000,0.847754,-0.044875,0.016441,0.357213,-0.083104,-0.129867,481.405212,1.710388,0.000000,41.659784,44.965775,6999.206299,-0.243113,0.088943,-0.408721,-0.685791
12.800000,0.863920,-0.038450,0.022775,0.139962,-0.168504,-0.130898,481.389679,1.694855,0.000000,41.659785,44.965775,6999.206299,0.894220,-0.098862,-0.061680,-0.881215
12.900000,0.866703,-0.027160,0.017402,-0.055926,-0.187174,-0.099110,481.372131,1.677307,0.000000,41.659785,44.965775,6999.179934,-1.000000,-1.000000,0.635576,1.000000
13.000000,0.866136,-0.012562,0.008883,-0.050946,0.035857,-0.100900,481.360657,1.665833,0.000000,41.659785,44.965775,6999.179934,-0.745754,-0.717088,0.723255,1.000000
13.100000,0.875736,-0.000365,0.003188,0.081134,0.726109,-0.162674,481.403900,1.709076,0.000000,41.659785,44.965775,6999.152574,0.642060,1.000000,0.371543,1.000000
13.200000,0.897056,0.008392,-0.002351,0.151850,0.677385,-0.201146,481.473938,1.779114,0.000000,41.659785,44.965775,6999.152574,-1.000000,-0.130102,-0.572202,-0.103037
13.300000,0.924162,0.015618,-0.007073,0.233093,0.846274,-0.193073,481.544983,1.850159,0.000000,41.659785,44.965775,6999.124591,-0.989279,-0.976775,0.979179,0.724765
13.400000,0.950565,0.018999,-0.007773,0.350219,1.477367,-0.212065,481.671631,1.976807,0.000000,41.659786,44.965775,6999.124591,0.832257,0.425916,1.000000,-1.000000
13.500000,0.973089,0.019489,-0.005408,0.384808,1.260824,-0.176704,481.808807,2.113983,0.000000,41.659786,44.965776,6999.099097,-0.035036,-0.017622,1.000000,0.299705
13.600000,0.991971,0.018965,0.000119,0.395095,0.694685,-0.137848,481.907074,2.212280,0.000000,41.659786,44.965776,6999.099097,-0.010832,0.512377,-0.990574,-0.539503
13.700000,1.010731,0.017404,0.007136,0.411091,0.160169,-0.113279,481.953186,2.258362,0.000000,41.659786,44.965776,6999.075260,0.870884,0.136390,-0.752998,0.594434
13.800000,1.029946,0.015139,0.014077,0.415388,-0.501456,-0.075142,481.938751,2.243927,0.000000,41.659787,44.965777,6999.075260,0.688097,0.831206,1.000000,-0.674430
13.900000,1.048494,0.012250,0.021739,0.429292,-1.086233,0.014168,481.852783,2.157959,0.000000,41.659787,44.965777,6999.051382,-0.689575,-1.000000,0.355753,-1.000000
14.000000,1.054735,0.008529,0.033567,0.494128,-0.869755,0.124259,481.743286,2.048462,0.000000,41.659787,44.965778,6999.051382,-1.000000,0.857089,0.279657,0.335836
14.100000,1.054513,0.002708,0.047166,0.624525,0.283001,0.162573,481.709839,2.015045,0.000000,41.659787,44.965778,6999.027172,-0.856014,-0.498887,-1.000000,-1.000000
14.200000,1.049772,-0.007594,0.062764,0.765895,1.151771,0.231460,481.794342,2.099518,0.000000,41.659787,44.965779,6999.027172,0.496367,-1.000000,-1.000000,-0.336222
14.300000,1.037449,-0.020061,0.077625,0.832592,0.964293,0.338869,481.905060,2.210236,0.000000,41.659787,44.965780,6999.002672,0.010679,-0.209298,0.244223,-0.483952
14.400000,1.023093,-0.032133,0.087811,0.887866,0.584971,0.442667,481.970123,2.275299,0.000000,41.659787,44.965781,6999.002672,-0.565631,0.587758,-0.170285,0.455659
14.500000,1.011530,-0.045678,0.093145,0.968428,0.359738,0.529693,482.013458,2.318634,0.000000,41.659787,44.965783,6998.978918,0.667145,0.395304,0.602677,-0.201892
14.600000,1.005715,-0.059288,0.093390,1.047977,-0.071274,0.642678,482.019531,2.324707,0.000000,41.659787,44.965784,6998.978918,0.946646,1.000000,-0.716942,-0.689511
14.700000,0.998614,-0.070849,0.091791,1.134374,-0.472077,0.783597,481.976105,2.281281,0.000000,41.659787,44.965786,6998.956574,-1.000000,0.017775,0.001589,-0.249905
14.800000,0.987160,-0.081653,0.088766,1.245247,-0.552400,0.909458,481.906525,2.211700,0.000000,41.659786,44.965787,6998.956574,1.000000,-0.472471,1.000000,-0.537836
14.900000,0.970948,-0.090697,0.085313,1.346275,-0.825733,1.074850,481.819855,2.125031,0.000000,41.659786,44.965789,6998.932530,-0.140319,1.000000,-1.000000,-1.000000
15.000000,0.947745,-0.096916,0.084448,1.429513,-1.054517,1.223568,481.704163,2.009338,0.000000,41.659786,44.965791,6998.932530,-0.345202,0.103817,0.644997,0.731154
15.100000,0.923966,-0.100490,0.078090,1.331802,-0.334008,1.155749,481.599823,1.904999,0.000000,41.659785,44.965793,6998.906123,-0.203895,-1.000000,0.557584,-0.739621
15.200000,0.902576,-0.097372,0.053960,1.239011,0.403770,1.066968,481.590698,1.895874,0.000000,41.659785,44.965795,6998.906123,-0.683690,0.924709,-1.000000,-1.000000
15.300000,0.879562,-0.093315,0.038003,1.360951,0.417938,1.169593,481.620026,1.925201,0.000000,41.659785,44.965797,6998.880587,0.988787,0.378985,-0.558107,0.836197
15.400000,0.857894,-0.088825,0.026742,1.452819,-0.076841,1.231794,481.622772,1.927948,0.000000,41.659785,44.965799,6998.880587,0.372407,-0.958902,-0.351959,1.000000
15.500000,0.843597,-0.083799,0.017777,1.533863,-0.667656,1.263679,481.566162,1.871338,0.000000,41.659784,44.965801,6998.856336,0.458554,0.392408,0.135564,-1.000000
15.600000,0.832039,-0.077350,0.010418,1.424497,-0.681876,1.200229,481.476807,1.781982,0.000000,41.659784,44.965804,6998.856336,-1.000000,0.499106,-1.000000,-1.000000
15.700000,0.807847,-0.062723,0.017212,1.169996,0.119965,1.162767,481.443542,1.748718,0.000000,41.659784,44.965806,6998.833163,0.294128,-0.937061,0.441630,-0.870768
15.800000,0.770234,-0.047611,0.035291,1.232228,0.476213,1.274284,481.465637,1.770813,0.000000,41.659784,44.965808,6998.833163,-1.000000,1.000000,0.905561,-0.080697
15.900000,0.732561,-0.035104,0.055065,1.283455,0.425660,1.367156,481.502472,1.807648,0.000000,41.659784,44.965810,6998.811813,1.000000,0.181690,-0.505914,-0.408329
16.000000,0.695576,-0.023269,0.076058,1.298902,0.068714,1.476294,481.516815,1.821991,0.000000,41.659783,44.965812,6998.811813,0.686359,-0.852658,0.767085,0.777705
16.100000,0.666609,-0.012781,0.093106,1.282003,-0.664516,1.573051,481.472412,1.777588,0.000000,41.659783,44.965814,6998.791625,0.985720,1.000000,-0.428748,0.973699
16.200000,0.649971,-0.002113,0.093092,0.848241,-0.617816,1.211225,481.385529,1.690704,0.000000,41.659783,44.965816,6998.791625,0.534457,-1.000000,-0.577228,0.048093
16.300000,0.639010,0.010434,0.065909,0.425944,-0.241732,0.644002,481.340668,1.645844,0.000000,41.659783,44.965818,6998.771602,-0.819531,-0.638530,1.000000,0.178579
16.400000,0.629886,0.025096,0.035143,0.374866,-0.038257,0.546716,481.322601,1.627777,0.000000,41.659783,44.965818,6998.771602,0.139351,-0.456472,0.326870,-0.197258
16.500000,0.624245,0.036635,0.014383,0.399048,-0.091867,0.553116,481.322693,1.627869,0.000000,41.659783,44.965819,6998.751413,0.332990,-0.129157,0.846631,0.640279
16.600000,0.623524,0.046996,-0.001503,0.350412,-0.479298,0.487837,481.293060,1.598236,0.000000,41.659783,44.965820,6998.751413,0.680689,-1.000000,0.161413,0.586276
16.700000,0.631858,0.047923,0.008631,0.028349,-0.079348,0.174128,481.255676,1.560852,0.000000,41.659782,44.965820,6998.730810,1.000000,0.309767,1.000000,0.306738
16.800000,0.636580,0.044177,0.011654,0.059906,0.135861,-0.026373,481.260864,1.566040,0.000000,41.659782,44.965821,6998.730810,-0.195292,0.088611,-0.404874,-0.357726
16.900000,0.637076,0.037657,0.006780,0.109364,0.054749,-0.080039,481.272339,1.577515,0.000000,41.659783,44.965821,6998.710248,1.000000,-0.349837,-0.220769,0.307123
17.000000,0.635551,0.030217,0.001950,0.101841,-0.105653,-0.087926,481.271576,1.576752,0.000000,41.659783,44.965821,6998.710248,0.782816,1.000000,0.616547,0.936054
17.100000,0.636893,0.026255,-0.002786,0.028329,0.069296,-0.079279,481.265808,1.570984,0.000000,41.659783,44.965821,7000.224767,-1.000000,0.680926,1.000000,1.000000
17.200000,0.642587,0.025855,-0.001758,0.004103,0.189063,-0.039826,481.280121,1.585297,0.000000,41.659783,44.965821,7000.224767,-0.667007,-0.713636,0.176678,0.213251
17.300000,0.653956,0.023129,0.005298,0.106004,0.811921,-0.092941,481.325958,1.631134,0.000000,41.659783,44.965821,7000.205656,-1.000000,0.120396,-0.704858,1.000000
17.400000,0.670094,0.016127,0.013033,0.202164,1.280699,-0.150814,481.434479,1.739655,0.000000,41.659783,44.965821,7000.205656,1.000000,0.676012,-0.006838,0.469527
17.500000,0.693323,0.005790,0.019427,0.233943,0.957585,-0.173672,481.554871,1.860046,0.000000,41.659783,44.965821,7000.187042,1.000000,-0.402128,-1.000000,0.634607
17.600000,0.720983,-0.005423,0.022890,0.243514,0.219432,-0.154328,481.616333,1.921509,0.000000,41.659783,44.965821,7000.187042,0.292472,0.418942,-0.667135,-1.000000
17.700000,0.743393,-0.015868,0.026094,0.278531,-0.329879,-0.056542,481.606659,1.911835,0.000000,41.659784,44.965821,7000.169880,-0.537559,1.000000,-0.407839,-0.437463
17.800000,0.754560,-0.027237,0.035107,0.375053,-0.159225,0.036702,481.572784,1.877960,0.000000,41.659784,44.965821,7000.169880,-1.000000,0.658332,0.153049,0.298939
17.900000,0.765039,-0.040319,0.047042,0.492670,0.108891,0.051256,481.577271,1.882446,0.000000,41.659784,44.965822,7000.152510,1.000000,0.136523,-0.497101,1.000000
18.000000,0.782183,-0.053771,0.056193,0.575893,-0.214442,0.081783,481.572296,1.877472,0.000000,41.659784,44.965822,7000.152510,-0.014131,-0.399883,-0.029947,-0.499166
18.100000,0.804659,-0.067000,0.061780,0.607178,-0.554290,0.021712,481.521942,1.827118,0.000000,41.659785,44.965823,7000.131990,0.753177,-0.338057,0.429514,0.672422
18.200000,0.824971,-0.071690,0.053681,0.440476,-0.500409,-0.252060,481.463867,1.769043,0.000000,41.659785,44.965823,7000.131990,-0.064814,1.000000,-0.782953,0.874331
18.300000,0.845282,-0.066040,0.030475,0.230893,-0.134498,-0.577522,481.430298,1.735474,0.000000,41.659785,44.965823,7000.109936,-1.000000,0.259735,-0.065630,-0.768896
18.400000,0.866913,-0.053803,0.012930,0.248808,0.145169,-0.571097,481.440033,1.745209,0.000000,41.659786,44.965823,7000.109936,0.934796,1.000000,1.000000,0.334787
18.500000,0.885755,-0.041286,0.004427,0.304901,-0.084988,-0.526198,481.446106,1.751282,0.000000,41.659787,44.965823,7000.085934,0.160435,0.732879,0.693216,1.000000
18.600000,0.905897,-0.029663,0.000211,0.342404,-0.654447,-0.520129,481.410522,1.715698,0.000000,41.659787,44.965823,7000.085934,1.000000,-1.000000,0.164513,-1.000000
18.700000,0.926035,-0.014943,-0.002236,0.011614,-0.930981,-0.362428,481.324615,1.629791,0.000000,41.659787,44.965823,7000.059941,1.000000,1.000000,1.000000,-0.687470
18.800000,0.930209,0.010829,-0.004623,-0.481110,-0.180594,0.043029,481.273560,1.578735,0.000000,41.659787,44.965822,7000.059941,1.000000,-1.000000,-0.450044,-0.153500
18.900000,0.928795,0.039722,0.000637,-0.448586,-0.129012,0.100671,481.253113,1.558289,0.000000,41.659787,44.965822,7000.035483,-1.000000,-0.718365,1.000000,1.000000
19.000000,0.930726,0.064024,0.006903,-0.314205,0.507453,0.061838,481.272980,1.578156,0.000000,41.659787,44.965822,7000.035483,-0.729345,-0.614571,0.112487,0.372687
19.100000,0.936843,0.084007,0.011041,-0.267718,0.764430,0.023455,481.339661,1.644836,0.000000,41.659787,44.965821,7000.012392,0.157364,-0.326185,-0.825968,0.203061
19.200000,0.945430,0.098847,0.015635,-0.258364,0.839693,0.025772,481.412750,1.717926,0.000000,41.659787,44.965821,7000.012392,-1.000000,0.929245,1.000000,-0.269105
19.300000,0.951084,0.110509,0.022497,-0.261008,0.949280,0.069100,481.501160,1.806335,0.000000,41.659786,44.965821,6999.990794,0.188015,0.138704,0.107016,-0.550753
19.400000,0.948777,0.118279,0.031282,-0.278389,1.037272,0.109247,481.598541,1.903717,0.000000,41.659786,44.965820,6999.990794,-1.000000,-0.001338,0.780189,0.391588
19.500000,0.944370,0.122276,0.039166,-0.325200,0.861885,0.141649,481.689240,1.994415,0.000000,41.659786,44.965820,6999.971891,0.998835,0.712879,0.038618,-0.454463
19.600000,0.939620,0.123967,0.045533,-0.404300,0.378436,0.186851,481.748444,2.053619,0.000000,41.659786,44.965820,6999.971891,-0.065335,-0.076478,1.000000,0.742747
19.700000,0.938695,0.123344,0.048561,-0.479616,-0.042765,0.210522,481.753693,2.058868,0.000000,41.659785,44.965819,6999.954148,-1.000000,-0.064781,0.672486,0.949743
19.800000,0.946585,0.119621,0.047894,-0.507234,0.020223,0.211293,481.747101,2.052277,0.000000,41.659785,44.965819,6999.954148,0.720276,-0.647521,-1.000000,0.355287
19.900000,0.963182,0.112305,0.044151,-0.531748,-0.017087,0.234181,481.740082,2.045258,0.000000,41.659784,44.965818,6999.935162,-1.000000,0.313203,-1.000000,0.174005
20.000000,0.987550,0.101711,0.037751,-0.531772,0.080551,0.250753,481.733032,2.038208,0.000000,41.659784,44.965818,6999.935162,0.293992,0.443410,-1.000000,1.000000
20.100000,1.017210,0.088961,0.030046,-0.540320,-0.022732,0.288639,481.735931,2.041107,0.000000,41.659784,44.965817,6999.914227,0.066534,-0.342537,-0.055333,-0.937817
20.200000,1.049571,0.074259,0.021499,-0.545671,-0.283440,0.371502,481.710388,2.015564,0.000000,41.659783,44.965817,6999.914227,-0.382776,-1.000000,0.530387,-0.482546
20.300000,1.075489,0.058556,0.015975,-0.530179,-0.454521,0.453287,481.671051,1.976227,0.000000,41.659783,44.965817,6999.891095,0.487206,-1.000000,-0.341262,0.997772
20.400000,1.101121,0.043158,0.011994,-0.495021,-0.530366,0.476035,481.617218,1.922394,0.000000,41.659782,44.965816,6999.891095,-0.759232,-0.410778,-0.241106,-0.714488
20.500000,1.130098,0.025828,0.009532,-0.407323,-0.139549,0.515377,481.576233,1.881409,0.000000,41.659782,44.965816,6999.865393,-0.148728,1.000000,-0.207877,-0.110497
20.600000,1.154210,0.007108,0.011487,-0.320200,0.088584,0.556598,481.580597,1.885773,0.000000,41.659781,44.965816,6999.865393,0.308291,0.609124,0.210977,1.000000
20.700000,1.178757,-0.010728,0.014015,-0.245499,0.099139,0.572285,481.583862,1.889038,0.000000,41.659780,44.965816,6999.839442,-1.000000,-0.283880,1.000000,-0.712855
20.800000,1.207001,-0.029619,0.018416,-0.147731,0.156752,0.611251,481.601654,1.906830,0.000000,41.659780,44.965816,6999.839442,1.000000,0.021316,0.252118,-0.271633
20.900000,1.228973,-0.047610,0.025986,-0.055649,-0.142602,0.694895,481.603027,1.908203,0.000000,41.659779,44.965816,6999.813740,0.554530,0.402274,-0.378758,-0.128791
21.000000,1.245663,-0.063202,0.034077,0.035439,-0.599744,0.763570,481.563660,1.868835,0.000000,41.659779,44.965816,6999.813740,0.051795,1.000000,1.000000,-0.256676
21.100000,1.255752,-0.074714,0.041050,0.146993,-0.757408,0.674308,481.486328,1.791504,0.000000,41.659778,44.965816,6999.788577,0.847297,0.315849,-1.000000,-0.915474
21.200000,1.246506,-0.070310,0.039651,-0.132863,-0.484593,0.304536,481.415955,1.721130,0.000000,41.659778,44.965816,6999.788577,0.593152,-0.773334,-0.499153,0.935738
21.300000,1.236835,-0.047298,0.031983,-0.515178,-0.144190,-0.103903,481.390015,1.695221,0.000000,41.659777,44.965816,6999.765279,0.431512,1.000000,0.888833,1.000000
21.400000,1.233705,-0.015942,0.015368,-0.508891,-0.469463,-0.233862,481.361786,1.666962,0.000000,41.659778,44.965815,6999.765279,0.214837,-1.000000,1.000000,-0.257566
21.500000,1.233480,0.016538,0.001652,-0.534919,-0.815947,-0.209747,481.293182,1.598358,0.000000,41.659778,44.965814,6999.743183,1.000000,0.577834,1.000000,-0.758814
21.600000,1.228358,0.048321,-0.004334,-0.483859,-0.105036,-0.005591,481.240723,1.545898,0.000000,41.659778,44.965814,6999.743183,-0.670042,-0.346105,0.591275,-0.742606
21.700000,1.217188,0.074779,0.000843,-0.368169,0.738330,0.132894,481.280823,1.585999,0.000000,41.659778,44.965813,6999.721917,-0.738756,-0.205907,-0.702613,-1.000000
21.800000,1.192806,0.096189,0.009321,-0.349465,0.866393,0.194369,481.363861,1.669037,0.000000,41.659777,44.965813,6999.721917,0.522706,-1.000000,0.821208,-0.641646
21.900000,1.158508,0.113180,0.019674,-0.398987,0.465475,0.229207,481.426392,1.731567,0.000000,41.659777,44.965812,6999.702931,1.000000,-0.997512,-1.000000,1.000000
22.000000,1.123420,0.128691,0.028259,-0.489780,-0.134117,0.219650,481.433502,1.738678,0.000000,41.659777,44.965812,6999.702931,-1.000000,-0.282058,0.485840,-0.103741
22.100000,1.095083,0.139303,0.033143,-0.492686,0.146865,0.081744,481.416504,1.721680,0.000000,41.659776,44.965811,6999.685519,-0.627575,-1.000000,0.861626,-1.000000
22.200000,1.066595,0.142689,0.035986,-0.453057,0.937064,0.066250,481.461212,1.766388,0.000000,41.659776,44.965811,6999.685519,-1.000000,0.385495,1.000000,0.052000
22.300000,1.033540,0.141111,0.040619,-0.494966,1.287340,0.070977,481.575958,1.881104,0.000000,41.659776,44.965810,6999.668440,0.582278,-0.281554,-0.054378,0.340012
22.400000,1.005517,0.136384,0.044139,-0.591815,0.956043,0.087160,481.686127,1.991302,0.000000,41.659776,44.965809,6999.668440,0.873067,0.355323,-1.000000,-0.409726
22.500000,0.981084,0.130491,0.045817,-0.703444,0.256073,0.153736,481.736511,2.041687,0.000000,41.659775,44.965809,6999.650946,1.000000,-1.000000,-1.000000,-0.600849
22.600000,0.950242,0.123849,0.046529,-0.829492,-0.688519,0.267391,481.703644,2.008820,0.000000,41.659775,44.965808,6999.650946,1.000000,-0.654985,0.462506,-1.000000
22.700000,0.912069,0.117078,0.046949,-0.924460,-1.422784,0.345842,481.579163,1.884338,0.000000,41.659774,44.965807,6999.631877,-0.466632,0.512674,-0.868598,0.323464
22.800000,0.876899,0.108839,0.046468,-0.941839,-1.510796,0.360656,481.422577,1.727753,0.000000,41.659774,44.965807,6999.631877,0.306842,1.000000,0.856113,1.000000
22.900000,0.845444,0.097839,0.033389,-0.525061,-0.911962,-0.081759,481.294495,1.599670,0.000000,41.659773,44.965806,6999.609740,1.000000,0.025113,-1.000000,0.687993
23.000000,0.829207,0.091242,0.010628,0.122454,0.103471,-0.450841,481.253204,1.558380,0.000000,41.659773,44.965806,6999.609740,-0.589010,-0.648873,-1.000000,0.097961
23.100000,0.826628,0.082726,-0.011513,0.196278,0.455774,-0.276003,481.289032,1.594208,0.000000,41.659774,44.965806,6999.586898,0.472810,-0.190436,-0.549699,0.365770
23.200000,0.829675,0.070501,-0.026535,0.194591,0.225465,-0.211266,481.329437,1.634613,0.000000,41.659774,44.965806,6999.586898,0.385339,-1.000000,-0.854140,-1.000000
23.300000,0.831854,0.056531,-0.035415,0.188681,-0.269644,-0.122015,481.327667,1.632843,0.000000,41.659774,44.965806,6999.563559,1.000000,-0.754278,-0.116276,1.000000
23.400000,0.836788,0.042433,-0.030230,0.168723,-0.253241,0.144809,481.295593,1.600769,0.000000,41.659774,44.965806,6999.563559,-0.873562,-1.000000,1.000000,1.000000
23.500000,0.847691,0.026847,-0.009956,0.157405,0.033743,0.185855,481.281311,1.586487,0.000000,41.659774,44.965806,6999.537774,-1.000000,1.000000,1.000000,-1.000000
23.600000,0.854313,0.013505,-0.002789,0.216160,0.804459,0.082949,481.324524,1.629700,0.000000,41.659774,44.965807,6999.537774,-0.564475,-1.000000,1.000000,-0.100446
23.700000,0.852417,0.003674,-0.009555,0.172080,1.168087,0.057830,481.424500,1.729675,0.000000,41.659774,44.965807,6999.512196,-0.458987,-1.000000,-1.000000,-0.110736
23.800000,0.848641,-0.002426,-0.024988,0.153176,1.204498,0.003408,481.549805,1.854980,0.000000,41.659774,44.965807,6999.512196,0.020956,0.262636,-0.652167,0.408983
23.900000,0.846356,-0.005103,-0.045737,0.191886,1.166591,-0.036606,481.668396,1.973541,0.000000,41.659775,44.965807,6999.487655,-0.798153,-0.139813,0.571979,-0.978250
t,yaw,pitch,roll,speed.x,speed.y,speed.z,altBar,altRad,egt,myloclat,myloclon,weightlb,collective,bank,pitch,rudder
t,yaw,pitch,roll,speed.x,speed.y,speed.z,altBar,altRad,egt,myloclat,myloclon,weightlb,collective,bank,pitch,rudder
0.200000,5.374451,0.037073,0.002285,-0.067015,0.009370,0.026379,481.263123,1.568298,0.000000,41.659724,44.965707,7004.964901,-1.000000,0.351756,0.077152,1.000000
3.500000,5.374631,0.042927,0.007636,-0.002287,-0.000522,0.000611,481.262695,1.567871,0.000000,41.659724,44.965707,7000.347764,-0.009163,-0.128597,0.903180,-0.223559
3.600000,5.375252,0.042588,0.007375,0.017987,0.081713,-0.003570,481.266449,1.571655,0.000000,41.659724,44.965707,7000.347764,-0.417763,0.714309,1.000000,-0.379379
3.700000,5.372089,0.041362,0.005418,0.002643,0.104718,-0.031719,481.277863,1.583038,0.000000,41.659724,44.965707,7000.333420,1.000000,-0.804348,0.411981,-0.878512
3.800000,5.363306,0.041010,0.001983,-0.022211,-0.082541,-0.017778,481.279816,1.584991,0.000000,41.659724,44.965707,7000.333420,1.000000,0.159361,0.745860,0.366773
3.900000,5.359474,0.042995,0.001651,-0.063066,-0.087478,0.010681,481.268158,1.573334,0.000000,41.659724,44.965707,7000.319574,1.000000,-1.000000,1.000000,-0.979198
4.000000,5.357859,0.049184,0.003014,-0.109050,0.060948,0.036187,481.268036,1.573212,0.000000,41.659724,44.965707,7000.319574,0.504299,-1.000000,0.198177,-0.988607
4.100000,5.352448,0.054486,0.005115,-0.073722,0.146826,0.047217,481.275604,1.580780,0.000000,41.659724,44.965707,7000.305562,0.060377,1.000000,0.272702,-0.143233
4.200000,5.346245,0.057827,0.009056,-0.138640,-0.015203,0.036623,481.284973,1.590118,0.000000,41.659724,44.965707,7000.305562,1.000000,-1.000000,1.000000,-1.000000
4.300000,5.334867,0.057278,0.008781,-0.126967,-0.049185,-0.073096,481.277740,1.582886,0.000000,41.659724,44.965707,7000.290183,-0.097852,0.134146,0.627840,-0.244491
4.400000,5.322133,0.054462,0.004265,-0.057240,0.060918,-0.130632,481.277710,1.582886,0.000000,41.659724,44.965707,7000.290183,0.337900,1.000000,0.185825,0.325734
4.500000,5.316379,0.050320,0.000517,0.059426,-0.030458,-0.120203,481.280426,1.585602,0.000000,41.659724,44.965707,7000.274554,0.319676,0.264766,-0.919841,0.854666
4.600000,5.321091,0.045019,-0.002669,0.094389,0.003134,-0.024457,481.277985,1.583160,0.000000,41.659724,44.965707,7000.274554,0.300771,0.094989,-0.431013,0.633255
4.700000,5.330994,0.039074,-0.000567,0.097116,0.125843,0.016237,481.284241,1.589417,0.000000,41.659724,44.965707,7000.258138,-1.000000,0.217583,-1.000000,0.311004
4.800000,5.344349,0.032758,0.003144,0.143938,0.109625,-0.015478,481.300049,1.605225,0.000000,41.659724,44.965707,7000.258138,1.000000,-0.330245,0.501438,0.714274
4.900000,5.365095,0.025135,0.005361,0.205162,-0.145422,-0.072345,481.298492,1.603668,0.000000,41.659724,44.965707,7000.239773,0.792906,-0.254728,1.000000,1.000000
5.000000,5.387614,0.022296,0.000498,0.118589,-0.286433,-0.189988,481.272675,1.577850,0.000000,41.659724,44.965707,7000.239773,0.559844,1.000000,0.191006,0.212680
5.100000,5.399650,0.025886,-0.004271,-0.103178,0.112326,-0.052726,481.264191,1.569366,0.000000,41.659724,44.965706,7000.220745,-0.564349,1.000000,0.845890,-1.000000
5.200000,5.401503,0.031257,-0.001300,-0.075259,0.144003,0.101722,481.278015,1.583191,0.000000,41.659724,44.965707,7000.220745,0.320156,1.000000,1.000000,-0.076650
5.300000,5.394444,0.036082,0.004905,-0.080060,0.087237,0.132670,481.290283,1.595459,0.000000,41.659724,44.965707,7000.200888,-0.271687,0.424122,1.000000,-1.000000
5.400000,5.383812,0.040612,0.013922,-0.079225,0.232588,0.198594,481.302612,1.607788,0.000000,41.659724,44.965707,7000.200888,-1.000000,-1.000000,-0.949174,-1.000000
5.500000,5.361445,0.043147,0.027088,-0.020779,0.669900,0.250725,481.348236,1.653381,0.000000,41.659724,44.965707,7000.179705,-0.162331,-1.000000,-1.000000,1.000000
5.600000,5.339753,0.043010,0.041096,0.025192,0.826684,0.233132,481.428986,1.734161,0.000000,41.659724,44.965707,7000.179705,-0.265946,0.325073,-1.000000,0.571664
5.700000,5.328925,0.040704,0.050536,0.035789,0.474981,0.237800,481.493530,1.798706,0.000000,41.659725,44.965708,7000.159392,0.646886,-0.467864,0.314437,-0.389492
5.800000,5.323176,0.036966,0.056981,0.030143,-0.103594,0.305284,481.512848,1.818024,0.000000,41.659725,44.965708,7000.159392,1.000000,-0.987543,0.600319,-1.000000
5.900000,5.313729,0.033232,0.062143,0.003851,-0.940581,0.448718,481.457550,1.762726,0.000000,41.659725,44.965708,7000.139286,0.724327,1.000000,0.703804,-0.330905
6.000000,5.298547,0.030308,0.066055,-0.070047,-1.404217,0.453002,481.330750,1.635925,0.000000,41.659725,44.965708,7000.139286,-1.000000,0.283952,-1.000000,1.000000
6.100000,5.282552,0.031855,0.041010,-0.230013,0.066960,-0.486090,481.264923,1.570099,0.000000,41.659725,44.965708,7000.117730,-1.000000,1.000000,0.533261,-1.000000
6.200000,5.270333,0.037507,0.003633,-0.160733,0.271006,-0.507495,481.291046,1.596222,0.000000,41.659725,44.965708,7000.117730,1.000000,0.651746,1.000000,-0.722061
6.300000,5.258394,0.042007,-0.019873,-0.125182,0.170930,-0.432159,481.314850,1.620026,0.000000,41.659724,44.965708,7000.094805,-0.920471,0.130953,-0.486547,0.524413
6.400000,5.250171,0.046481,-0.031535,-0.045680,0.224645,-0.370318,481.326904,1.632080,0.000000,41.659724,44.965708,7000.094805,-1.000000,0.918454,0.806650,0.438159
6.500000,5.250778,0.049480,-0.033204,-0.014137,0.289710,-0.424811,481.357635,1.662811,0.000000,41.659724,44.965708,7000.071673,0.850894,-1.000000,0.163425,0.337520
6.600000,5.258956,0.051088,-0.029945,-0.018135,-0.020877,-0.472204,481.372162,1.677368,0.000000,41.659723,44.965707,7000.071673,1.000000,-0.063966,-0.245418,0.606985
6.700000,5.274093,0.051997,-0.023016,-0.042025,-0.532390,-0.482388,481.340698,1.645874,0.000000,41.659723,44.965707,7000.048500,-0.350116,0.168247,0.632872,-1.000000
6.800000,5.286105,0.050154,-0.010248,-0.031970,-0.440141,-0.157696,481.280487,1.585663,0.000000,41.659723,44.965707,7000.048500,0.388398,1.000000,-1.000000,-0.333555
6.900000,5.287331,0.048424,-0.002114,0.021050,0.100322,0.185724,481.270477,1.575653,0.000000,41.659723,44.965707,7000.026985,1.000000,0.271600,1.000000,1.000000
7.000000,5.288459,0.047814,0.003414,0.019306,0.054106,0.012708,481.277161,1.582336,0.000000,41.659723,44.965707,7000.026985,-0.563978,0.009335,-0.326059,0.685106
7.100000,5.293723,0.045878,0.000414,0.028191,0.147895,-0.063671,481.285767,1.590942,0.000000,41.659723,44.965707,7000.006133,-1.000000,-0.458535,0.778711,0.762819
7.200000,5.305342,0.041412,-0.001938,0.096164,0.765517,-0.121101,481.324005,1.629181,0.000000,41.659723,44.965707,7000.006133,-1.000000,1.000000,1.000000,-0.890416
7.300000,5.319972,0.033111,-0.001728,0.192778,1.606894,-0.148270,481.450989,1.756165,0.000000,41.659723,44.965706,6999.985488,-0.561504,1.000000,-1.000000,0.731037
7.400000,5.334461,0.021685,0.002552,0.252246,1.968113,-0.169288,481.641266,1.946472,0.000000,41.659723,44.965706,6999.985488,-0.258038,0.288651,-0.844408,-0.552282
7.500000,5.348701,0.009558,0.008015,0.266731,1.696437,-0.152711,481.822540,2.127716,0.000000,41.659723,44.965706,6999.966377,1.000000,1.000000,-1.000000,-0.159257
7.600000,5.360729,-0.003274,0.014754,0.275313,1.080656,-0.121379,481.962494,2.267670,0.000000,41.659723,44.965705,6999.966377,-1.000000,-0.531347,0.878613,1.000000
7.700000,5.377304,-0.016226,0.020131,0.330958,0.890780,-0.138158,482.056519,2.361694,0.000000,41.659723,44.965705,6999.948220,-0.734992,-1.000000,0.665876,-0.202167
7.800000,5.399633,-0.029591,0.024585,0.445756,1.438443,-0.164904,482.163635,2.468811,0.000000,41.659723,44.965705,6999.948220,-1.000000,-0.340162,1.000000,0.284202
7.900000,5.426905,-0.045900,0.030792,0.585313,2.169243,-0.181714,482.347137,2.652313,0.000000,41.659724,44.965704,6999.928031,-0.723954,0.213204,0.252084,-0.703687
8.000000,5.453506,-0.063857,0.039287,0.703544,2.549501,-0.163437,482.592865,2.898071,0.000000,41.659724,44.965703,6999.928031,0.655794,-0.711237,-0.162868,-0.345755
8.100000,5.475258,-0.080592,0.048402,0.777639,2.174542,-0.126165,482.818542,3.123718,0.000000,41.659725,44.965703,6999.905977,0.585887,-1.000000,-0.581834,-0.108528
8.200000,5.498973,-0.096989,0.055850,0.851257,1.361502,-0.075806,482.992645,3.297821,0.000000,41.659725,44.965702,6999.905977,1.000000,-1.000000,-1.000000,0.298360
8.300000,5.527532,-0.111572,0.058936,0.953082,0.517709,-0.031367,483.076202,3.381378,0.000000,41.659726,44.965701,6999.881892,0.015640,1.000000,-1.000000,0.068561
8.400000,5.558764,-0.123743,0.057882,1.075204,-0.184895,0.024131,483.079620,3.384796,0.000000,41.659727,44.965701,6999.881892,1.000000,-0.086353,0.934687,-1.000000
8.500000,5.586497,-0.134335,0.057508,1.228926,-0.703944,0.153867,483.014465,3.319641,0.000000,41.659728,44.965700,6999.855361,-1.000000,-0.221605,-1.000000,-1.000000
8.600000,5.600895,-0.142092,0.062637,1.397801,-0.900984,0.282984,482.911743,3.216888,0.000000,41.659729,44.965699,6999.855361,0.901313,-0.494762,-1.000000,0.157246
8.700000,5.612236,-0.147330,0.068093,1.562465,-0.993962,0.330780,482.799164,3.104340,0.000000,41.659730,44.965699,6999.828249,-1.000000,0.623726,-0.518396,1.000000
8.800000,5.633834,-0.151386,0.068898,1.738085,-1.102424,0.332480,482.666901,2.972076,0.000000,41.659731,44.965698,6999.828249,1.000000,0.130315,-0.660731,-0.318324
8.900000,5.664123,-0.153412,0.064894,1.907900,-1.226743,0.328101,482.518829,2.824005,0.000000,41.659732,44.965698,6999.800557,-1.000000,-1.000000,-0.145334,-0.750661
9.000000,5.693074,-0.152522,0.060235,2.062150,-1.044973,0.361848,482.373474,2.678650,0.000000,41.659734,44.965697,6999.800557,-0.200045,0.071493,-0.061866,-0.244911
9.100000,5.716507,-0.147864,0.059094,2.240816,-0.347826,0.401858,482.272980,2.578156,0.000000,41.659736,44.965696,6999.771083,1.000000,-1.000000,0.315650,-1.000000
9.200000,5.730333,-0.140503,0.063282,2.404187,-0.541739,0.510415,482.197784,2.502960,0.000000,41.659738,44.965696,6999.771083,0.639598,0.965442,1.000000,-0.378608
9.300000,5.733257,-0.131492,0.071255,2.529623,-0.835515,0.646851,482.092346,2.397522,0.000000,41.659740,44.965695,6999.741691,-0.722480,0.253226,1.000000,-1.000000
9.400000,5.726035,-0.119347,0.081933,2.648201,-0.594051,0.784183,481.975128,2.280304,0.000000,41.659742,44.965695,6999.741691,-0.041771,0.532725,1.000000,-0.074685
9.500000,5.712519,-0.104998,0.091295,2.775559,0.065770,0.890753,481.910400,2.215546,0.000000,41.659744,44.965694,6999.713377,-0.944666,-1.000000,-0.093169,-0.520981
9.600000,5.698312,-0.090852,0.097515,2.904968,0.421610,0.994739,481.902832,2.208008,0.000000,41.659747,44.965694,6999.713377,0.344366,0.750570,-0.019078,0.467983
9.700000,5.685626,-0.076480,0.100477,3.030274,0.434139,1.104322,481.914581,2.219757,0.000000,41.659750,44.965694,6999.686307,0.614405,1.000000,0.381818,0.638095
9.800000,5.680275,-0.063268,0.097438,3.123663,0.027042,1.170675,481.903015,2.208191,0.000000,41.659753,44.965693,6999.686307,-0.584756,-1.000000,0.114654,0.755367
9.900000,5.684058,-0.051978,0.088315,3.203167,-0.311626,1.214602,481.861603,2.166779,0.000000,41.659756,44.965693,6999.662222,0.866978,-1.000000,0.587729,-0.431753
10.000000,5.691977,-0.040486,0.075608,3.270439,-0.776613,1.255235,481.783478,2.088654,0.000000,41.659759,44.965692,6999.662222,1.000000,0.228066,0.297406,0.747787
10.100000,5.704061,-0.029415,0.060801,3.315821,-1.443771,1.246300,481.648285,1.953461,0.000000,41.659762,44.965692,6999.639877,0.106178,-0.437482,-0.049699,0.592044
10.200000,5.722046,-0.019539,0.045025,3.358388,-1.813811,1.183961,481.473206,1.778381,0.000000,41.659765,44.965691,6999.639877,-1.000000,0.512904,1.000000,-0.262876
10.300000,5.742673,-0.007662,0.020645,3.079012,-0.732195,0.893012,481.314789,1.619965,0.000000,41.659768,44.965691,6999.617616,-1.000000,-1.000000,-1.000000,-0.615210
10.400000,5.758402,0.005959,-0.002812,2.912958,0.311817,0.724711,481.316833,1.622009,0.000000,41.659771,44.965691,6999.617616,1.000000,-0.095850,1.000000,1.000000
10.500000,5.771606,0.017012,-0.010913,2.956004,-0.027497,0.694316,481.338379,1.643555,0.000000,41.659773,44.965690,6999.596557,0.556007,-0.433670,-0.801049,-1.000000
10.600000,5.784059,0.027328,-0.014684,2.939131,-0.767910,0.688726,481.305786,1.610962,0.000000,41.659776,44.965690,6999.596557,1.000000,-0.132444,-0.151840,0.084195
10.700000,5.788443,0.031908,0.006987,2.190572,-0.228892,0.659873,481.244873,1.550049,0.000000,41.659778,44.965689,6999.576741,-0.086624,-0.118863,0.067645,-1.000000
10.800000,5.786407,0.022873,0.008238,1.562409,0.335111,0.501810,481.265442,1.570618,0.000000,41.659780,44.965689,6999.576741,-1.000000,0.479078,0.089004,0.363976
10.900000,5.778498,0.012552,0.003197,1.526418,0.331376,0.525314,481.305145,1.610321,0.000000,41.659782,44.965689,6999.557299,1.000000,-0.814862,-0.548057,-1.000000
11.000000,5.766497,0.001107,0.001983,1.513616,0.075986,0.557070,481.326660,1.631836,0.000000,41.659783,44.965689,6999.557299,-0.716386,-0.787013,0.897737,0.997641
11.100000,5.756625,-0.008861,0.002596,1.407337,0.262637,0.518928,481.335632,1.640808,0.000000,41.659784,44.965689,6999.538230,-0.362877,1.000000,0.907650,-0.362163
11.200000,5.751462,-0.019433,0.004396,1.499095,0.787517,0.490401,481.385895,1.691071,0.000000,41.659786,44.965689,6999.538230,-1.000000,0.306942,0.288213,0.857784
11.300000,5.752075,-0.032397,0.008738,1.606210,1.006645,0.465315,481.477539,1.782715,0.000000,41.659787,44.965689,6999.519326,0.174946,0.598465,-0.264252,-0.188892
11.400000,5.758407,-0.046257,0.014651,1.710572,1.070538,0.448470,481.570526,1.875702,0.000000,41.659789,44.965688,6999.519326,-1.000000,0.291365,0.147361,0.417713
11.500000,5.768661,-0.062202,0.022683,1.812012,0.882388,0.452162,481.664154,1.969330,0.000000,41.659790,44.965688,6999.499759,1.000000,-0.238291,0.488338,-0.530425
11.600000,5.779949,-0.077980,0.031807,1.908065,0.439761,0.488861,481.717529,2.022675,0.000000,41.659792,44.965688,6999.499759,-0.607861,-1.000000,-0.390881,-0.070177
11.700000,5.790214,-0.092012,0.041261,2.019021,0.267538,0.511675,481.727417,2.032593,0.000000,41.659794,44.965688,6999.480276,-0.100759,0.859539,0.870869,0.150214
11.800000,5.804577,-0.106168,0.051026,2.168866,0.468046,0.519676,481.742249,2.047424,0.000000,41.659796,44.965687,6999.480276,-0.492277,-1.000000,0.949015,-0.328297
11.900000,5.818926,-0.119271,0.061241,2.313099,0.274715,0.588144,481.756653,2.061829,0.000000,41.659798,44.965687,6999.458802,1.000000,0.754048,0.445695,-1.000000
12.000000,5.824137,-0.129413,0.073380,2.440529,-0.240358,0.732221,481.727722,2.032898,0.000000,41.659800,44.965687,6999.458802,0.599413,0.128618,0.076359,-0.739079
12.100000,5.818421,-0.136329,0.081662,2.220394,-0.394607,0.798325,481.641998,1.947144,0.000000,41.659802,44.965687,6999.434426,-0.704979,0.287732,-0.648817,-0.647867
12.200000,5.804930,-0.136551,0.064847,1.990585,0.129675,0.791010,481.583282,1.888458,0.000000,41.659804,44.965687,6999.434426,-0.292341,0.923252,-0.701790,-0.918058
12.300000,5.786240,-0.132404,0.043161,2.036370,0.322449,0.871484,481.586212,1.891388,0.000000,41.659806,44.965687,6999.409139,1.000000,1.000000,-0.204549,0.438595
12.400000,5.768171,-0.126557,0.026621,2.146771,-0.232477,0.952776,481.561066,1.866241,0.000000,41.659808,44.965687,6999.409139,0.029679,-0.520841,-0.217469,1.000000
12.500000,5.755391,-0.116595,0.026135,1.715075,-0.011733,0.842172,481.513672,1.818817,0.000000,41.659810,44.965687,6999.382898,-0.015513,-1.000000,0.804426,-0.961490
12.600000,5.745816,-0.102116,0.032928,1.535395,0.295735,0.804635,481.509460,1.814606,0.000000,41.659812,44.965688,6999.382898,-0.534663,-1.000000,-0.165764,0.633641
12.700000,5.737957,-0.086179,0.037168,1.662116,0.302879,0.825464,481.524567,1.829742,0.000000,41.659813,44.965688,6999.356947,0.257891,-0.351223,0.475010,0.690615
12.800000,5.738468,-0.070839,0.037877,1.725715,0.098293,0.805851,481.535400,1.840607,0.000000,41.659815,44.965688,6999.356947,0.325524,0.120777,-0.094399,-0.130844
12.900000,5.744711,-0.057122,0.038125,1.806807,-0.281355,0.809385,481.510803,1.815979,0.000000,41.659817,44.965688,6999.332986,-0.064223,0.837851,0.381764,1.000000
13.000000,5.757236,-0.042357,0.034744,1.803702,-0.261944,0.723856,481.463623,1.768799,0.000000,41.659818,44.965688,6999.332986,-0.888535,-0.990723,1.000000,1.000000
13.100000,5.778174,-0.027651,0.026449,1.919581,0.417113,0.637034,481.460876,1.766052,0.000000,41.659820,44.965688,6999.310807,-0.503611,0.471032,1.000000,-0.055560
13.200000,5.802199,-0.016409,0.022004,2.067946,1.009689,0.580007,481.525391,1.830566,0.000000,41.659822,44.965688,6999.310807,-1.000000,0.004216,1.000000,-1.000000
13.300000,5.823540,-0.007628,0.022783,2.193864,1.176457,0.603251,481.641235,1.946411,0.000000,41.659824,44.965688,6999.289458,0.628712,0.229590,-1.000000,-0.291992
13.400000,5.833758,-0.000770,0.029792,2.259690,0.781353,0.662833,481.742279,2.047455,0.000000,41.659826,44.965688,6999.289458,-0.257470,-0.226871,-0.389272,-0.419079
13.500000,5.836456,0.004470,0.039400,2.307812,0.498741,0.746781,481.795929,2.101105,0.000000,41.659828,44.965688,6999.270016,-1.000000,-0.499304,0.800673,-1.000000
13.600000,5.828144,0.008295,0.052725,2.375864,0.636205,0.871684,481.855804,2.160980,0.000000,41.659830,44.965688,6999.270016,0.939064,0.060058,-1.000000,-1.000000
13.700000,5.807657,0.011014,0.067295,2.384212,0.151960,1.038465,481.895538,2.200714,0.000000,41.659833,44.965688,6999.251071,1.000000,1.000000,-1.000000,1.000000
13.800000,5.789706,0.012664,0.077404,2.374792,-0.449048,1.142208,481.873322,2.178467,0.000000,41.659835,44.965688,6999.251071,-1.000000,1.000000,-1.000000,-0.021895
13.900000,5.779719,0.012458,0.081761,2.418658,-0.448200,1.210720,481.812805,2.117981,0.000000,41.659837,44.965688,6999.229390,0.038513,1.000000,-0.227757,-0.718095
14.000000,5.772438,0.009531,0.081621,2.491148,-0.145644,1.290368,481.782257,2.087402,0.000000,41.659840,44.965689,6999.229390,0.020800,0.150574,-0.055387,1.000000
14.100000,5.770607,0.004708,0.077386,2.544206,-0.167822,1.344052,481.756409,2.061584,0.000000,41.659842,44.965689,6999.206134,-0.369073,1.000000,1.000000,-0.885049
14.200000,5.774049,-0.002338,0.069642,2.630838,0.092222,1.395024,481.738007,2.043182,0.000000,41.659845,44.965689,6999.206134,-0.665744,0.884024,-0.257728,-0.492517
14.300000,5.776565,-0.011006,0.062433,2.717345,0.252089,1.464813,481.750000,2.055206,0.000000,41.659848,44.965690,6999.181136,0.408888,-1.000000,1.000000,1.000000
14.400000,5.784837,-0.020409,0.054368,2.804571,0.274293,1.454476,481.760559,2.065704,0.000000,41.659850,44.965690,6999.181136,-1.000000,-0.259906,1.000000,0.520583
14.500000,5.805594,-0.031975,0.043396,2.943828,0.592338,1.398559,481.787292,2.092468,0.000000,41.659853,44.965691,6999.153983,-0.083359,0.501142,1.000000,-0.435561
14.600000,5.831017,-0.045028,0.033756,3.105693,0.920962,1.374661,481.848267,2.153442,0.000000,41.659856,44.965691,6999.153983,-1.000000,1.000000,-1.000000,-0.585287
14.700000,5.851842,-0.058268,0.028388,3.245014,0.888968,1.366648,481.920532,2.225708,0.000000,41.659859,44.965692,6999.126789,1.000000,-1.000000,-1.000000,1.000000
14.800000,5.877728,-0.072521,0.022563,3.375873,0.477079,1.297474,481.965027,2.270203,0.000000,41.659863,44.965692,6999.126789,-0.745572,-0.986051,-0.598682,0.303393
14.900000,5.910983,-0.086120,0.014445,3.522511,0.068634,1.204712,481.961517,2.266693,0.000000,41.659866,44.965693,6999.099967,1.000000,1.000000,0.550618,-0.453913
15.000000,5.942763,-0.097755,0.007528,3.666362,-0.320068,1.125245,481.917297,2.222443,0.000000,41.659869,44.965693,6999.099967,-0.330450,-0.511742,-0.563217,0.666146
15.100000,5.977732,-0.108498,0.000677,3.822483,-0.753285,1.004607,481.822052,2.127228,0.000000,41.659873,44.965693,6999.073395,1.000000,1.000000,-1.000000,0.166240
15.200000,6.015087,-0.117204,-0.006192,3.980047,-1.244352,0.874303,481.678406,1.983582,0.000000,41.659876,44.965694,6999.073395,0.244889,0.389143,-1.000000,-0.297745
15.300000,6.044486,-0.122392,-0.006816,3.663578,-1.123648,0.716700,481.501556,1.806732,0.000000,41.659879,44.965694,6999.048356,0.650644,-0.397231,-1.000000,-0.545662
15.400000,6.059407,-0.116084,0.013842,2.158396,0.363854,0.549515,481.422363,1.727539,0.000000,41.659882,44.965695,6999.048356,-0.275337,-0.691136,0.137426,-0.977184
