t,yaw,pitch,roll,speed.x,speed.y,speed.z,altBar,altRad,egt,myloclat,myloclon,weightlb,collective,bank,pitch,rudder
0.000000,5.375005,0.027157,0.000000,0.000000,0.000000,0.000000,481.204865,1.510040,0.000000,41.659724,44.965707,7008.602206,-0.942681,1.000000,0.318783,0.386737
0.100000,5.375070,0.031622,0.000724,-0.092721,0.517175,0.015561,481.239288,1.544464,0.000000,41.659724,44.965707,7004.964901,-0.291958,-0.002224,0.733064,0.516695
0.200000,5.376293,0.036994,0.001270,-0.061682,0.068838,0.013317,481.264618,1.569824,0.000000,41.659724,44.965707,7004.964901,-0.649567,-1.000000,0.632709,-0.251615
0.300000,5.377027,0.040636,0.003374,-0.059094,0.167133,0.018380,481.275177,1.580353,0.000000,41.659724,44.965707,7000.556034,0.233579,-0.182426,-0.033717,-0.305727
0.400000,5.373522,0.043594,0.004685,-0.044032,0.105160,0.037002,481.292267,1.597443,0.000000,41.659724,44.965707,7000.556034,-0.246528,0.261461,0.258851,-0.702904
0.500000,5.363504,0.044138,0.007467,-0.015056,0.272692,0.049030,481.304932,1.610138,0.000000,41.659724,44.965707,7000.556034,-1.000000,0.696883,-0.456154,1.000000
0.600000,5.356401,0.041491,0.012807,0.060715,0.758692,0.017298,481.354736,1.659912,0.000000,41.659724,44.965707,7000.556034,-0.352330,0.349528,-1.000000,-0.041404
0.700000,5.353809,0.035080,0.019625,0.128433,1.083000,0.000801,481.451569,1.756744,0.000000,41.659724,44.965707,7000.541649,-0.827182,1.000000,1.000000,-0.865343
0.800000,5.349108,0.025883,0.028016,0.174760,1.132137,0.030780,481.570404,1.875580,0.000000,41.659725,44.965707,7000.541649,1.000000,0.301341,0.134148,0.782521
0.900000,5.345734,0.016051,0.034744,0.177544,0.608327,0.047387,481.656708,1.961884,0.000000,41.659725,44.965707,7000.527057,0.296019,0.297834,0.723301,-0.092698
1.000000,5.348343,0.005593,0.038349,0.183588,-0.083645,0.072375,481.680054,1.985229,0.000000,41.659725,44.965707,7000.527057,-1.000000,-0.491536,-1.000000,0.837426
1.100000,5.359479,-0.005075,0.038549,0.242306,-0.143782,0.055100,481.660583,1.965759,0.000000,41.659725,44.965707,7000.510433,-1.000000,0.717102,0.672448,1.000000
1.200000,5.381492,-0.016211,0.035584,0.332689,0.181965,0.023694,481.665924,1.971100,0.000000,41.659725,44.965706,7000.510433,0.354225,-0.385588,0.612901,-0.386928
1.300000,5.410836,-0.028695,0.031107,0.424437,0.266257,0.043048,481.688232,1.993408,0.000000,41.659725,44.965706,7000.490369,-1.000000,0.121927,1.000000,0.268067
1.400000,5.441374,-0.041416,0.027329,0.536291,0.451772,0.058224,481.720001,2.025177,0.000000,41.659726,44.965706,7000.490369,-0.118309,1.000000,-0.531509,-0.264832
1.500000,5.471198,-0.054054,0.025565,0.671141,0.703132,0.081755,481.773285,2.078430,0.000000,41.659726,44.965705,7000.468439,-1.000000,-0.355716,-0.286054,-0.153516
1.600000,5.502775,-0.068661,0.027383,0.820605,0.811153,0.097976,481.848175,2.153351,0.000000,41.659727,44.965705,7000.468439,0.255696,1.000000,0.002563,0.150242
1.700000,5.536026,-0.084122,0.031383,0.976540,0.796260,0.121427,481.922424,2.227600,0.000000,41.659728,44.965704,7000.444561,-1.000000,1.000000,-0.744925,-0.521240
1.800000,5.567949,-0.099353,0.037434,1.132023,0.754274,0.129331,481.987579,2.292725,0.000000,41.659729,44.965704,7000.444561,0.426254,0.075879,-0.000594,0.736491
1.900000,5.606923,-0.115749,0.042629,1.292378,0.560150,0.104487,482.042053,2.347229,0.000000,41.659730,44.965703,7000.418196,-0.662113,-0.068283,-1.000000,0.525684
2.000000,5.654227,-0.131502,0.043464,1.469806,0.531519,0.064095,482.073486,2.378662,0.000000,41.659731,44.965702,7000.418196,-0.578706,-1.000000,-1.000000,-0.691493
2.100000,5.698862,-0.145830,0.044173,1.698082,1.020675,0.058564,482.124695,2.429871,0.000000,41.659732,44.965702,7000.391208,-0.869137,-0.936352,-0.297898,-0.097147
2.200000,5.740113,-0.161924,0.048280,1.972097,1.558753,0.058896,482.225586,2.530762,0.000000,41.659734,44.965701,7000.391208,-0.630293,1.000000,0.255902,-0.886917
2.300000,5.774851,-0.179033,0.055707,2.235832,1.969214,0.060713,482.370911,2.676086,0.000000,41.659736,44.965700,7000.362978,-0.307571,0.041246,0.618408,0.034117
2.400000,5.804177,-0.195047,0.063583,2.460085,1.968208,0.056336,482.515839,2.821014,0.000000,41.659738,44.965699,7000.362978,-0.319206,0.087432,-0.081835,-0.154218
2.500000,5.840259,-0.211850,0.068097,2.727280,2.056323,-0.025434,482.659607,2.964783,0.000000,41.659741,44.965698,7000.332881,-0.845531,-0.364453,-1.000000,0.674903
2.600000,5.889690,-0.229149,0.063734,2.998375,2.081301,-0.161422,482.806671,3.111847,0.000000,41.659744,44.965697,7000.332881,0.724905,1.000000,0.464893,-0.170309
2.700000,5.945008,-0.244034,0.051840,3.231177,1.771851,-0.268291,482.916382,3.221558,0.000000,41.659747,44.965696,7000.302868,-1.000000,1.000000,-0.085892,0.360805
2.800000,6.006364,-0.257106,0.035162,3.485842,1.454466,-0.414936,482.992126,3.297302,0.000000,41.659750,44.965695,7000.302868,0.857987,1.000000,-0.676470,0.221471
2.900000,6.068323,-0.266569,0.014951,3.727091,0.986325,-0.543573,483.019196,3.324371,0.000000,41.659753,44.965694,7000.272191,-0.519370,1.000000,1.000000,-1.000000
3.000000,6.116750,-0.271589,-0.000629,3.958514,0.679492,-0.631110,482.993866,3.299042,0.000000,41.659756,44.965693,7000.272191,-0.483149,0.014509,1.000000,0.340492
3.100000,6.157988,-0.273162,-0.010029,4.227722,1.161405,-0.738238,482.964966,3.270142,0.000000,41.659760,44.965692,7000.239981,-1.000000,-0.667051,-0.434194,-1.000000
3.200000,6.188841,-0.272525,-0.009377,4.574446,2.123023,-0.831310,483.001221,3.306396,0.000000,41.659764,44.965691,7000.239981,-1.000000,-0.046292,1.000000,-1.000000
3.300000,6.203306,-0.273268,0.001109,4.951359,3.143595,-0.894812,483.122345,3.427521,0.000000,41.659769,44.965691,7000.209304,-1.000000,-0.629468,-0.353997,0.245658
3.400000,6.210734,-0.275766,0.015417,5.337197,4.001313,-0.962914,483.336426,3.641602,0.000000,41.659774,44.965690,7000.209304,-0.669904,-0.427350,1.000000,-1.000000
3.500000,6.210810,-0.279262,0.032486,5.704745,4.611444,-0.950287,483.607483,3.912659,0.000000,41.659780,44.965690,7000.181031,-1.000000,1.000000,1.000000,-1.000000
3.600000,6.198753,-0.282488,0.053774,6.039497,4.873975,-0.856800,483.898376,4.203552,0.000000,41.659787,44.965689,7000.181031,1.000000,0.464786,-0.980642,1.000000
3.700000,6.183057,-0.284872,0.075081,6.352808,4.435586,-0.749198,484.184814,4.489960,0.000000,41.659793,44.965689,7000.154956,-0.398052,0.642949,-1.000000,-0.473911
3.800000,6.173186,-0.285750,0.089932,6.650414,3.719590,-0.628556,484.400818,4.705994,0.000000,41.659800,44.965689,7000.154956,0.771454,0.155706,-1.000000,-1.000000
3.900000,6.165172,-0.284927,0.101183,6.948377,3.199928,-0.462950,484.536255,4.841431,0.000000,41.659806,44.965689,7000.129586,-1.000000,0.651067,0.943958,0.329011
4.000000,6.156690,-0.282891,0.111929,7.290554,2.948174,-0.296023,484.631104,4.936279,0.000000,41.659813,44.965689,7000.129586,-0.317681,-1.000000,1.000000,1.000000
4.100000,6.157148,-0.281861,0.117512,7.668649,3.191804,-0.242231,484.719238,5.024414,0.000000,41.659820,44.965689,7000.102806,-1.000000,0.639400,1.000000,-0.655577
4.200000,6.166145,-0.282345,0.118826,8.016727,3.372676,-0.201204,484.814423,5.119598,0.000000,41.659828,44.965690,7000.102806,-0.124999,-1.000000,0.293068,-0.739429
4.300000,6.172702,-0.282679,0.123212,8.380395,3.481034,-0.079852,484.916168,5.221344,0.000000,41.659836,44.965690,7000.073953,-1.000000,-0.013528,0.968524,-0.654547
4.400000,6.170897,-0.282207,0.133432,8.747307,3.633067,0.109476,485.017151,5.322327,0.000000,41.659844,44.965691,7000.073953,-0.249973,0.105567,0.406607,-1.000000
4.500000,6.159701,-0.280845,0.148914,9.092177,3.843237,0.377630,485.117279,5.422455,0.000000,41.659852,44.965692,7000.044893,-1.000000,-0.042167,0.438741,-1.000000
4.600000,6.137447,-0.278081,0.170931,9.439831,4.030039,0.748352,485.229919,5.535095,0.000000,41.659861,44.965694,7000.044893,-0.055092,-0.329976,1.000000,-0.091799
4.700000,6.112627,-0.274688,0.193490,9.765868,4.163948,1.128773,485.341034,5.646210,0.000000,41.659870,44.965696,7000.015004,-1.000000,0.363644,-1.000000,-0.218465
4.800000,6.093885,-0.272255,0.211392,10.091790,4.545026,1.430919,485.448456,5.753601,0.000000,41.659880,44.965698,7000.015004,-0.882156,-0.067906,-0.811311,0.105329
4.900000,6.082977,-0.273025,0.225601,10.482962,5.476166,1.640109,485.613983,5.919159,0.000000,41.659890,44.965700,6999.983540,-1.000000,-0.527802,0.113204,0.532395
5.000000,6.084767,-0.277972,0.233324,10.847603,6.059974,1.744959,485.840393,6.145569,0.000000,41.659901,44.965703,6999.983540,0.093266,0.826672,0.040960,-0.101126
5.100000,6.095812,-0.284010,0.235088,11.148785,5.783737,1.815410,486.045227,6.350403,0.000000,41.659912,44.965706,6999.952366,0.069100,1.000000,-0.385919,0.046308
5.200000,6.114674,-0.289863,0.231579,11.486410,5.291050,1.832126,486.199402,6.504578,0.000000,41.659923,44.965709,6999.952366,-1.000000,-0.882558,0.223388,0.514942
5.300000,6.144057,-0.296534,0.220951,11.899998,5.361152,1.697873,486.318298,6.623444,0.000000,41.659934,44.965712,6999.920777,-0.505508,-1.000000,1.000000,0.977901
5.400000,6.183838,-0.304443,0.203481,12.315874,5.532171,1.415695,486.437134,6.742310,0.000000,41.659945,44.965716,6999.920777,-0.111345,0.159859,-0.696206,0.044593
5.500000,6.235707,-0.312587,0.178766,12.755667,5.483290,1.014730,486.549011,6.854187,0.000000,41.659957,44.965719,6999.887820,-1.000000,0.795613,0.011103,0.906690
5.600000,0.011401,-0.319909,0.150922,13.217641,5.819447,0.485996,486.657562,6.962738,0.000000,41.659969,44.965723,6999.887820,-1.000000,0.062365,0.044414,0.075997
5.700000,0.070785,-0.326013,0.124376,13.621895,6.212339,-0.097584,486.796112,7.101288,0.000000,41.659982,44.965728,6999.855444,0.023768,-0.556768,1.000000,0.645748
5.800000,0.135030,-0.329674,0.096265,13.987980,6.118759,-0.759405,486.939240,7.244415,0.000000,41.659995,44.965732,6999.855444,-0.869381,-0.035887,0.412125,0.166393
5.900000,0.197908,-0.330265,0.069840,14.351093,6.244885,-1.432782,487.069397,7.374573,0.000000,41.660008,44.965737,6999.822819,-0.567283,0.912469,-1.000000,-0.410328
6.000000,0.249393,-0.328832,0.051566,14.671969,6.318819,-1.992552,487.201569,7.506744,0.000000,41.660022,44.965742,6999.822819,-0.307275,-0.035928,1.000000,-0.272595
6.100000,0.294506,-0.325220,0.039919,14.983105,6.135232,-2.518317,487.326416,7.631592,0.000000,41.660036,44.965748,6999.789240,-0.494735,0.074926,-0.478314,0.338476
6.200000,0.334603,-0.319866,0.033380,15.273295,5.762785,-3.019146,487.425629,7.730804,0.000000,41.660050,44.965754,6999.789240,0.304152,0.803777,0.005178,-0.243965
6.300000,0.369071,-0.313404,0.030348,15.541023,5.399067,-3.479230,487.480225,7.785370,0.000000,41.660064,44.965760,6999.757278,-1.000000,0.895596,-0.053069,1.000000
6.400000,0.405861,-0.306046,0.029117,15.823162,5.302827,-4.021431,487.518677,7.823853,0.000000,41.660078,44.965766,6999.757278,-0.371917,0.079700,1.000000,1.000000
6.500000,0.446870,-0.298880,0.026568,16.053976,5.140399,-4.644784,487.560791,7.865967,0.000000,41.660093,44.965772,6999.726684,0.517700,-0.421645,-1.000000,-0.138839
6.600000,0.481907,-0.291274,0.024022,16.215367,4.358047,-5.114575,487.560150,7.865326,0.000000,41.660108,44.965779,6999.726684,0.532158,-1.000000,0.645765,-1.000000
6.700000,0.505198,-0.281712,0.025531,16.428925,3.506605,-5.338766,487.481903,7.787079,0.000000,41.660122,44.965786,6999.697127,-0.866210,0.092406,0.023732,-0.065536
6.800000,0.509196,-0.271660,0.034891,16.765265,3.306822,-5.287434,487.362335,7.667511,0.000000,41.660137,44.965793,6999.697127,-0.528559,0.744102,-0.036857,-0.596493
6.900000,0.499448,-0.262666,0.049729,17.144732,3.292793,-5.035180,487.263611,7.568787,0.000000,41.660152,44.965801,6999.670969,0.620786,0.459893,0.586646,0.100304
7.000000,0.478133,-0.252771,0.068756,17.559026,2.868145,-4.573123,487.140991,7.446136,0.000000,41.660167,44.965809,6999.670969,-1.000000,-0.561178,-0.073881,-0.001727
7.100000,0.449374,-0.242711,0.089218,18.008953,2.920200,-3.952382,487.009857,7.315033,0.000000,41.660182,44.965817,6999.647174,-0.136114,0.779174,0.015192,-0.597275
7.200000,0.414702,-0.233310,0.111822,18.441932,3.190626,-3.232075,486.914581,7.219757,0.000000,41.660198,44.965825,6999.647174,-1.000000,-0.446260,1.000000,1.000000
7.300000,0.377778,-0.223893,0.134349,18.859129,3.452836,-2.459280,486.847137,7.152313,0.000000,41.660214,44.965835,6999.625037,0.102390,-0.618387,-0.008561,-0.880211
7.400000,0.341629,-0.214708,0.154184,19.213795,3.414489,-1.645186,486.798035,7.103210,0.000000,41.660229,44.965844,6999.625037,0.409129,-0.320500,-0.142874,0.953750
7.500000,0.308367,-0.205364,0.169084,19.467969,2.792249,-0.829699,486.719360,7.024506,0.000000,41.660245,44.965854,6999.605097,0.872831,0.322815,0.617343,-1.000000
7.600000,0.273317,-0.193894,0.180796,19.686015,1.997438,0.096018,486.562195,6.867340,0.000000,41.660261,44.965863,6999.605097,-0.184047,0.029989,-1.000000,-0.084292
7.700000,0.235001,-0.180632,0.191473,19.865410,1.343152,1.107242,486.339020,6.644196,0.000000,41.660277,44.965873,6999.585488,0.927247,1.000000,-0.197369,0.932149
7.800000,0.206182,-0.169063,0.196349,19.998286,0.733812,1.860296,486.075043,6.380219,0.000000,41.660293,44.965884,6999.585488,-0.047261,-0.096207,1.000000,0.239030
7.900000,0.187403,-0.159100,0.193615,20.127174,0.074725,2.457240,485.738159,6.043335,0.000000,41.660309,44.965894,6999.563393,1.000000,0.048011,-1.000000,-0.537913
8.000000,0.169878,-0.149812,0.188676,20.243522,-0.436633,3.069098,485.347107,5.652313,0.000000,41.660325,44.965904,6999.563393,-0.694663,-0.231857,0.246025,-0.165934
8.100000,0.150672,-0.141476,0.184809,20.331774,-0.702491,3.676375,484.951141,5.256317,0.000000,41.660341,44.965915,6999.540012,1.000000,0.337119,0.876771,-0.229543
8.200000,0.130613,-0.133594,0.180598,20.398335,-1.063802,4.279923,484.508484,4.813690,0.000000,41.660357,44.965926,6999.540012,0.895189,0.663771,0.393518,0.872108
8.300000,0.117644,-0.127611,0.172818,20.455354,-1.805871,4.700258,484.013611,4.318787,0.000000,41.660373,44.965937,6999.515222,-0.859304,0.962075,1.000000,-0.366093
8.400000,0.110848,-0.123907,0.163264,20.557089,-2.060757,4.974382,483.503845,3.808960,0.000000,41.660390,44.965948,6999.515222,-0.274213,-1.000000,-0.260216,-0.043117
8.500000,0.103837,-0.122062,0.154374,20.706721,-1.550244,5.210944,482.976807,3.281982,0.000000,41.660406,44.965959,6999.490018,-1.000000,0.236746,-0.603248,1.000000
8.600000,0.105597,-0.123944,0.143370,20.920610,-0.625564,5.177914,482.529968,2.835144,0.000000,41.660423,44.965971,6999.490018,-0.305835,0.406364,0.802165,0.803980
8.700000,0.120149,-0.129068,0.129797,21.177080,-0.110871,4.907135,482.181458,2.486664,0.000000,41.660439,44.965982,6999.466927,-0.026378,0.711868,-1.000000,-0.353266
8.800000,0.139757,-0.135875,0.117568,21.448338,0.033813,4.597938,481.832825,2.138000,0.000000,41.660456,44.965994,6999.466927,-0.131461,0.897556,-0.217131,0.205694
8.900000,0.159532,-0.144210,0.099019,20.829521,0.756320,4.050371,481.506744,1.811920,0.000000,41.660473,44.966007,6999.445744,0.178627,-0.497663,0.450051,-0.392728
9.000000,0.186997,-0.164227,0.061418,17.594056,3.759584,2.758841,481.412689,1.717865,0.000000,41.660488,44.966018,6999.445744,-0.565021,0.451799,1.000000,0.582006
9.100000,0.224789,-0.196615,0.019356,16.561849,4.689866,2.068548,481.533783,1.838959,0.000000,41.660502,44.966027,6999.425514,1.000000,-0.487109,1.000000,0.028344
9.200000,0.265595,-0.227708,-0.014250,16.346653,4.766280,1.504824,481.638062,1.943237,0.000000,41.660516,44.966037,6999.425514,-1.000000,0.737699,-0.690479,0.872202
9.300000,0.308296,-0.255292,-0.047306,16.281948,5.104248,0.921586,481.728119,2.033295,0.000000,41.660529,44.966047,6999.405781,-1.000000,0.487972,-0.400311,-0.092538
9.400000,0.350858,-0.285450,-0.062207,15.612315,6.321690,0.269325,481.864197,2.169373,0.000000,41.660542,44.966056,6999.405781,0.387740,0.379459,-0.720594,0.300838
9.500000,0.385902,-0.315779,-0.061047,15.726996,6.539234,-0.287581,482.017120,2.322296,0.000000,41.660556,44.966065,6999.385053,-1.000000,-0.817665,-1.000000,-1.000000
9.600000,0.407988,-0.340969,-0.051972,15.893923,6.758178,-0.655820,482.125946,2.431122,0.000000,41.660569,44.966075,6999.385053,0.026409,0.563771,0.155273,-1.000000
9.700000,0.414151,-0.365161,-0.031151,16.124078,7.068504,-0.825899,482.219177,2.524353,0.000000,41.660583,44.966085,6999.363082,-1.000000,0.151429,-1.000000,1.000000
9.800000,0.413340,-0.386396,-0.006672,16.396105,7.378258,-0.965860,482.292908,2.598053,0.000000,41.660597,44.966095,6999.363082,-0.139289,-1.000000,-0.978752,-0.918218
9.900000,0.410875,-0.403364,0.016678,16.667404,7.389206,-1.032454,482.341583,2.646759,0.000000,41.660611,44.966105,6999.341609,0.695729,-0.916095,1.000000,0.413887
10.000000,0.403783,-0.416938,0.042160,16.963869,6.771210,-0.997145,482.323303,2.628479,0.000000,41.660625,44.966115,6999.341609,0.022308,0.647470,-0.935078,0.671529
10.100000,0.399610,-0.425728,0.063144,17.309091,6.236253,-0.975573,482.213287,2.518463,0.000000,41.660639,44.966126,6999.319347,-0.184024,-1.000000,0.519365,-0.741883
10.200000,0.396420,-0.430661,0.078592,17.246897,6.346888,-0.898981,482.062073,2.367249,0.000000,41.660654,44.966137,6999.319347,-1.000000,1.000000,0.997608,-0.974490
10.300000,0.412636,-0.451648,0.048219,15.449760,7.645821,-0.922738,481.999084,2.304260,0.000000,41.660668,44.966147,6999.294930,0.330967,0.083976,-0.076897,1.000000
10.400000,0.443880,-0.488789,0.002584,13.865413,8.529361,-1.030440,482.080719,2.385895,0.000000,41.660680,44.966157,6999.294930,-0.448779,-0.280102,-1.000000,0.555857
10.500000,0.476572,-0.517801,-0.034397,13.476543,8.520595,-1.209531,482.162903,2.468048,0.000000,41.660693,44.966166,6999.269477,1.000000,-0.699636,-0.577392,-0.463599
10.600000,0.510522,-0.541124,-0.068255,12.738393,8.243876,-1.323624,482.220612,2.525787,0.000000,41.660705,44.966176,6999.269477,0.867505,-1.000000,-0.280515,0.462590
10.700000,0.537857,-0.557444,-0.094183,11.856955,7.886821,-1.394081,482.252350,2.557526,0.000000,41.660716,44.966185,6999.243941,-1.000000,-0.487574,1.000000,0.469848
10.800000,0.561885,-0.569108,-0.114930,11.292050,7.891439,-1.516568,482.285522,2.590698,0.000000,41.660727,44.966193,6999.243941,-0.118125,-0.898722,-1.000000,0.504846
10.900000,0.585481,-0.582968,-0.133798,10.849431,7.990740,-1.661611,482.332703,2.637878,0.000000,41.660738,44.966201,6999.218611,0.164859,-0.365635,0.426092,0.968059
11.000000,0.616767,-0.592130,-0.159127,10.571169,7.644448,-1.862503,482.361633,2.666809,0.000000,41.660748,44.966209,6999.218611,0.106531,-0.794040,-0.955643,-0.391237
11.100000,0.645728,-0.598221,-0.183189,10.211479,7.560514,-1.985692,482.363922,2.669128,0.000000,41.660758,44.966217,6999.195397,-1.000000,-0.700764,-0.833023,1.000000
11.200000,0.665651,-0.607797,-0.200420,10.142782,8.070986,-2.102852,482.385345,2.690521,0.000000,41.660768,44.966224,6999.195397,-0.939779,-1.000000,-1.000000,0.417427
11.300000,0.685195,-0.619328,-0.216424,10.495500,8.922986,-2.341130,482.442169,2.747345,0.000000,41.660778,44.966232,6999.174420,-0.611069,0.164225,-0.254025,0.024856
11.400000,0.701345,-0.629245,-0.226868,10.985562,9.524095,-2.586570,482.497742,2.802887,0.000000,41.660789,44.966241,6999.174420,-1.000000,-0.112695,-0.203698,-0.695251
11.500000,0.705969,-0.640444,-0.223093,11.542326,10.137904,-2.749636,482.554260,2.859436,0.000000,41.660801,44.966250,6999.154729,-0.648168,1.000000,0.413944,-0.827484
11.600000,0.691048,-0.653244,-0.198737,12.138893,10.392721,-2.814553,482.601807,2.906982,0.000000,41.660813,44.966259,6999.154729,0.617200,-1.000000,0.845883,1.000000
11.700000,0.669833,-0.663414,-0.168365,12.646657,10.032997,-2.831442,482.596039,2.901215,0.000000,41.660826,44.966269,6999.137152,-1.000000,1.000000,0.455953,-1.000000
11.800000,0.652848,-0.670292,-0.140506,12.511183,9.682720,-2.705351,482.544067,2.849243,0.000000,41.660838,44.966279,6999.137152,0.816740,-0.068595,-0.682818,1.000000
11.900000,0.656370,-0.672764,-0.129947,11.604657,9.349643,-2.610057,482.501801,2.806976,0.000000,41.660850,44.966289,6999.118871,-0.343803,-0.910972,1.000000,-1.000000
12.000000,0.680802,-0.672319,-0.138011,10.531061,9.007731,-2.615042,482.495972,2.801178,0.000000,41.660861,44.966298,6999.118871,-1.000000,0.583366,-0.648120,-0.437446
12.100000,0.713222,-0.671428,-0.150609,10.305046,8.983633,-2.782480,482.521332,2.826477,0.000000,41.660872,44.966306,6999.097314,0.197544,-1.000000,0.179358,-0.196665
12.200000,0.739387,-0.669004,-0.154729,10.636249,8.867052,-3.074803,482.522797,2.827972,0.000000,41.660883,44.966315,6999.097314,-1.000000,-0.481228,-0.352851,-0.948256
12.300000,0.757583,-0.663329,-0.150242,10.652978,8.846156,-3.240632,482.513214,2.818390,0.000000,41.660893,44.966324,6999.074182,0.167978,1.000000,0.985236,-0.648265
12.400000,0.770424,-0.651162,-0.137753,10.819026,8.566290,-3.403844,482.510864,2.816040,0.000000,41.660904,44.966333,6999.074182,-0.341792,0.868603,0.732545,-0.883963
12.500000,0.775034,-0.634247,-0.119058,10.993416,7.949913,-3.475295,482.478699,2.783875,0.000000,41.660914,44.966343,6999.049226,1.000000,0.035142,0.306677,-1.000000
12.600000,0.773618,-0.612189,-0.099136,11.041815,7.254343,-3.442656,482.416107,2.721283,0.000000,41.660924,44.966352,6999.049226,-1.000000,-1.000000,1.000000,1.000000
12.700000,0.779706,-0.579521,-0.085582,11.243274,6.758066,-3.556417,482.340332,2.645508,0.000000,41.660934,44.966361,6999.021866,0.348063,0.986337,-0.093038,1.000000
12.800000,0.797183,-0.544779,-0.079527,11.346154,6.296717,-3.792818,482.261932,2.567078,0.000000,41.660944,44.966370,6999.021866,0.248123,1.000000,-1.000000,0.152597
12.900000,0.816349,-0.516519,-0.073889,10.836233,5.759615,-3.892980,482.196838,2.502014,0.000000,41.660954,44.966379,6998.994050,0.748941,1.000000,0.276774,1.000000
13.000000,0.832453,-0.496525,-0.062253,10.130603,5.390271,-3.907875,482.146942,2.452118,0.000000,41.660963,44.966388,6998.994050,-0.266409,0.077087,-0.005242,0.788726
13.100000,0.843736,-0.487335,-0.045560,9.624592,5.361324,-3.891615,482.133118,2.438324,0.000000,41.660971,44.966396,6998.965280,-1.000000,0.233972,-0.213613,-0.118018
13.200000,0.842606,-0.485609,-0.023315,9.770670,5.625139,-3.903540,482.156250,2.461426,0.000000,41.660980,44.966404,6998.965280,-0.061943,0.167257,-1.000000,-0.431791
13.300000,0.831798,-0.486206,-0.001155,10.327024,5.783056,-3.818816,482.187836,2.493011,0.000000,41.660988,44.966413,6998.934645,-1.000000,0.123641,-0.388026,-1.000000
13.400000,0.804888,-0.487451,0.024213,10.937316,6.072626,-3.552731,482.216125,2.521332,0.000000,41.660997,44.966422,6998.934645,-0.350091,0.006327,1.000000,0.688680
13.500000,0.776036,-0.489050,0.044364,11.518971,6.494924,-3.276849,482.252991,2.558167,0.000000,41.661006,44.966432,6998.905253,-1.000000,-0.523048,0.625046,-0.018934
13.600000,0.749464,-0.491205,0.057299,12.103531,6.759239,-2.944484,482.299469,2.604645,0.000000,41.661016,44.966443,6998.905253,0.135837,-0.342966,0.030996,-0.657913
13.700000,0.721798,-0.492489,0.065549,12.642350,6.510661,-2.517169,482.318695,2.623840,0.000000,41.661026,44.966454,6998.878349,1.000000,-0.538498,1.000000,1.000000
13.800000,0.699515,-0.491848,0.065356,13.120910,5.882963,-2.128732,482.269989,2.575165,0.000000,41.661035,44.966466,6998.878349,-0.342177,0.655640,-0.787221,0.786388
13.900000,0.691198,-0.490288,0.046468,13.192177,5.669612,-1.877350,482.151001,2.456177,0.000000,41.661045,44.966477,6998.852978,-0.736900,-0.112891,-1.000000,0.990464
14.000000,0.713943,-0.490589,-0.006732,12.050905,6.843186,-1.847843,482.108765,2.413940,0.000000,41.661055,44.966488,6998.852978,-0.633448,0.546551,-0.046067,-1.000000
14.100000,0.734309,-0.496026,-0.034311,12.006350,7.698327,-1.888171,482.177917,2.483093,0.000000,41.661064,44.966499,6998.828768,-1.000000,-0.859702,-0.349081,1.000000
14.200000,0.753935,-0.505905,-0.057684,12.468201,8.138515,-2.003876,482.283691,2.588867,0.000000,41.661074,44.966511,6998.828768,-0.037660,0.461532,0.619083,0.057186
14.300000,0.777896,-0.515682,-0.081267,12.882727,8.268540,-2.198716,482.366272,2.671448,0.000000,41.661084,44.966523,6998.803398,-1.000000,-0.023667,0.953307,-0.089060
14.400000,0.800073,-0.524099,-0.099284,13.267900,8.433841,-2.397930,482.417236,2.722443,0.000000,41.661094,44.966535,6998.803398,-0.158386,-0.068128,0.659373,-0.249123
14.500000,0.819723,-0.531932,-0.109914,13.683584,8.645819,-2.626561,482.449371,2.754547,0.000000,41.661105,44.966548,6998.777530,-1.000000,-1.000000,1.000000,-0.324270
14.600000,0.835001,-0.538098,-0.111013,14.111056,8.665199,-2.889746,482.458069,2.763245,0.000000,41.661116,44.966561,6998.777530,0.428760,-0.592515,-0.954372,1.000000
14.700000,0.854865,-0.541093,-0.111913,14.498201,8.196277,-3.289584,482.417511,2.722687,0.000000,41.661127,44.966575,6998.752408,0.182406,0.238117,1.000000,1.000000
14.800000,0.890233,-0.540138,-0.122029,14.738281,7.586753,-3.858157,482.289642,2.594788,0.000000,41.661138,44.966589,6998.752408,-0.951964,-0.899630,-0.986684,-0.840175
14.900000,0.920390,-0.541133,-0.121260,12.890483,8.710450,-3.863790,482.222076,2.527252,0.000000,41.661149,44.966602,6998.725918,-0.808525,-0.530414,-0.600392,-0.216803
15.000000,0.928929,-0.552583,-0.104619,12.835513,9.322999,-4.029371,482.293732,2.598907,0.000000,41.661159,44.966615,6998.725918,0.445450,1.000000,-0.029249,0.050045
15.100000,0.930534,-0.566440,-0.086013,13.165961,9.035325,-4.182331,482.347717,2.652893,0.000000,41.661170,44.966629,6998.697273,0.601021,0.345117,0.262221,-1.000000
15.200000,0.926559,-0.574468,-0.068492,13.188822,8.328203,-4.090610,482.338165,2.643341,0.000000,41.661180,44.966642,6998.697273,1.000000,-0.398137,1.000000,-0.176906
15.300000,0.921632,-0.576018,-0.056420,12.522415,7.804412,-3.814160,482.285217,2.590393,0.000000,41.661190,44.966655,6998.669125,-1.000000,0.148200,-0.352178,-0.064089
15.400000,0.925516,-0.571894,-0.055634,12.041619,7.481499,-3.639065,482.248962,2.554169,0.000000,41.661199,44.966668,6998.669125,1.000000,0.352491,0.316506,0.144054
15.500000,0.920397,-0.571692,-0.055702,11.699738,7.069345,-3.336182,482.196777,2.501953,0.000000,41.661209,44.966680,6998.642345,0.431893,-0.761902,-0.754822,-0.645765
15.600000,0.896830,-0.586244,-0.058035,9.964619,7.138591,-2.481441,482.174347,2.479523,0.000000,41.661217,44.966691,6998.642345,0.139452,0.702462,-1.000000,1.000000
15.700000,0.864103,-0.619478,-0.070155,8.440351,7.302843,-1.660817,482.256714,2.561859,0.000000,41.661224,44.966701,6998.616063,0.451289,0.310596,-0.065540,1.000000
15.800000,0.841521,-0.650531,-0.085550,8.195788,7.177634,-1.261669,482.333435,2.638641,0.000000,41.661231,44.966711,6998.616063,-1.000000,0.150901,1.000000,-0.990562
15.900000,0.823049,-0.672928,-0.093712,8.109092,7.517146,-0.941517,482.400757,2.705902,0.000000,41.661237,44.966720,6998.592723,0.037281,0.258666,0.170449,1.000000
16.000000,0.800702,-0.693097,-0.092794,8.281956,7.704247,-0.686835,482.469238,2.774414,0.000000,41.661244,44.966730,6998.592723,0.514433,0.632068,-1.000000,0.825306
16.100000,0.782669,-0.709626,-0.091905,8.246494,7.284396,-0.496153,482.503204,2.808380,0.000000,41.661251,44.966739,6998.571664,0.430731,0.233726,-0.566820,0.528080
16.200000,0.771778,-0.723187,-0.094922,7.661530,6.945764,-0.322877,482.505646,2.810822,0.000000,41.661258,44.966749,6998.571664,-0.660331,1.000000,0.565441,1.000000
16.300000,0.763500,-0.738427,-0.099774,6.828488,6.934507,-0.142971,482.539612,2.844788,0.000000,41.661264,44.966757,6998.552139,0.379267,0.629381,-1.000000,-0.593858
16.400000,0.749262,-0.754268,-0.096820,6.687564,6.740613,0.022384,482.584900,2.890076,0.000000,41.661270,44.966766,6998.552139,1.000000,-1.000000,-1.000000,-0.813843
16.500000,0.726676,-0.771100,-0.083636,6.096875,6.261844,0.250179,482.614014,2.919220,0.000000,41.661275,44.966774,6998.534645,0.917618,-0.264281,-1.000000,0.348526
16.600000,0.701403,-0.780817,-0.014726,6.136599,5.603786,1.019461,482.628021,2.933228,0.000000,41.661280,44.966781,6998.534645,-0.019353,-0.453698,-0.425853,-1.000000
16.700000,0.664095,-0.806534,0.087544,4.768191,5.364724,1.005136,482.603668,2.908813,0.000000,41.661284,44.966789,6998.517648,0.570938,-1.000000,-1.000000,1.000000
16.800000,0.604039,-0.843157,0.162304,3.479327,5.095079,1.032557,482.652832,2.958008,0.000000,41.661287,44.966796,6998.517648,1.000000,0.635950,-1.000000,0.064488
16.900000,0.528818,-0.881922,0.237263,2.864126,4.695087,1.244358,482.710571,3.015747,0.000000,41.661289,44.966802,6998.500071,-0.870014,0.452485,-0.380241,-0.658493
17.000000,0.426052,-0.916996,0.323458,2.391416,4.466581,1.485793,482.756927,3.062103,0.000000,41.661291,44.966808,6998.500071,0.818270,-0.411785,-1.000000,-0.738528
17.100000,0.316196,-0.939315,0.417629,1.836223,4.181299,1.864071,482.782806,3.088013,0.000000,41.661293,44.966813,7000.017284,1.000000,0.834820,-1.000000,1.000000
17.200000,0.212808,-0.961141,0.578238,1.435872,3.634014,2.064760,482.800201,3.105347,0.000000,41.661294,44.966819,7000.017284,0.906039,-1.000000,1.000000,-0.087642
17.300000,0.062737,-0.992829,0.680640,-0.357872,2.982878,1.752121,482.863403,3.168579,0.000000,41.661295,44.966823,6312.000000,-0.641292,-0.080769,-1.000000,0.933531
17.400000,6.213543,-1.004592,0.823223,-0.275131,2.693985,1.776002,482.922333,3.227478,0.000000,41.661295,44.966827,6312.000000,0.920850,0.620136,-1.000000,0.222987
17.500000,6.073293,-1.006343,0.916436,-0.708783,2.478544,1.826054,482.990845,3.296051,0.000000,41.661295,44.966830,6868.678628,-1.000000,0.343480,0.130823,1.000000
17.600000,5.963646,-0.995473,1.031119,-0.449779,2.215481,2.163723,483.009003,3.314178,0.000000,41.661295,44.966834,6868.678628,-1.000000,1.000000,-1.000000,1.000000
17.700000,5.846151,-0.969098,1.157673,-0.383631,1.937452,1.953791,482.990723,3.295898,0.000000,41.661294,44.966838,6868.656408,-0.331168,-0.878131,-1.000000,0.330525
17.800000,5.736399,-0.934685,1.265908,-0.377861,1.782067,2.050501,482.956909,3.262115,0.000000,41.661294,44.966841,6868.656408,0.656200,0.784668,-0.473935,0.448902
17.900000,5.641758,-0.889896,1.364157,-0.410835,1.707095,2.067947,482.886566,3.191742,0.000000,41.661294,44.966844,6868.633317,1.000000,-0.067056,-0.833417,-1.000000
18.000000,5.568111,-0.836866,1.429828,-0.432509,1.523385,2.523865,482.798523,3.103699,0.000000,41.661293,44.966847,6868.633317,0.866947,-0.411733,1.000000,-0.394172
18.100000,5.505781,-0.766662,1.507193,-0.512457,1.440252,2.750844,482.658173,2.963318,0.000000,41.661293,44.966850,6868.607657,-0.879224,0.132354,-0.553977,0.128130
18.200000,5.454899,-0.686969,1.565625,-0.502545,1.367228,3.033368,482.476257,2.781433,0.000000,41.661292,44.966853,6868.607657,-1.000000,1.000000,1.000000,-0.768903
18.300000,5.416211,-0.603006,1.612421,-0.654868,1.339721,3.220011,482.267548,2.572693,0.000000,41.661291,44.966856,6868.581208,0.069617,-1.000000,0.856412,0.116219
18.400000,5.383559,-0.503994,1.657594,-0.963323,1.359605,3.264100,482.019958,2.325134,0.000000,41.661290,44.966859,6868.581208,0.252504,0.602794,0.305362,-0.467520
18.500000,5.357791,-0.392839,1.698550,-1.163304,1.383286,3.416741,481.753540,2.058716,0.000000,41.661289,44.966862,6312.000000,-0.746111,-1.000000,1.000000,-0.425880
18.600000,5.339549,-0.282457,1.735180,-1.212369,1.428521,3.590899,481.457916,1.763092,0.000000,41.661288,44.966865,6312.000000,-0.636722,-1.000000,0.221982,0.714374
18.700000,5.325065,-0.162971,1.772195,-1.193977,1.469974,3.743488,481.098083,1.403259,0.000000,41.661287,44.966867,6312.000000,-0.139935,-1.000000,-0.377100,-0.827614
18.800000,5.313299,-0.023895,1.790631,-1.925113,0.913477,2.995175,480.773773,1.078949,0.000000,41.661287,44.966869,6312.000000,-1.000000,-0.011285,0.672151,-0.187345
18.900000,5.310454,0.106676,1.807202,-1.455701,0.904594,2.010230,480.494965,0.800171,0.000000,41.661286,44.966871,6312.000000,-1.000000,0.856676,-0.265815,-0.214354
19.000000,5.331822,0.216838,1.929606,-0.839003,1.108942,0.127697,480.365448,0.670593,0.000000,41.661286,44.966872,6312.000000,-1.000000,0.744643,0.212766,-0.337744
19.100000,5.358666,0.250974,2.021660,0.237886,0.465517,-1.142983,480.401520,0.706665,0.000000,41.661286,44.966873,6312.000000,1.000000,0.785585,0.180665,0.766847
19.200000,5.386653,0.246049,2.066863,0.267296,0.544183,-0.725253,480.461884,0.767059,0.000000,41.661287,44.966874,6312.000000,-1.000000,-0.189052,1.000000,1.000000
19.300000,5.407454,0.235353,2.110196,0.204631,0.261879,-0.467536,480.497070,0.802277,0.000000,41.661287,44.966874,6312.000000,0.922598,-0.593304,0.865270,-0.183455
19.400000,5.413598,0.227187,2.142081,0.106847,0.095599,-0.269807,480.522552,0.827728,0.000000,41.661288,44.966875,6312.000000,-0.451334,-0.095188,1.000000,-0.209250
19.500000,5.415915,0.221928,2.160213,0.076604,0.039323,-0.175042,480.538330,0.843506,0.000000,41.661288,44.966875,6312.000000,-1.000000,-1.000000,1.000000,-0.008016
19.600000,5.416873,0.217896,2.170613,0.053305,-0.004062,-0.100767,480.549988,0.855133,0.000000,41.661288,44.966875,6312.000000,0.461394,-0.785002,-0.172126,1.000000
19.700000,5.416649,0.215094,2.173761,0.035623,-0.040094,-0.041852,480.557953,0.863098,0.000000,41.661288,44.966875,6312.000000,-0.044763,-1.000000,0.948485,0.726002
19.800000,5.415500,0.213319,2.170914,0.023268,-0.072821,0.004486,480.562958,0.868103,0.000000,41.661288,44.966875,6312.000000,1.000000,0.150071,0.484748,-0.032948
19.900000,5.413345,0.212129,2.162240,0.013078,-0.105550,0.047286,480.566132,0.871307,0.000000,41.661288,44.966875,6312.000000,-1.000000,0.182176,-0.146343,-0.568932
20.000000,5.410294,0.211456,2.148297,0.005212,-0.135764,0.084361,480.567444,0.872650,0.000000,41.661288,44.966875,6312.000000,0.363310,0.183880,0.941191,-1.000000
20.100000,5.406667,0.211150,2.130843,-0.000397,-0.162263,0.114394,480.567139,0.872284,0.000000,41.661288,44.966874,6312.000000,1.000000,-0.128564,0.068446,0.564362
20.200000,5.402075,0.211040,2.108147,-0.005160,-0.188319,0.142656,480.565247,0.870422,0.000000,41.661288,44.966874,6312.000000,-0.666835,-1.000000,0.129962,-0.717028
20.300000,5.396776,0.211035,2.081547,-0.008972,-0.212688,0.168088,480.561646,0.866821,0.000000,41.661287,44.966874,6312.000000,-1.000000,-1.000000,0.185523,1.000000
20.400000,5.391181,0.211032,2.053203,-0.011837,-0.234711,0.189950,480.556641,0.861786,0.000000,41.661287,44.966874,6312.000000,-0.489382,1.000000,-0.360525,0.691256
20.500000,5.384618,0.210944,2.019759,-0.014441,-0.257457,0.211849,480.549438,0.854614,0.000000,41.661287,44.966873,6312.000000,-1.000000,-1.000000,-0.526923,0.598903
20.600000,5.377443,0.210680,1.983012,-0.016699,-0.279852,0.232858,480.540131,0.845306,0.000000,41.661287,44.966873,6312.000000,-0.882564,-0.799221,0.532707,0.851086
20.700000,5.370197,0.210348,1.943001,-0.020859,-0.329470,0.278005,480.529144,0.834351,0.000000,41.661287,44.966873,6312.000000,1.000000,0.619235,1.000000,-0.660702
20.800000,5.359079,0.200890,1.888320,0.223548,-0.413696,-0.096305,480.535248,0.840424,0.000000,41.661286,44.966872,6312.000000,0.733658,0.202936,0.091420,-0.730976
20.900000,5.348191,0.181317,1.877664,0.390852,-0.129508,-0.265288,480.573273,0.878479,0.000000,41.661286,44.966872,6312.000000,-0.016213,-0.125550,1.000000,-1.000000
21.000000,5.338527,0.168757,1.885685,0.217994,0.112120,0.008013,480.592163,0.897369,0.000000,41.661287,44.966872,6312.000000,0.309573,0.550622,0.216673,1.000000
21.100000,5.335100,0.164103,1.909618,-0.010368,0.314070,-0.053532,480.584930,0.890106,0.000000,41.661287,44.966872,6312.000000,0.704296,1.000000,-0.450458,0.758570
21.200000,5.343076,0.166268,1.948220,-0.011727,0.291307,-0.256863,480.590179,0.895355,0.000000,41.661287,44.966872,6312.000000,-1.000000,-0.172822,-0.099633,0.060389
21.300000,5.350275,0.168125,1.986226,0.012246,0.209631,-0.239739,480.604706,0.909882,0.000000,41.661287,44.966873,6312.000000,0.145833,-0.514245,0.058296,-0.724209
21.400000,5.354450,0.169231,2.011706,0.006485,0.105559,-0.133313,480.615112,0.920319,0.000000,41.661287,44.966873,6312.000000,1.000000,-0.576087,0.568600,0.082630
21.500000,5.356422,0.169900,2.024530,0.002210,0.027087,-0.054595,480.620728,0.925903,0.000000,41.661287,44.966873,6312.000000,0.246765,-0.851333,-1.000000,0.478767
21.600000,5.356641,0.170344,2.026963,-0.001712,-0.039504,0.009103,480.622864,0.928070,0.000000,41.661287,44.966873,6312.000000,0.339315,-0.419384,-1.000000,-1.000000
21.700000,5.355255,0.170716,2.019861,-0.005941,-0.109219,0.073477,480.622284,0.927460,0.000000,41.661287,44.966873,6312.000000,1.000000,-0.926468,0.091521,1.000000
21.800000,5.352285,0.170983,2.003330,-0.009863,-0.174044,0.132104,480.618835,0.924011,0.000000,41.661287,44.966873,6312.000000,1.000000,0.065262,-0.870672,0.971343
21.900000,5.348195,0.171092,1.980101,-0.013039,-0.227730,0.179833,480.612885,0.918060,0.000000,41.661287,44.966872,6312.000000,0.326269,0.703213,1.000000,0.459885
22.000000,5.342681,0.170986,1.948461,-0.015839,-0.276123,0.222524,480.603607,0.908783,0.000000,41.661287,44.966872,6312.000000,0.085718,0.881245,-1.000000,0.808978
22.100000,5.336176,0.170571,1.910811,-0.018104,-0.316574,0.258006,480.591125,0.896301,0.000000,41.661287,44.966872,6312.000000,1.000000,0.899397,-1.000000,-1.000000
22.200000,5.329795,0.168983,1.878155,0.037155,-0.171805,0.077957,480.581207,0.886353,0.000000,41.661286,44.966872,6312.000000,0.695003,0.138751,0.034656,-1.000000
22.300000,5.328126,0.165808,1.880347,0.021980,0.093930,-0.086975,480.585907,0.891083,0.000000,41.661287,44.966872,6312.000000,-0.492069,-1.000000,-1.000000,0.100666
22.400000,5.330117,0.166938,1.890904,-0.025819,0.064227,-0.019138,480.589050,0.894226,0.000000,41.661287,44.966872,6312.000000,-1.000000,0.527408,-0.207621,-1.000000
22.500000,5.331096,0.169302,1.894692,-0.023739,0.016604,0.002830,480.587494,0.892700,0.000000,41.661287,44.966872,6312.000000,1.000000,0.874296,0.117242,-0.453842
22.600000,5.331202,0.169818,1.894321,0.002261,-0.021332,0.002463,480.587677,0.892853,0.000000,41.661287,44.966872,6312.000000,-0.809897,0.651179,0.502076,-0.256592
22.700000,5.330821,0.169365,1.891864,0.005553,-0.024260,0.003696,480.588043,0.893219,0.000000,41.661287,44.966872,6312.000000,-0.345080,0.817821,1.000000,-0.357113
22.800000,5.330576,0.168898,1.890805,0.005500,-0.006832,-0.006726,480.588806,0.893982,0.000000,41.661287,44.966872,6312.000000,0.348146,0.909049,-1.000000,0.314456
22.900000,5.330580,0.168618,1.890918,0.002779,-0.000189,-0.006404,480.589630,0.894806,0.000000,41.661287,44.966872,6312.000000,1.000000,1.000000,1.000000,1.000000
23.000000,5.330597,0.168475,1.890936,0.001531,-0.002115,-0.002682,480.590118,0.895294,0.000000,41.661287,44.966872,6312.000000,-0.521216,0.087837,-0.700960,0.449860
23.100000,5.330565,0.168372,1.890710,0.001196,-0.003293,-0.000922,480.590363,0.895538,0.000000,41.661287,44.966872,6312.000000,0.249185,-1.000000,0.275586,-0.127467
23.200000,5.330516,0.168277,1.890440,0.001060,-0.002540,-0.000905,480.590546,0.895752,0.000000,41.661287,44.966872,6312.000000,0.351912,-0.949887,-1.000000,-0.491849
23.300000,5.330490,0.168205,1.890317,0.000776,-0.001074,-0.001187,480.590729,0.895905,0.000000,41.661287,44.966872,6312.000000,-1.000000,0.767401,0.350753,0.438763
23.400000,5.330482,0.168162,1.890271,0.000500,-0.000683,-0.000881,480.590851,0.895996,0.000000,41.661287,44.966872,6312.000000,0.435999,0.951146,0.427716,0.858076
23.500000,5.330475,0.168132,1.890222,0.000340,-0.000655,-0.000526,480.590942,0.896088,0.000000,41.661287,44.966872,6312.000000,-1.000000,-0.215795,0.038447,0.578093
23.600000,5.330467,0.168110,1.890171,0.000249,-0.000568,-0.000331,480.591034,0.896210,0.000000,41.661287,44.966872,6312.000000,0.187506,0.408072,-0.088107,-0.273183
23.700000,5.330460,0.168094,1.890134,0.000193,-0.000404,-0.000283,480.591064,0.896240,0.000000,41.661287,44.966872,6312.000000,-1.000000,-0.427124,0.077990,-0.037787
23.800000,5.330456,0.168082,1.890110,0.000135,-0.000254,-0.000235,480.591095,0.896271,0.000000,41.661287,44.966872,6312.000000,-0.850758,0.637023,-0.912559,0.612756
23.900000,5.330454,0.168074,1.890094,0.000091,-0.000186,-0.000167,480.591125,0.896332,0.000000,41.661287,44.966872,6312.000000,-0.664162,0.715933,-0.545680,0.856920
24.000000,5.330451,0.168068,1.890082,0.000065,-0.000148,-0.000120,480.591156,0.896332,0.000000,41.661287,44.966872,6312.000000,0.208197,-0.378665,0.570631,-0.280011
24.100000,5.330449,0.168064,1.890072,0.000046,-0.000112,-0.000087,480.591156,0.896301,0.000000,41.661287,44.966872,6312.000000,-0.287725,0.710075,1.000000,-0.344462
24.200000,5.330448,0.168060,1.890065,0.000032,-0.000077,-0.000067,480.591187,0.896332,0.000000,41.661287,44.966872,6312.000000,-0.784322,-0.181005,0.213257,-0.409789
24.300000,5.330447,0.168058,1.890060,0.000021,-0.000054,-0.000052,480.591187,0.896393,0.000000,41.661287,44.966872,6312.000000,-0.659964,-0.747325,0.033515,1.000000
24.400000,5.330446,0.168057,1.890057,0.000014,-0.000040,-0.000038,480.591187,0.896393,0.000000,41.661287,44.966872,6312.000000,1.000000,-0.703639,-0.379722,-0.121330
24.500000,5.330445,0.168055,1.890054,0.000008,-0.000031,-0.000026,480.591187,0.896362,0.000000,41.661287,44.966872,6312.000000,-0.767155,-0.969466,0.834015,-0.128224
24.600000,5.330445,0.168055,1.890051,0.000004,-0.000026,-0.000018,480.591187,0.896362,0.000000,41.661287,44.966872,6312.000000,-1.000000,0.514268,0.394531,0.429262
24.700000,5.330445,0.168054,1.890050,0.000002,-0.000019,-0.000015,480.591187,0.896362,0.000000,41.661287,44.966872,6312.000000,0.256872,-0.563309,1.000000,-0.096811
24.800000,5.330444,0.168054,1.890048,0.000000,-0.000010,-0.000014,480.591187,0.896393,0.000000,41.661287,44.966872,6312.000000,0.061435,0.431210,-0.332697,1.000000
24.900000,5.330444,0.168053,1.890048,-0.000002,-0.000008,-0.000010,480.591187,0.896362,0.000000,41.661287,44.966872,6312.000000,-0.840637,0.111123,0.304404,1.000000
25.000000,5.330443,0.168053,1.890047,-0.000003,-0.000006,-0.000008,480.591217,0.896423,0.000000,41.661287,44.966872,6312.000000,0.725543,-0.254678,0.528682,0.505422
25.100000,5.330443,0.168052,1.890046,-0.000006,-0.000004,-0.000004,480.591217,0.896393,0.000000,41.661287,44.966872,6312.000000,-0.899666,-0.751690,0.710854,-1.000000
25.200000,5.330443,0.168053,1.890046,-0.000009,0.000000,-0.000002,480.591217,0.896393,0.000000,41.661287,44.966872,6312.000000,0.151560,-0.627161,0.662007,1.000000
25.300000,5.330443,0.168053,1.890046,-0.000009,0.000002,-0.000004,480.591217,0.896423,0.000000,41.661287,44.966872,6312.000000,-0.463111,-1.000000,0.603697,-0.507205
25.400000,5.330443,0.168053,1.890046,-0.000007,0.000001,-0.000006,480.591217,0.896393,0.000000,41.661287,44.966872,6312.000000,-1.000000,-0.609632,0.687144,0.915574
25.500000,5.330442,0.168053,1.890046,-0.000006,-0.000003,-0.000003,480.591217,0.896362,0.000000,41.661287,44.966872,6312.000000,-1.000000,-0.151003,0.281978,-1.000000
25.600000,5.330442,0.168053,1.890046,-0.000007,-0.000004,-0.000001,480.591217,0.896393,0.000000,41.661287,44.966872,6312.000000,-1.000000,-0.121246,1.000000,-0.215000
25.700000,5.330442,0.168053,1.890046,-0.000008,-0.000003,-0.000002,480.591217,0.896393,0.000000,41.661287,44.966872,6312.000000,-1.000000,0.972184,-0.183847,0.956094
25.800000,5.330442,0.168053,1.890046,-0.000007,0.000001,-0.000004,480.591217,0.896393,0.000000,41.661287,44.966872,6312.000000,0.902573,1.000000,-0.136704,0.181571
25.900000,5.330441,0.168053,1.890046,-0.000010,0.000002,-0.000000,480.591217,0.896393,0.000000,41.661287,44.966872,6312.000000,-0.522101,1.000000,0.435914,-0.121918
26.000000,5.330441,0.168053,1.890046,-0.000011,0.000001,-0.000000,480.591217,0.896393,0.000000,41.661287,44.966872,6312.000000,-0.174830,1.000000,-1.000000,1.000000
26.100000,5.330441,0.168054,1.890046,-0.000010,0.000001,-0.000002,480.591217,0.896393,0.000000,41.661287,44.966872,6312.000000,-0.149515,-0.331207,-1.000000,0.884070
26.200000,5.330441,0.168054,1.890046,-0.000008,0.000000,-0.000002,480.591217,0.896362,0.000000,41.661287,44.966872,6312.000000,1.000000,0.749306,0.206699,-0.417922
26.300000,5.330440,0.168054,1.890046,-0.000009,-0.000003,-0.000001,480.591217,0.896393,0.000000,41.661287,44.966872,6312.000000,-0.886739,0.722339,-0.013659,1.000000
26.400000,5.330440,0.168054,1.890046,-0.000008,-0.000001,-0.000003,480.591217,0.896393,0.000000,41.661287,44.966872,6312.000000,-0.155928,1.000000,-1.000000,0.902999
26.500000,5.330440,0.168054,1.890046,-0.000008,-0.000002,-0.000001,480.591217,0.896393,0.000000,41.661287,44.966872,6312.000000,-0.751553,1.000000,-0.807926,-1.000000
26.600000,5.330439,0.168054,1.890046,-0.000008,-0.000001,-0.000002,480.591217,0.896393,0.000000,41.661287,44.966872,6312.000000,0.353626,-1.000000,1.000000,0.186085
26.700000,5.330439,0.168054,1.890046,-0.000008,-0.000001,-0.000001,480.591217,0.896393,0.000000,41.661287,44.966872,6312.000000,-0.136572,0.893643,0.293177,0.018254
26.800000,5.330439,0.168054,1.890046,-0.000008,-0.000002,-0.000002,480.591217,0.896362,0.000000,41.661287,44.966872,6312.000000,-1.000000,-1.000000,0.596875,1.000000
26.900000,5.330438,0.168054,1.890046,-0.000007,-0.000002,-0.000003,480.591217,0.896362,0.000000,41.661287,44.966872,6312.000000,0.923968,1.000000,-0.967427,1.000000
27.000000,5.330438,0.168054,1.890046,-0.000009,-0.000004,0.000001,480.591217,0.896393,0.000000,41.661287,44.966872,6312.000000,-0.024399,-0.355710,-1.000000,1.000000
27.100000,5.330438,0.168055,1.890045,-0.000007,-0.000002,-0.000004,480.591217,0.896362,0.000000,41.661287,44.966872,6312.000000,-1.000000,-0.715078,-1.000000,0.021808
27.200000,5.330438,0.168054,1.890046,-0.000007,-0.000003,-0.000002,480.591217,0.896362,0.000000,41.661287,44.966872,6312.000000,-0.083022,0.458666,-0.223755,0.721731
27.300000,5.330437,0.168054,1.890045,-0.000008,-0.000006,-0.000000,480.591217,0.896362,0.000000,41.661287,44.966872,6312.000000,-1.000000,-0.944763,1.000000,1.000000
27.400000,5.330437,0.168054,1.890045,-0.000006,-0.000000,-0.000005,480.591217,0.896393,0.000000,41.661287,44.966872,6312.000000,1.000000,-0.337192,0.287452,-0.045526
27.500000,5.330437,0.168054,1.890045,-0.000008,-0.000000,-0.000002,480.591217,0.896393,0.000000,41.661287,44.966872,6312.000000,-1.000000,-0.550262,-0.120630,-1.000000
27.600000,5.330437,0.168055,1.890045,-0.000009,-0.000002,0.000001,480.591217,0.896393,0.000000,41.661287,44.966872,6312.000000,-1.000000,-0.101071,1.000000,0.266513
27.700000,5.330436,0.168055,1.890044,-0.000008,-0.000002,-0.000002,480.591217,0.896362,0.000000,41.661287,44.966872,6312.000000,-1.000000,1.000000,-0.816413,1.000000
27.800000,5.330436,0.168054,1.890045,-0.000007,0.000004,-0.000006,480.591217,0.896393,0.000000,41.661287,44.966872,6312.000000,1.000000,0.969053,-0.244735,1.000000
27.900000,5.330436,0.168055,1.890045,-0.000011,0.000006,-0.000001,480.591217,0.896362,0.000000,41.661287,44.966872,6312.000000,-0.786855,-0.736431,-1.000000,-0.740429
28.000000,5.330436,0.168055,1.890046,-0.000011,0.000003,0.000000,480.591217,0.896362,0.000000,41.661287,44.966872,6312.000000,0.160958,-0.168773,-0.013691,0.963223
28.100000,5.330436,0.168055,1.890046,-0.000008,0.000001,-0.000002,480.591217,0.896393,0.000000,41.661287,44.966872,6312.000000,0.894603,-1.000000,0.565099,-0.088108
