t,yaw,pitch,roll,speed.x,speed.y,speed.z,altBar,altRad,egt,myloclat,myloclon,weightlb,collective,bank,pitch,rudder
0.100000,5.374869,0.031627,0.000826,-0.096560,0.517149,0.025549,481.239288,1.544464,0.000000,41.659724,44.965707,7004.964901,-0.590845,1.000000,-0.399145,0.881923
0.200000,5.374531,0.037090,0.002467,-0.064992,0.095850,0.025721,481.264832,1.570007,0.000000,41.659724,44.965707,7004.964901,0.750171,-0.325576,1.000000,0.894916
0.300000,5.376444,0.041082,0.004050,-0.064364,0.136417,-0.013798,481.275238,1.580414,0.000000,41.659724,44.965707,7000.556034,-0.440111,-1.000000,0.105938,-0.561072
0.400000,5.377643,0.044618,0.001354,-0.036899,0.128189,-0.042090,481.285400,1.590576,0.000000,41.659724,44.965707,7000.556034,-1.000000,-0.264483,-0.592299,1.000000
0.500000,5.379945,0.045538,-0.000196,0.013768,0.457498,-0.064060,481.317169,1.622345,0.000000,41.659724,44.965707,7000.556034,1.000000,-0.590412,-0.869935,-1.000000
0.600000,5.382117,0.044599,-0.000697,0.018217,0.148507,-0.059084,481.350098,1.655273,0.000000,41.659724,44.965707,7000.556034,-0.475339,-0.680343,0.430038,1.000000
0.700000,5.385191,0.042616,-0.001102,0.030893,-0.070576,-0.068471,481.346985,1.652161,0.000000,41.659724,44.965707,7000.541649,-0.998713,0.204614,0.737688,-0.496856
0.800000,5.392395,0.038488,0.000368,0.087753,0.260153,-0.098598,481.359100,1.664276,0.000000,41.659724,44.965707,7000.541649,0.275075,-0.056606,-0.310040,1.000000
0.900000,5.402900,0.032376,0.003010,0.139553,0.402774,-0.119661,481.391998,1.697174,0.000000,41.659724,44.965706,7000.527057,-1.000000,-0.790293,-1.000000,-0.798547
1.000000,5.416099,0.023702,0.005554,0.183794,0.334674,-0.115846,481.434692,1.739868,0.000000,41.659724,44.965706,7000.527057,1.000000,-1.000000,-0.426255,0.416299
1.100000,5.429798,0.013942,0.007729,0.209154,-0.073511,-0.108093,481.448792,1.753967,0.000000,41.659724,44.965706,7000.510640,-0.746825,-0.539789,-0.242866,0.086564
1.200000,5.448111,0.004156,0.008178,0.255072,-0.244850,-0.125942,481.428314,1.733490,0.000000,41.659724,44.965706,7000.510640,-1.000000,-0.552406,-1.000000,1.000000
1.300000,5.475216,-0.007470,0.008144,0.346394,0.112627,-0.149999,481.421692,1.726868,0.000000,41.659724,44.965705,7000.490659,0.128400,-1.000000,-1.000000,-0.821293
1.400000,5.505475,-0.020333,0.009328,0.427109,0.179097,-0.142558,481.443085,1.748260,0.000000,41.659725,44.965705,7000.490659,1.000000,-1.000000,1.000000,0.536903
1.500000,5.534988,-0.032312,0.010654,0.473859,-0.332933,-0.132414,481.436890,1.742065,0.000000,41.659725,44.965705,7000.468729,1.000000,-1.000000,-0.406407,0.304192
1.600000,5.568603,-0.040016,0.010001,0.352735,-0.603364,-0.308519,481.375275,1.680450,0.000000,41.659725,44.965704,7000.468729,-1.000000,0.229392,-0.748126,-0.041097
1.700000,5.597950,-0.031754,0.008975,0.038104,0.083821,-0.493203,481.346680,1.651855,0.000000,41.659725,44.965703,7000.444768,-0.483224,0.885077,0.257168,0.906238
1.800000,5.627305,-0.015908,-0.000998,0.116031,0.340528,-0.528956,481.371552,1.676727,0.000000,41.659725,44.965703,7000.444768,-0.135666,0.073068,-1.000000,1.000000
1.900000,5.669334,-0.000507,-0.009780,0.166614,0.132665,-0.581419,481.401062,1.706238,0.000000,41.659725,44.965702,7000.418320,0.468056,0.096084,-1.000000,0.859266
2.000000,5.720278,0.014232,-0.018044,0.165714,-0.336401,-0.621542,481.390228,1.695435,0.000000,41.659725,44.965702,7000.418320,0.176297,0.363735,0.213656,0.248274
2.100000,5.771654,0.027727,-0.024614,0.133784,-0.851123,-0.651994,481.332489,1.637665,0.000000,41.659725,44.965701,7000.391623,0.800138,-0.078947,-1.000000,0.912993
2.200000,5.825151,0.039728,-0.011910,-0.167898,-0.412208,-0.353059,481.250977,1.556152,0.000000,41.659724,44.965700,7000.391623,-0.965705,1.000000,-1.000000,0.182037
2.300000,5.857145,0.047508,-0.012768,-0.211032,0.599048,-0.050822,481.273743,1.578918,0.000000,41.659724,44.965700,7000.365631,-0.391982,-0.396334,0.938842,0.541497
2.400000,5.883613,0.048964,-0.011464,-0.144937,1.003817,-0.068060,481.350189,1.655365,0.000000,41.659724,44.965700,7000.365631,-0.893757,-0.578501,-1.000000,-0.737674
2.500000,5.907058,0.047083,-0.007923,-0.096324,1.195743,-0.043665,481.465332,1.770508,0.000000,41.659724,44.965700,7000.340343,0.063697,1.000000,1.000000,0.084378
2.600000,5.923003,0.042494,-0.002403,-0.073873,1.070873,-0.029584,481.585693,1.890869,0.000000,41.659724,44.965700,7000.340343,0.072813,1.000000,1.000000,0.969911
2.700000,5.938074,0.036634,0.001662,-0.057122,0.870385,-0.029318,481.673248,1.978424,0.000000,41.659724,44.965700,7000.317833,-1.000000,-1.000000,-0.790824,-0.794144
2.800000,5.954749,0.028208,0.005548,0.008256,1.190473,-0.039072,481.772430,2.077606,0.000000,41.659724,44.965700,7000.317833,-0.718454,-1.000000,1.000000,1.000000
2.900000,5.973024,0.016352,0.010124,0.111464,1.965402,-0.059673,481.934601,2.239777,0.000000,41.659724,44.965700,7000.297313,-0.953574,0.421143,-1.000000,-0.985392
3.000000,5.990503,0.002195,0.015632,0.193811,2.528021,-0.052595,482.153412,2.458588,0.000000,41.659724,44.965700,7000.297313,-0.525507,0.235705,1.000000,0.005636
3.100000,6.003472,-0.014740,0.023983,0.250689,2.681355,-0.003813,482.424164,2.729340,0.000000,41.659724,44.965700,7000.276585,-0.370080,0.033120,0.822824,-1.000000
3.200000,6.010785,-0.032281,0.033961,0.297054,2.508772,0.039840,482.691925,2.997101,0.000000,41.659724,44.965700,7000.276585,0.168986,0.559330,0.537112,0.795111
3.300000,6.019005,-0.048614,0.042120,0.338081,2.012666,0.073585,482.908356,3.213531,0.000000,41.659725,44.965700,7000.255112,-0.050112,-0.000946,-1.000000,-0.605989
3.400000,6.032745,-0.065448,0.048567,0.400897,1.375905,0.123774,483.079132,3.384308,0.000000,41.659725,44.965700,7000.255112,0.825039,-0.056426,-0.784617,0.804916
3.500000,6.052738,-0.081486,0.051954,0.489984,0.726025,0.164523,483.180054,3.485229,0.000000,41.659726,44.965700,7000.231690,-0.433982,-0.927919,1.000000,-0.337562
3.600000,6.078631,-0.095820,0.051258,0.608486,0.314640,0.202517,483.220001,3.525177,0.000000,41.659726,44.965701,7000.231690,-1.000000,0.060128,-0.599269,1.000000
3.700000,6.112149,-0.110743,0.047214,0.808815,0.617743,0.185797,483.251923,3.557098,0.000000,41.659727,44.965701,7000.205739,-0.530234,-0.718203,-0.458512,0.435761
3.800000,6.155389,-0.126846,0.037321,1.036122,0.968068,0.150188,483.328369,3.633575,0.000000,41.659728,44.965701,7000.205739,1.000000,1.000000,1.000000,-1.000000
3.900000,6.199307,-0.141399,0.025249,1.200890,0.608562,0.165974,483.391968,3.697144,0.000000,41.659729,44.965701,7000.179042,-0.534253,0.338409,0.002308,1.000000
4.000000,6.247050,-0.154485,0.011964,1.381830,0.170301,0.153050,483.407135,3.712311,0.000000,41.659730,44.965702,7000.179042,-0.721688,-0.824968,-0.284111,0.825442
4.100000,0.018642,-0.165438,-0.002392,1.617522,0.546358,0.039163,483.411072,3.716248,0.000000,41.659731,44.965702,7000.151059,-1.000000,-0.277528,-0.343784,0.661137
4.200000,0.077773,-0.175073,-0.016226,1.886916,1.305945,-0.104437,483.472351,3.777527,0.000000,41.659733,44.965702,7000.151059,-0.611763,-1.000000,-0.321161,-1.000000
4.300000,0.140561,-0.185267,-0.029161,2.133384,1.568669,-0.204161,483.587738,3.892914,0.000000,41.659735,44.965703,7000.121170,0.933761,0.748057,0.994156,0.216470
4.400000,0.194339,-0.193955,-0.036824,2.330685,1.089664,-0.305724,483.680908,3.986084,0.000000,41.659737,44.965703,7000.121170,0.931693,-1.000000,-1.000000,0.458132
4.500000,0.246459,-0.199615,-0.044698,2.500201,0.336682,-0.423325,483.701630,4.006805,0.000000,41.659739,44.965704,7000.091447,0.454260,0.347749,-1.000000,-0.637384
4.600000,0.296959,-0.202999,-0.051362,2.686897,-0.383804,-0.508417,483.640381,3.945526,0.000000,41.659742,44.965705,7000.091447,-1.000000,0.192835,-1.000000,-0.533550
4.700000,0.334268,-0.204481,-0.050037,2.893989,-0.504431,-0.553806,483.528442,3.833618,0.000000,41.659744,44.965705,7000.061890,0.289982,0.320798,0.458258,0.832259
4.800000,0.365077,-0.204203,-0.043125,3.092700,-0.432615,-0.670572,483.428772,3.733978,0.000000,41.659746,44.965706,7000.061890,1.000000,1.000000,-0.531034,1.000000
4.900000,0.403814,-0.201754,-0.039232,3.271332,-0.981373,-0.837570,483.292999,3.598175,0.000000,41.659749,44.965707,7000.031379,1.000000,-0.699676,1.000000,0.807762
5.000000,0.448100,-0.196868,-0.041677,3.421887,-1.724778,-1.018916,483.082764,3.387939,0.000000,41.659752,44.965708,7000.031379,-1.000000,-0.851598,-1.000000,-0.492361
5.100000,0.493614,-0.189335,-0.047444,3.525914,-1.885585,-1.219783,482.838409,3.143585,0.000000,41.659754,44.965710,7000.003189,-1.000000,0.318791,1.000000,0.986697
5.200000,0.542554,-0.176860,-0.047748,3.603209,-1.052218,-1.415322,482.613007,2.918182,0.000000,41.659757,44.965711,7000.003189,-0.215493,0.370753,-0.381762,1.000000
5.300000,0.591831,-0.160712,-0.040265,3.693391,-0.597571,-1.626235,482.471527,2.776703,0.000000,41.659760,44.965712,6999.977736,0.156875,-0.878862,-0.776914,-0.138397
5.400000,0.635373,-0.144364,-0.032819,3.758739,-0.881065,-1.789849,482.345001,2.650146,0.000000,41.659764,44.965713,6999.977736,1.000000,-1.000000,-1.000000,-0.173268
5.500000,0.671655,-0.126723,-0.024700,3.808215,-1.538223,-1.861707,482.165588,2.470764,0.000000,41.659767,44.965715,6999.954397,-0.265935,1.000000,-0.929634,-1.000000
5.600000,0.692723,-0.109083,-0.013896,3.852953,-1.980172,-1.828903,481.935577,2.240753,0.000000,41.659771,44.965717,6999.954397,1.000000,0.713588,0.523398,-0.104207
5.700000,0.696140,-0.092468,-0.000240,3.901627,-2.534464,-1.716690,481.684998,1.990173,0.000000,41.659774,44.965718,6999.934208,0.821359,1.000000,0.793871,-1.000000
5.800000,0.685474,-0.072989,0.004878,3.298687,-2.330699,-1.352911,481.375031,1.680206,0.000000,41.659777,44.965720,6999.934208,-0.523243,1.000000,-0.115314,0.300431
5.900000,0.671703,-0.040720,-0.018773,0.980129,0.749028,-0.632838,481.303772,1.608948,0.000000,41.659779,44.965721,6999.915636,-0.456040,0.347351,0.316707,0.413886
6.000000,0.657210,-0.013232,-0.014905,1.024961,0.721122,-0.585451,481.376648,1.681824,0.000000,41.659780,44.965722,6999.915636,0.155527,0.860840,-0.231887,-0.798890
6.100000,0.636461,0.011212,-0.011037,1.136807,0.721839,-0.523325,481.445679,1.750854,0.000000,41.659781,44.965722,6999.897562,-1.000000,0.421391,-0.219078,-0.570929
6.200000,0.603901,0.030448,-0.004888,1.260025,1.052206,-0.461107,481.531921,1.837097,0.000000,41.659782,44.965722,6999.897562,-0.756633,-0.592802,1.000000,0.105298
6.300000,0.571642,0.043443,0.001014,1.358113,1.398464,-0.447570,481.662354,1.967529,0.000000,41.659783,44.965723,6999.880939,0.699957,0.668511,1.000000,0.279479
6.400000,0.541889,0.053940,0.004406,1.377696,0.951029,-0.416035,481.793396,2.098572,0.000000,41.659784,44.965724,6999.880939,0.051535,-0.939829,0.139324,0.191948
6.500000,0.518037,0.062274,0.003393,1.373885,0.461982,-0.397859,481.868530,2.173706,0.000000,41.659785,44.965724,6999.864854,-1.000000,1.000000,0.114082,1.000000
6.600000,0.503340,0.067356,-0.000672,1.413978,0.718178,-0.412155,481.927673,2.232849,0.000000,41.659787,44.965725,6999.864854,-1.000000,-0.153864,1.000000,-0.056455
6.700000,0.494715,0.067944,-0.005415,1.507613,1.688399,-0.429835,482.059418,2.364594,0.000000,41.659788,44.965725,6999.847236,-0.964940,-0.148737,0.038746,-0.588096
6.800000,0.487025,0.063103,-0.007921,1.568724,2.341558,-0.420342,482.284546,2.589722,0.000000,41.659789,44.965726,6999.847236,0.564149,-1.000000,0.836060,1.000000
6.900000,0.483266,0.055527,-0.010811,1.559815,2.178791,-0.412872,482.512360,2.817535,0.000000,41.659790,44.965727,6999.827379,-1.000000,0.094068,-0.027542,-1.000000
7.000000,0.481736,0.045575,-0.015636,1.556173,2.008743,-0.386278,482.730103,3.035248,0.000000,41.659792,44.965727,6999.827379,0.129245,-0.144549,-0.531547,-0.184799
7.100000,0.477359,0.033700,-0.020036,1.552019,1.696568,-0.341590,482.929901,3.235077,0.000000,41.659793,44.965728,6999.805200,0.735718,-1.000000,0.340110,-0.299167
7.200000,0.472765,0.021935,-0.024796,1.529495,0.985451,-0.294719,483.063660,3.368805,0.000000,41.659794,44.965729,6999.805200,1.000000,-0.218084,-0.882457,-0.386244
7.300000,0.468366,0.009700,-0.030380,1.519361,0.141370,-0.276875,483.120483,3.425659,0.000000,41.659795,44.965729,6999.780244,0.133293,-1.000000,0.577182,1.000000
7.400000,0.471217,-0.002106,-0.037314,1.541525,-0.500296,-0.307713,483.097687,3.402863,0.000000,41.659797,44.965730,6999.780244,-1.000000,-1.000000,-0.726022,0.018919
7.500000,0.483740,-0.013097,-0.043329,1.600361,-0.674097,-0.375129,483.037170,3.342346,0.000000,41.659798,44.965731,6999.754252,1.000000,1.000000,-0.030379,0.478961
7.600000,0.508759,-0.024532,-0.048157,1.656393,-1.032235,-0.479505,482.947906,3.253082,0.000000,41.659799,44.965732,6999.754252,0.522449,1.000000,-0.690442,-0.009689
7.700000,0.551435,-0.034446,-0.056005,1.690941,-1.747082,-0.676130,482.799164,3.104340,0.000000,41.659801,44.965732,6999.727099,1.000000,-0.793771,0.754971,0.545783
7.800000,0.602427,-0.041879,-0.065645,1.723892,-2.314231,-0.814514,482.590118,2.895294,0.000000,41.659802,44.965733,6999.727099,-1.000000,-0.042991,0.153284,1.000000
7.900000,0.663482,-0.047756,-0.071207,1.765518,-2.210287,-0.976977,482.336945,2.642120,0.000000,41.659804,44.965734,6999.698578,-0.506716,0.805681,0.861885,0.585495
8.000000,0.732071,-0.051643,-0.061698,1.802697,-1.552829,-1.110536,482.137665,2.442841,0.000000,41.659805,44.965734,6999.698578,0.472073,0.094068,0.507807,-1.000000
8.100000,0.795681,-0.054502,-0.043712,1.820493,-1.234282,-1.165027,481.986084,2.291260,0.000000,41.659807,44.965735,6999.669891,-1.000000,-0.120995,1.000000,0.274824
8.200000,0.852406,-0.057462,-0.017412,1.865065,-0.555525,-1.216043,481.874786,2.179962,0.000000,41.659809,44.965736,6999.669891,-1.000000,-0.434266,1.000000,1.000000
8.300000,0.910805,-0.061105,0.007314,1.948422,0.640585,-1.372722,481.871216,2.176392,0.000000,41.659811,44.965737,6999.641038,-0.665004,1.000000,0.250761,0.286606
8.400000,0.968731,-0.066420,0.024222,2.038392,1.386085,-1.526452,481.960602,2.265778,0.000000,41.659813,44.965739,6999.641038,-1.000000,0.298472,0.784144,-0.861938
8.500000,1.028982,-0.074482,0.037045,2.138179,2.298891,-1.664531,482.135712,2.440887,0.000000,41.659815,44.965740,6999.611647,-1.000000,1.000000,0.051566,1.000000
8.600000,1.089107,-0.084726,0.045649,2.213169,2.968398,-1.810942,482.402832,2.708008,0.000000,41.659817,44.965742,6999.611647,1.000000,0.561759,-0.126814,0.050044
8.700000,1.148132,-0.094697,0.047359,2.217261,2.752055,-1.925991,482.670044,2.975250,0.000000,41.659819,44.965745,6999.584618,0.925555,-0.619795,1.000000,1.000000
8.800000,1.213601,-0.103605,0.040867,2.197451,2.115877,-2.026614,482.903015,3.208191,0.000000,41.659821,44.965747,6999.584618,-0.527190,0.496934,-0.161827,0.406914
8.900000,1.282679,-0.110126,0.025302,2.185827,1.565429,-2.136099,483.070190,3.375366,0.000000,41.659823,44.965749,6999.558750,-0.197996,-0.384034,-1.000000,1.000000
9.000000,1.351174,-0.114451,0.004161,2.210546,1.594250,-2.280642,483.195679,3.500854,0.000000,41.659825,44.965752,6999.558750,-1.000000,1.000000,0.962385,1.000000
9.100000,1.429030,-0.117741,-0.023256,2.209959,1.614909,-2.467340,483.334717,3.639893,0.000000,41.659828,44.965754,6999.531099,0.688386,1.000000,0.293115,0.992109
9.200000,1.510651,-0.118344,-0.054310,2.156992,1.247404,-2.664389,483.446747,3.751892,0.000000,41.659830,44.965757,6999.531099,0.174917,-0.686685,-0.686229,0.057392
9.300000,1.586689,-0.115802,-0.084136,2.079326,0.707310,-2.850134,483.495972,3.801147,0.000000,41.659832,44.965760,6999.502993,-1.000000,1.000000,-1.000000,-0.221716
9.400000,1.662226,-0.110609,-0.111862,2.023114,0.650377,-3.059812,483.505188,3.810364,0.000000,41.659834,44.965763,6999.502993,0.178639,0.819888,0.096412,0.885786
9.500000,1.734239,-0.103957,-0.134162,1.948984,0.554021,-3.298728,483.510559,3.815735,0.000000,41.659837,44.965767,6999.473933,0.517480,-1.000000,1.000000,-0.212512
9.600000,1.798418,-0.096107,-0.152213,1.847546,0.151434,-3.515984,483.477661,3.782837,0.000000,41.659839,44.965770,6999.473933,-0.286368,-1.000000,0.991048,0.107589
9.700000,1.861225,-0.086675,-0.165494,1.754345,0.124277,-3.757350,483.408569,3.713745,0.000000,41.659841,44.965774,6999.443712,-1.000000,-1.000000,-0.403193,0.691810
9.800000,1.922957,-0.077111,-0.167908,1.699723,0.942233,-4.021076,483.376099,3.681274,0.000000,41.659844,44.965778,6999.443712,-0.696379,1.000000,0.499589,0.202270
9.900000,1.979986,-0.069956,-0.162681,1.623366,1.342438,-4.276215,483.415710,3.720886,0.000000,41.659846,44.965782,6999.416228,0.884756,-1.000000,-0.128668,-1.000000
10.000000,2.029161,-0.064960,-0.153662,1.515887,0.920826,-4.455410,483.452759,3.757935,0.000000,41.659849,44.965786,6999.416228,-0.259148,-1.000000,0.115178,1.000000
10.100000,2.071558,-0.061020,-0.143849,1.425906,0.527661,-4.648392,483.441833,3.747009,0.000000,41.659851,44.965791,6999.391313,-1.000000,-1.000000,-0.102748,-0.714212
10.200000,2.109691,-0.058423,-0.132014,1.392976,0.926464,-4.808009,483.434387,3.739563,0.000000,41.659854,44.965796,6999.391313,-0.665854,-1.000000,-0.433221,-0.017202
10.300000,2.142306,-0.059244,-0.114977,1.396072,1.250243,-4.952070,483.484314,3.789490,0.000000,41.659857,44.965801,6999.368430,-0.000679,-0.709629,0.083479,-0.522360
10.400000,2.168176,-0.062621,-0.099255,1.388624,1.013486,-5.080449,483.539948,3.845123,0.000000,41.659859,44.965806,6999.368430,0.011558,-1.000000,-1.000000,0.639250
10.500000,2.192785,-0.066283,-0.088674,1.358646,0.507514,-5.209348,483.558350,3.863495,0.000000,41.659862,44.965812,6999.347371,0.365763,0.160437,0.416295,1.000000
10.600000,2.225612,-0.069464,-0.084150,1.289906,-0.005722,-5.349315,483.527496,3.832672,0.000000,41.659864,44.965817,6999.347371,0.026790,0.086206,-0.212881,-1.000000
10.700000,2.259984,-0.071926,-0.083371,1.205908,-0.595357,-5.417648,483.443420,3.748596,0.000000,41.659867,44.965823,6999.326477,1.000000,-0.006420,-0.641455,0.540732
10.800000,2.288075,-0.073802,-0.083087,1.150146,-1.102420,-5.477594,483.308289,3.613464,0.000000,41.659869,44.965828,6999.326477,-0.427437,1.000000,1.000000,0.370635
10.900000,2.321563,-0.074694,-0.083567,1.082034,-1.221637,-5.593557,483.127899,3.433105,0.000000,41.659872,44.965834,6999.303387,-0.455061,0.174572,-0.488962,1.000000
11.000000,2.362968,-0.074494,-0.079484,1.004677,-0.443170,-5.710374,482.982269,3.287445,0.000000,41.659874,44.965840,6999.303387,-1.000000,0.149579,0.040388,-0.012614
11.100000,2.406956,-0.074562,-0.070465,0.902417,0.003301,-5.829901,482.922485,3.227661,0.000000,41.659876,44.965846,6999.279094,1.000000,-0.807596,-0.245277,0.877120
11.200000,2.456187,-0.074673,-0.064773,0.728787,-0.339484,-5.938766,482.862213,3.167358,0.000000,41.659879,44.965852,6999.279094,-0.555660,-0.512113,-0.164688,0.258119
11.300000,2.508081,-0.073812,-0.064783,0.530785,-0.470143,-6.043095,482.769745,3.074921,0.000000,41.659881,44.965859,6999.254138,-0.396559,-1.000000,1.000000,1.000000
11.400000,2.558275,-0.072194,-0.065772,0.365158,0.141469,-6.123856,482.708832,3.014008,0.000000,41.659883,44.965865,6999.254138,-1.000000,0.135841,0.782034,-0.719741
11.500000,2.609257,-0.071232,-0.064677,0.236531,0.943371,-6.210125,482.722198,3.027374,0.000000,41.659885,44.965872,6999.229473,-0.536788,1.000000,-0.581066,0.803675
11.600000,2.656742,-0.072476,-0.064682,0.132977,1.494341,-6.285041,482.807037,3.112213,0.000000,41.659887,44.965879,6999.229473,-0.820654,-0.339251,-0.329409,-1.000000
11.700000,2.695369,-0.075550,-0.065759,0.036139,1.559940,-6.299280,482.918793,3.223969,0.000000,41.659888,44.965887,6999.206258,1.000000,-0.103827,-0.094902,-0.264699
11.800000,2.724949,-0.079604,-0.065985,-0.040253,1.004590,-6.290146,483.008850,3.314026,0.000000,41.659890,44.965894,6999.206258,-0.377679,1.000000,0.620166,0.042480
11.900000,2.751109,-0.083053,-0.067433,-0.099669,0.403271,-6.308995,483.037109,3.342316,0.000000,41.659891,44.965901,6999.183789,1.000000,0.372834,1.000000,-0.256043
12.000000,2.774700,-0.085301,-0.068440,-0.150868,-0.203243,-6.305619,483.007965,3.313110,0.000000,41.659893,44.965908,6999.183789,0.391802,-0.367676,0.333780,-0.516661
12.100000,2.794086,-0.086672,-0.066765,-0.175303,-0.971283,-6.274559,482.905731,3.210876,0.000000,41.659894,44.965916,6999.160284,1.000000,-0.564861,0.821478,-0.551954
12.200000,2.805261,-0.087055,-0.060471,-0.146745,-1.574616,-6.225296,482.732666,3.037811,0.000000,41.659896,44.965923,6999.160284,-1.000000,0.469669,-0.000775,-0.674479
12.300000,2.807398,-0.086493,-0.046953,-0.060466,-1.588813,-6.152167,482.544403,2.849579,0.000000,41.659897,44.965930,6999.135619,-0.674697,0.459946,-0.020475,-0.955620
12.400000,2.799247,-0.085076,-0.021476,0.124305,-0.773763,-6.079433,482.401855,2.707031,0.000000,41.659898,44.965937,6999.135619,-0.431148,-1.000000,0.355092,0.317049
12.500000,2.789367,-0.083696,0.005596,0.348695,0.104131,-6.094737,482.361145,2.666290,0.000000,41.659899,44.965944,6999.109502,-1.000000,-0.305127,1.000000,0.228671
12.600000,2.786209,-0.083617,0.025157,0.531850,0.482306,-6.125171,482.403046,2.708191,0.000000,41.659900,44.965951,6999.109502,1.000000,-0.418395,1.000000,0.585784
12.700000,2.789341,-0.084595,0.038021,0.644075,0.165585,-6.102354,482.453491,2.758667,0.000000,41.659900,44.965958,6999.083261,-1.000000,-0.271600,-0.562579,-0.861225
12.800000,2.793484,-0.085529,0.045183,0.754432,0.025480,-6.051911,482.476044,2.781189,0.000000,41.659901,44.965966,6999.083261,-0.248124,-0.939435,-0.751109,0.571606
12.900000,2.799296,-0.086892,0.047538,0.861556,0.038898,-6.031629,482.505341,2.810516,0.000000,41.659901,44.965973,6999.059466,0.959631,0.312198,0.575135,0.555774
13.000000,2.813238,-0.088565,0.042539,0.900674,-0.332883,-6.014922,482.507843,2.813019,0.000000,41.659901,44.965980,6999.059466,-1.000000,-0.586209,-1.000000,-0.542933
13.100000,2.830639,-0.089883,0.032607,0.931835,-0.386325,-5.979526,482.481384,2.786560,0.000000,41.659902,44.965987,6999.036375,0.159803,-0.083821,0.609375,-1.000000
13.200000,2.841196,-0.090866,0.024579,1.009795,-0.236048,-5.890310,482.464447,2.769623,0.000000,41.659902,44.965994,6999.036375,0.367128,1.000000,-1.000000,-0.612023
13.300000,2.841084,-0.091560,0.020029,1.155444,-0.246678,-5.815103,482.436768,2.741943,0.000000,41.659902,44.966001,6999.011502,-1.000000,-0.373825,-0.865169,1.000000
13.400000,2.843074,-0.093135,0.016381,1.327169,0.258034,-5.828129,482.429901,2.735107,0.000000,41.659901,44.966008,6999.011502,-1.000000,-0.208204,0.064272,-0.344254
13.500000,2.851013,-0.097259,0.013375,1.507890,1.077240,-5.848929,482.492645,2.797821,0.000000,41.659901,44.966015,6998.987002,-0.547945,-0.302483,-0.202697,-0.167143
13.600000,2.858428,-0.105214,0.011370,1.678301,1.518155,-5.822150,482.622955,2.928131,0.000000,41.659900,44.966023,6998.987002,0.485692,-0.131589,-0.012321,-1.000000
13.700000,2.859263,-0.114807,0.012177,1.834794,1.301288,-5.749959,482.753479,3.058655,0.000000,41.659899,44.966030,6998.963041,-1.000000,-1.000000,0.874628,-0.160679
13.800000,2.854289,-0.124713,0.015846,2.039703,1.284526,-5.680770,482.859558,3.164734,0.000000,41.659898,44.966037,6998.963041,0.121020,-1.000000,-0.441101,-1.000000
13.900000,2.842402,-0.136409,0.024120,2.299020,1.223222,-5.563943,482.971527,3.276703,0.000000,41.659897,44.966044,6998.939287,-0.565291,1.000000,-0.373748,-0.962269
14.000000,2.819834,-0.148439,0.038429,2.610969,0.963508,-5.417265,483.065521,3.370697,0.000000,41.659895,44.966051,6998.939287,0.448931,-1.000000,1.000000,0.725357
14.100000,2.800036,-0.159771,0.051748,2.891979,0.654089,-5.339131,483.123871,3.429047,0.000000,41.659894,44.966058,6998.915907,-0.576735,0.079560,0.891959,-0.094737
14.200000,2.789072,-0.171656,0.061021,3.143663,0.363953,-5.269437,483.154358,3.459564,0.000000,41.659892,44.966064,6998.915907,0.544665,0.594261,1.000000,-0.427523
14.300000,2.784359,-0.182725,0.067486,3.361339,-0.065769,-5.190176,483.145844,3.451019,0.000000,41.659890,44.966071,6998.890785,0.002083,0.882620,0.552655,1.000000
14.400000,2.789110,-0.192144,0.069633,3.522535,-0.561425,-5.163915,483.089081,3.394257,0.000000,41.659888,44.966078,6998.890785,1.000000,-0.557593,-1.000000,0.543336
14.500000,2.806878,-0.200952,0.065427,3.635462,-1.004002,-5.202398,482.971832,3.277008,0.000000,41.659886,44.966085,6998.863342,-0.454093,-0.673048,-0.609740,1.000000
14.600000,2.835718,-0.207753,0.054456,3.690857,-1.139415,-5.288221,482.814667,3.119843,0.000000,41.659884,44.966092,6998.863342,-0.808177,0.100451,-0.330997,-1.000000
14.700000,2.864088,-0.210923,0.043013,3.740539,-0.726454,-5.335543,482.677002,2.982178,0.000000,41.659881,44.966099,6998.835691,0.250344,-0.261467,-0.276708,-1.000000
14.800000,2.880536,-0.210702,0.038503,3.875842,-0.551878,-5.278811,482.559570,2.864746,0.000000,41.659879,44.966106,6998.835691,-0.202162,0.033042,-0.854414,0.109634
14.900000,2.885541,-0.208035,0.040013,4.062430,-0.776531,-5.209511,482.431641,2.736847,0.000000,41.659876,44.966112,6998.808870,1.000000,-0.601025,0.255756,-1.000000
15.000000,2.883171,-0.203673,0.044199,4.259905,-1.318952,-5.118011,482.274719,2.579895,0.000000,41.659873,44.966119,6998.808870,0.973061,1.000000,0.856908,0.591970
15.100000,2.878228,-0.197486,0.047910,4.460990,-1.916064,-5.041495,482.041870,2.347046,0.000000,41.659870,44.966126,6998.783582,-0.318137,1.000000,-0.211854,0.252329
15.200000,2.877330,-0.188805,0.049376,4.602246,-2.001766,-5.011254,481.777405,2.082611,0.000000,41.659867,44.966132,6998.783582,0.437515,1.000000,0.788912,0.451050
15.300000,2.889702,-0.174637,-0.001154,3.537690,-0.297885,-4.432778,481.593048,1.898224,0.000000,41.659864,44.966139,6998.761445,-0.864587,1.000000,-0.179434,-1.000000
15.400000,2.915414,-0.154466,-0.062708,2.865039,1.059367,-3.954730,481.566345,1.871521,0.000000,41.659862,44.966144,6998.761445,-0.881950,0.602418,-0.057172,-0.152273
15.500000,2.937215,-0.133084,-0.101329,2.825142,2.108700,-3.793531,481.665497,1.970673,0.000000,41.659859,44.966149,6998.741257,-0.458489,-1.000000,1.000000,0.340606
15.600000,2.956730,-0.116265,-0.122043,3.006392,2.582731,-3.948762,481.811401,2.116577,0.000000,41.659857,44.966154,6998.741257,-1.000000,-1.000000,1.000000,0.358142
15.700000,2.981034,-0.101949,-0.133803,3.178656,3.392354,-4.163255,482.020416,2.325592,0.000000,41.659854,44.966159,6998.722270,-1.000000,0.033635,0.370907,-1.000000
15.800000,3.002813,-0.092414,-0.135484,3.338110,4.175895,-4.389165,482.315033,2.620209,0.000000,41.659851,44.966165,6998.722270,-0.711234,-0.903613,0.000637,0.617567
15.900000,3.022712,-0.087313,-0.129661,3.457803,4.676997,-4.634272,482.649261,2.954437,0.000000,41.659847,44.966171,6998.705108,-1.000000,-0.648711,-1.000000,1.000000
16.000000,3.048714,-0.085119,-0.119828,3.514979,4.881498,-4.945822,483.047424,3.352600,0.000000,41.659844,44.966177,6998.705108,0.740499,0.672407,-1.000000,-0.393729
16.100000,3.079533,-0.084794,-0.109129,3.473413,4.330707,-5.206590,483.427673,3.732849,0.000000,41.659840,44.966183,6998.687075,1.000000,0.593578,-0.961477,-1.000000
16.200000,3.104388,-0.085944,-0.096664,3.420203,3.447586,-5.366455,483.718903,4.024078,0.000000,41.659836,44.966190,6998.687075,0.800439,-1.000000,-0.472948,-0.123439
16.300000,3.125619,-0.088104,-0.082441,3.379194,2.349868,-5.515116,483.931854,4.237030,0.000000,41.659833,44.966196,6998.665767,1.000000,0.313188,0.518126,-0.167087
16.400000,3.147737,-0.090496,-0.070522,3.343733,1.344557,-5.664827,484.042389,4.347595,0.000000,41.659829,44.966202,6998.665767,0.051192,-0.626606,-0.262250,0.758428
16.500000,3.173815,-0.092850,-0.062965,3.300691,0.665296,-5.824130,484.069366,4.374542,0.000000,41.659825,44.966208,6998.642760,0.067637,0.274529,-0.326354,-0.068521
16.600000,3.207759,-0.095561,-0.058161,3.223138,0.067404,-5.992706,484.039978,4.345154,0.000000,41.659821,44.966214,6998.642760,0.831411,0.325739,1.000000,0.453967
16.700000,3.246687,-0.098012,-0.056365,3.104718,-0.623153,-6.162011,483.944550,4.249725,0.000000,41.659817,44.966221,6998.618011,0.066044,1.000000,1.000000,1.000000
16.800000,3.290518,-0.099474,-0.058591,2.948149,-1.121056,-6.366863,483.795105,4.100281,0.000000,41.659813,44.966227,6998.618011,-1.000000,-1.000000,1.000000,1.000000
16.900000,3.346514,-0.099707,-0.063664,2.732972,-0.934500,-6.591938,483.613525,3.918701,0.000000,41.659809,44.966233,6998.592433,-1.000000,-0.159898,-0.696022,-0.762764
17.000000,3.404022,-0.099444,-0.062887,2.537122,0.014441,-6.784516,483.497406,3.802582,0.000000,41.659805,44.966239,6998.592433,-0.573412,-0.168672,0.171514,-0.078306
17.100000,3.453811,-0.100109,-0.056092,2.364463,0.346709,-6.943497,483.459229,3.764404,0.000000,41.659801,44.966245,7000.100982,-0.189957,0.262180,0.054632,0.759650
17.200000,3.508152,-0.101155,-0.049860,2.149095,0.388325,-7.111138,483.435516,3.740692,0.000000,41.659796,44.966252,7000.100982,-0.633039,1.000000,-0.825385,-1.000000
17.300000,3.559324,-0.102877,-0.042783,1.977991,0.761552,-7.211144,483.432770,3.737946,0.000000,41.659791,44.966258,7000.073829,-1.000000,0.318870,0.200548,-0.250884
17.400000,3.599060,-0.106484,-0.032850,1.887840,1.067044,-7.288481,483.481110,3.786285,0.000000,41.659786,44.966264,7000.073829,0.101911,0.625265,0.723333,-0.515081
17.500000,3.636755,-0.111576,-0.022968,1.775977,0.765436,-7.341339,483.538818,3.843994,0.000000,41.659781,44.966269,7000.044686,0.939757,-0.496927,0.022086,-0.200642
17.600000,3.671768,-0.116165,-0.015117,1.650679,-0.006716,-7.368284,483.545502,3.850677,0.000000,41.659776,44.966275,7000.044686,1.000000,0.889913,-0.980607,0.040866
17.700000,3.704222,-0.119210,-0.010415,1.538411,-0.733705,-7.357836,483.479614,3.784790,0.000000,41.659770,44.966281,7000.015419,-1.000000,-1.000000,0.608416,-1.000000
17.800000,3.732831,-0.121282,-0.004049,1.488754,-0.908302,-7.312190,483.365021,3.670197,0.000000,41.659765,44.966286,7000.015419,-0.442669,-1.000000,0.094183,-0.394620
17.900000,3.753184,-0.122825,0.007520,1.536085,-0.409322,-7.270707,483.282532,3.587708,0.000000,41.659760,44.966291,6999.985405,0.754627,0.438870,0.365567,1.000000
18.000000,3.772864,-0.124180,0.017958,1.549134,-0.652737,-7.273407,483.228058,3.533234,0.000000,41.659755,44.966296,6999.985405,-0.245741,0.422822,0.925997,-0.362396
18.100000,3.800910,-0.124816,0.024092,1.490022,-1.176346,-7.265210,483.131195,3.436371,0.000000,41.659749,44.966301,6999.953816,0.762581,1.000000,1.000000,0.578712
18.200000,3.834335,-0.124128,0.026499,1.383006,-1.721939,-7.263135,482.986328,3.291504,0.000000,41.659744,44.966306,6999.953816,0.246483,0.811534,0.071245,0.204891
18.300000,3.870003,-0.122025,0.024881,1.247708,-2.073500,-7.262920,482.803619,3.108765,0.000000,41.659738,44.966311,6999.922974,-0.216419,-0.604324,-0.745240,-0.022618
18.400000,3.907705,-0.117967,0.021823,1.106406,-1.869683,-7.252041,482.598541,2.903717,0.000000,41.659732,44.966316,6999.922974,-1.000000,1.000000,0.390399,-0.721395
18.500000,3.937181,-0.112095,0.023408,1.061137,-0.741767,-7.210782,482.463928,2.769104,0.000000,41.659727,44.966320,6999.891924,-1.000000,-0.886748,0.753453,-1.000000
18.600000,3.951318,-0.107094,0.032322,1.180782,0.280180,-7.150101,482.460999,2.766174,0.000000,41.659721,44.966324,6999.891924,-0.120292,-0.946782,-0.041723,0.210228
18.700000,3.958701,-0.104190,0.042485,1.346105,0.509619,-7.120385,482.516052,2.821228,0.000000,41.659715,44.966327,6999.861496,-1.000000,0.841027,-0.560893,-0.154073
18.800000,3.965930,-0.104195,0.048790,1.503869,0.617052,-7.077080,482.593201,2.898376,0.000000,41.659709,44.966331,6999.861496,0.185590,0.070778,-1.000000,-0.477370
18.900000,3.971033,-0.106352,0.052442,1.657744,0.633402,-7.030458,482.671051,2.976227,0.000000,41.659703,44.966334,6999.835048,-1.000000,1.000000,-1.000000,0.793708
19.000000,3.979741,-0.111088,0.053082,1.783136,0.504092,-6.980354,482.751312,3.056519,0.000000,41.659697,44.966337,6999.835048,1.000000,0.614220,-0.082504,-1.000000
19.100000,3.987131,-0.116651,0.051342,1.875541,-0.072994,-6.869767,482.791016,3.096191,0.000000,41.659691,44.966339,6999.811294,1.000000,-1.000000,-0.142658,-0.598802
19.200000,3.984854,-0.121001,0.050128,2.014189,-0.772656,-6.735291,482.759521,3.064697,0.000000,41.659685,44.966342,6999.811294,-0.039883,0.043623,-0.127848,1.000000
19.300000,3.982068,-0.124879,0.045459,2.172022,-1.316549,-6.687275,482.658264,2.963440,0.000000,41.659679,44.966344,6999.786628,0.823670,0.097854,1.000000,0.069417
19.400000,3.988582,-0.128128,0.034296,2.269836,-1.617662,-6.699870,482.504364,2.809540,0.000000,41.659673,44.966347,6999.786628,-0.755424,-1.000000,0.207685,0.773055
19.500000,4.001132,-0.129922,0.021252,2.324717,-1.262289,-6.734755,482.348877,2.654053,0.000000,41.659667,44.966349,6999.761133,-1.000000,-0.464787,-0.802230,-0.925055
19.600000,4.014430,-0.130078,0.010575,2.410165,-0.411535,-6.746544,482.251678,2.556854,0.000000,41.659661,44.966351,6999.761133,0.483048,0.047126,-1.000000,-0.571979
19.700000,4.019234,-0.129432,0.006488,2.556166,-0.206277,-6.694345,482.194611,2.499786,0.000000,41.659655,44.966353,6999.734478,-1.000000,-0.478575,-0.118386,-0.417335
19.800000,4.017305,-0.128822,0.007010,2.745993,0.028738,-6.661971,482.155548,2.460693,0.000000,41.659648,44.966354,6999.734478,0.128679,0.642310,-0.824339,0.619094
19.900000,4.018099,-0.128725,0.007991,2.919081,-0.009926,-6.688062,482.132416,2.437592,0.000000,41.659642,44.966356,6999.707864,0.282712,0.761858,0.525510,0.800153
20.000000,4.028825,-0.128643,0.005101,3.003276,-0.264220,-6.748437,482.078369,2.383545,0.000000,41.659636,44.966357,6999.707864,-1.000000,0.428711,1.000000,0.673013
20.100000,4.048550,-0.128419,0.000846,3.049068,0.222388,-6.854273,482.037598,2.342773,0.000000,41.659629,44.966358,6999.683695,-0.320215,0.115344,-1.000000,1.000000
20.200000,4.079307,-0.128964,-0.002577,3.044692,0.583161,-6.982370,482.045441,2.350616,0.000000,41.659622,44.966359,6999.683695,0.319683,-1.000000,-1.000000,-0.898626
20.300000,4.112928,-0.130052,-0.004756,2.973721,0.202992,-7.061468,482.046478,2.351654,0.000000,41.659616,44.966359,6999.660564,0.368022,-0.077084,-0.217046,1.000000
20.400000,4.144086,-0.130715,-0.005783,2.894516,-0.231980,-7.138842,482.001190,2.306396,0.000000,41.659609,44.966360,6999.660564,-0.850350,0.691775,-1.000000,0.553938
20.500000,4.181955,-0.130677,-0.007402,2.774843,-0.466630,-7.266171,481.926453,2.231628,0.000000,41.659602,44.966360,6999.637224,1.000000,-1.000000,-0.126806,0.665665
20.600000,4.225391,-0.129490,-0.010792,2.596894,-0.891362,-7.402434,481.818329,2.123505,0.000000,41.659595,44.966361,6999.637224,0.371404,-1.000000,-1.000000,1.000000
20.700000,4.271472,-0.126943,-0.017076,2.372751,-1.275651,-7.542192,481.669830,1.974976,0.000000,41.659588,44.966361,6999.614797,-0.294393,-0.516917,0.057870,0.676246
20.800000,4.327150,-0.117715,-0.027366,1.830946,-0.464671,-7.253295,481.517822,1.822998,0.000000,41.659581,44.966361,6999.614797,-1.000000,-0.350747,0.417389,-0.174085
20.900000,4.393337,-0.088912,-0.055340,1.280590,1.138509,-6.926821,481.509155,1.814301,0.000000,41.659575,44.966361,6999.591873,-0.891604,0.453556,0.988153,1.000000
21.000000,4.455288,-0.059165,-0.080061,1.069730,1.965963,-7.052899,481.607849,1.913025,0.000000,41.659568,44.966361,6999.591873,-0.648745,0.063787,-0.317452,-0.337894
21.100000,4.515841,-0.031521,-0.097036,0.832792,2.536622,-7.152706,481.768982,2.074158,0.000000,41.659562,44.966360,6999.568575,-0.841574,-0.845932,0.537080,-0.950711
21.200000,4.562423,-0.008769,-0.103172,0.672775,3.085952,-7.205741,481.977875,2.283020,0.000000,41.659555,44.966360,6999.568575,-0.839863,0.209129,-0.008145,0.322479
21.300000,4.598229,0.008156,-0.100649,0.539411,3.219720,-7.296947,482.215210,2.520386,0.000000,41.659548,44.966359,6999.547267,0.269124,1.000000,-0.984685,-0.440235
21.400000,4.636659,0.023163,-0.093548,0.325380,2.834131,-7.448130,482.452759,2.757965,0.000000,41.659542,44.966358,6999.547267,-0.456671,0.959704,0.540857,0.929575
21.500000,4.687077,0.037030,-0.088763,-0.021285,2.348186,-7.578377,482.645996,2.951172,0.000000,41.659535,44.966357,6999.526622,0.279566,-1.000000,-1.000000,-0.519367
21.600000,4.736925,0.048524,-0.085095,-0.389119,1.894926,-7.608821,482.784546,3.089722,0.000000,41.659528,44.966356,6999.526622,-0.348701,-0.829389,-0.671147,-0.080196
21.700000,4.784699,0.058483,-0.079994,-0.750953,1.434908,-7.627995,482.885254,3.190430,0.000000,41.659521,44.966355,6999.503408,0.182570,1.000000,-0.857342,0.431290
21.800000,4.836579,0.066707,-0.076874,-1.162902,0.942383,-7.652452,482.940521,3.245697,0.000000,41.659514,44.966354,6999.503408,0.178877,1.000000,0.898289,0.973745
21.900000,4.889511,0.073219,-0.076316,-1.578363,0.674531,-7.638901,482.946808,3.251984,0.000000,41.659507,44.966353,6999.478908,-1.000000,-0.156299,-0.910370,0.024707
22.000000,4.948458,0.077591,-0.075291,-1.990949,1.028288,-7.591576,482.954407,3.259583,0.000000,41.659500,44.966352,6999.478908,-1.000000,-0.352399,1.000000,0.373503
22.100000,5.008361,0.077512,-0.071417,-2.369468,2.038717,-7.538121,483.036133,3.341309,0.000000,41.659493,44.966351,6999.452791,-1.000000,1.000000,-0.005127,0.435643
22.200000,5.067209,0.073545,-0.064801,-2.774676,2.662677,-7.452955,483.201172,3.506348,0.000000,41.659486,44.966349,6999.452791,-0.045877,0.019319,0.350309,0.226240
22.300000,5.131444,0.066953,-0.058292,-3.270900,2.460709,-7.316204,483.399017,3.704193,0.000000,41.659479,44.966348,6999.424560,-0.115376,0.187407,-1.000000,0.886635
22.400000,5.198955,0.059527,-0.056298,-3.789093,2.042170,-7.131439,483.561859,3.867035,0.000000,41.659472,44.966347,6999.424560,-0.182816,-0.442939,1.000000,0.889937
22.500000,5.267002,0.052462,-0.060151,-4.294865,1.615106,-6.901115,483.677307,3.982513,0.000000,41.659464,44.966346,6999.396080,0.220219,1.000000,0.813859,0.739213
22.600000,5.342507,0.045594,-0.068854,-4.815460,1.292376,-6.594008,483.753235,4.058411,0.000000,41.659457,44.966344,6999.396080,-1.000000,0.594871,0.528109,-1.000000
22.700000,5.413002,0.038097,-0.077374,-5.227752,1.397433,-6.228264,483.819122,4.124298,0.000000,41.659450,44.966343,6999.367020,-0.033105,0.772485,-1.000000,-1.000000
22.800000,5.463195,0.028823,-0.080513,-5.490893,1.392410,-5.910034,483.892120,4.197296,0.000000,41.659443,44.966341,6999.367020,-0.545417,0.994988,1.000000,-0.419664
22.900000,5.499320,0.016672,-0.075332,-5.645390,1.418595,-5.665300,483.972015,4.277191,0.000000,41.659436,44.966340,6999.336219,-0.675931,0.014961,0.575642,-1.000000
23.000000,5.520956,0.001837,-0.059122,-5.682084,1.662334,-5.532779,484.082275,4.387451,0.000000,41.659429,44.966339,6999.336219,-0.775482,1.000000,0.895895,-0.032605
23.100000,5.533634,-0.014268,-0.038467,-5.686385,1.631744,-5.491612,484.223633,4.528809,0.000000,41.659422,44.966337,6999.306206,0.228237,-1.000000,1.000000,0.027955
23.200000,5.546018,-0.031713,-0.017341,-5.691152,1.264774,-5.424915,484.369720,4.674896,0.000000,41.659415,44.966335,6999.306206,-0.668302,-0.219762,-0.498746,-0.986544
23.300000,5.552723,-0.049414,0.003310,-5.612873,1.141905,-5.371019,484.507385,4.812531,0.000000,41.659408,44.966334,6999.278182,-0.509674,1.000000,-0.305434,1.000000
23.400000,5.559348,-0.067155,0.020403,-5.509539,1.205179,-5.326481,484.657410,4.962585,0.000000,41.659401,44.966332,6999.278182,-0.627051,1.000000,-1.000000,-1.000000
23.500000,5.565511,-0.087160,0.037220,-5.359221,1.568863,-5.230099,484.851471,5.156647,0.000000,41.659395,44.966330,6999.251237,-1.000000,-0.649417,1.000000,-0.959382
23.600000,5.559295,-0.108155,0.058294,-5.149438,1.793703,-5.133948,485.107910,5.413086,0.000000,41.659388,44.966329,6999.251237,0.694497,0.178089,-1.000000,-1.000000
23.700000,5.540451,-0.126697,0.080074,-4.916282,1.382182,-5.100257,485.350983,5.656158,0.000000,41.659382,44.966327,6999.225908,-0.960476,0.439575,-1.000000,1.000000
23.800000,5.520230,-0.145041,0.099338,-4.653174,0.826617,-5.106290,485.576019,5.881195,0.000000,41.659377,44.966325,6999.225908,1.000000,-0.194745,-0.278951,0.712057
23.900000,5.510229,-0.162472,0.110841,-4.428052,0.164382,-5.041979,485.750519,6.055725,0.000000,41.659371,44.966323,6999.200993,-0.672841,0.603004,-0.183364,-0.890860
24.000000,5.505969,-0.177566,0.117543,-4.207107,-0.302801,-4.915491,485.863739,6.168884,0.000000,41.659365,44.966322,6999.200993,-0.648547,-0.811182,-0.948535,1.000000
24.100000,5.505319,-0.193399,0.122187,-3.904802,-0.049494,-4.789102,485.973663,6.278839,0.000000,41.659360,44.966320,6999.174918,-0.906565,-1.000000,0.321908,-1.000000
24.200000,5.506657,-0.210603,0.125327,-3.594342,0.318120,-4.630578,486.129700,6.434906,0.000000,41.659355,44.966318,6999.174918,0.928011,0.873774,0.961843,-0.789454
24.300000,5.501080,-0.225355,0.131452,-3.322235,0.003260,-4.431561,486.273041,6.578247,0.000000,41.659350,44.966316,6999.148055,-1.000000,-0.247230,0.341827,-0.426675
24.400000,5.487102,-0.238224,0.142839,-2.975863,-0.243447,-4.259828,486.388580,6.693756,0.000000,41.659346,44.966314,6999.148055,-1.000000,1.000000,-0.168805,-0.155472
24.500000,5.471246,-0.250426,0.157581,-2.559641,0.166450,-4.128636,486.515167,6.820343,0.000000,41.659342,44.966312,6999.120487,-0.066276,-0.196941,0.348037,1.000000
24.600000,5.460791,-0.262654,0.170730,-2.204614,0.198729,-4.002735,486.655487,6.960663,0.000000,41.659338,44.966310,6999.120487,-0.291211,-0.863434,-1.000000,-1.000000
24.700000,5.451900,-0.275528,0.183788,-1.823536,0.198528,-3.794189,486.793213,7.098389,0.000000,41.659335,44.966307,6999.092630,-0.671645,0.370908,-0.942898,-0.303147
24.800000,5.434698,-0.286764,0.201551,-1.412161,0.150776,-3.556895,486.929810,7.234985,0.000000,41.659332,44.966305,6999.092630,1.000000,1.000000,0.420391,-0.844247
24.900000,5.410372,-0.294309,0.221579,-1.037924,-0.433506,-3.290190,487.018799,7.323944,0.000000,41.659329,44.966303,6999.065850,0.655752,-0.676617,-0.274257,-0.704961
25.000000,5.375257,-0.297507,0.245919,-0.623646,-1.240879,-2.993442,487.033020,7.338226,0.000000,41.659327,44.966301,6999.065850,0.365970,0.497832,0.099514,1.000000
25.100000,5.341402,-0.298161,0.267056,-0.201209,-1.758988,-2.728635,486.970764,7.275940,0.000000,41.659324,44.966299,6999.039609,-1.000000,0.256251,1.000000,-1.000000
25.200000,5.313448,-0.297870,0.283282,0.216005,-1.559437,-2.461622,486.882782,7.187958,0.000000,41.659322,44.966297,6999.039609,-1.000000,-1.000000,0.011831,-0.613566
25.300000,5.280255,-0.295762,0.301427,0.686146,-0.931258,-2.158566,486.821167,7.126343,0.000000,41.659321,44.966294,6999.012912,-0.190698,0.801215,0.581762,1.000000
25.400000,5.251768,-0.294487,0.315231,1.115540,-0.655479,-1.892212,486.786224,7.091400,0.000000,41.659320,44.966292,6999.012912,0.886459,-0.373964,0.257304,0.408236
25.500000,5.235067,-0.295191,0.319866,1.451685,-1.010160,-1.616656,486.730255,7.035461,0.000000,41.659319,44.966289,6998.987666,-0.352799,-0.361617,-0.311031,-1.000000
25.600000,5.219171,-0.294576,0.320358,1.796974,-1.400892,-1.252457,486.611786,6.916962,0.000000,41.659319,44.966287,6998.987666,0.238634,0.172696,0.511995,-0.121471
25.700000,5.199111,-0.290662,0.319762,2.131681,-1.805860,-0.906274,486.441010,6.746185,0.000000,41.659318,44.966284,6998.964243,1.000000,1.000000,1.000000,1.000000
25.800000,5.186748,-0.286953,0.313002,2.419469,-2.320003,-0.660398,486.218109,6.523285,0.000000,41.659318,44.966282,6998.964243,-1.000000,0.129588,-1.000000,0.469324
25.900000,5.186162,-0.284842,0.295692,2.728866,-2.308756,-0.504398,485.937897,6.243073,0.000000,41.659318,44.966279,6998.941070,-1.000000,-0.154485,-1.000000,1.000000
26.000000,5.197124,-0.284354,0.268417,3.046934,-1.837874,-0.435758,485.677948,5.983124,0.000000,41.659319,44.966276,6998.941070,0.645747,-0.640133,0.114529,0.554321
26.100000,5.216885,-0.284617,0.239248,3.309365,-2.063005,-0.354195,485.431641,5.736816,0.000000,41.659319,44.966273,6998.918311,0.562113,-0.584236,0.502956,-0.889610
26.200000,5.238018,-0.282785,0.213359,3.568645,-2.579505,-0.208209,485.115295,5.420471,0.000000,41.659320,44.966270,6998.918311,-0.633248,-0.980562,0.216452,-0.118012
26.300000,5.252401,-0.276908,0.193095,3.806159,-2.403734,-0.140635,484.767059,5.072235,0.000000,41.659321,44.966267,6998.895967,-0.871835,-1.000000,0.394087,1.000000
26.400000,5.268827,-0.268306,0.169666,4.019856,-1.774871,-0.182376,484.484222,4.789398,0.000000,41.659323,44.966263,6998.895967,0.980940,-1.000000,-1.000000,-0.165378
26.500000,5.291288,-0.257180,0.144772,4.242115,-2.001019,-0.173172,484.199921,4.505096,0.000000,41.659325,44.966260,6998.873996,0.376110,0.427397,-0.801000,0.023369
26.600000,5.313682,-0.244497,0.126076,4.438041,-2.519316,-0.151005,483.867096,4.172272,0.000000,41.659327,44.966256,6998.873996,-1.000000,-1.000000,0.869633,0.008387
26.700000,5.335970,-0.231094,0.111417,4.588079,-2.664723,-0.197365,483.525513,3.830719,0.000000,41.659329,44.966253,6998.853185,1.000000,0.130027,-1.000000,0.739976
26.800000,5.364077,-0.215219,0.095511,4.715255,-2.739598,-0.298695,483.155090,3.460266,0.000000,41.659331,44.966249,6998.853185,-1.000000,-1.000000,-1.000000,0.137099
26.900000,5.395058,-0.196892,0.080137,4.796111,-2.237336,-0.426003,482.801422,3.106598,0.000000,41.659333,44.966245,6998.832872,-1.000000,-1.000000,1.000000,-1.000000
27.000000,5.418882,-0.175547,0.070478,4.880851,-1.251511,-0.510742,482.562897,2.868073,0.000000,41.659336,44.966241,6998.832872,0.352346,-1.000000,0.194942,1.000000
27.100000,5.443439,-0.151759,0.065214,4.999532,-0.877957,-0.617325,482.379547,2.684723,0.000000,41.659338,44.966237,6998.811606,-1.000000,0.484841,-0.178076,0.874345
27.200000,5.476592,-0.129211,0.060279,5.106350,-0.820725,-0.783151,482.232544,2.537720,0.000000,41.659341,44.966232,6998.811606,0.963790,0.780028,0.520325,-0.880805
27.300000,5.508684,-0.109408,0.059311,5.183869,-1.037441,-0.852977,482.089691,2.394867,0.000000,41.659344,44.966228,6998.790961,-1.000000,-0.402395,-1.000000,-0.537084
27.400000,5.533386,-0.089646,0.066441,5.262650,-0.946049,-0.852470,481.933990,2.239166,0.000000,41.659348,44.966223,6998.790961,-0.243787,-1.000000,1.000000,0.437927
27.500000,5.554856,-0.072026,0.076849,5.348594,-0.729137,-0.918753,481.821655,2.126831,0.000000,41.659351,44.966219,6998.770566,0.514722,-1.000000,-0.109945,0.902585
27.600000,5.582178,-0.058315,0.083607,5.385119,-1.179639,-1.017295,481.707367,2.012543,0.000000,41.659354,44.966215,6998.770566,1.000000,0.064943,-0.037732,0.738376
27.700000,5.619536,-0.046518,0.085984,5.382854,-1.826601,-1.145739,481.532959,1.838135,0.000000,41.659358,44.966210,6998.748429,-0.026107,-0.073213,-0.489227,0.445856
27.800000,5.664233,-0.033443,0.047470,4.566606,-1.106185,-1.454124,481.356659,1.661865,0.000000,41.659361,44.966206,6998.748429,-0.361488,-0.906005,1.000000,-0.255405
27.900000,5.714451,-0.017075,-0.010027,3.578560,0.104330,-1.684637,481.303802,1.608978,0.000000,41.659364,44.966202,6998.725836,0.400969,-0.515125,0.649309,0.980517
28.000000,5.766379,0.000684,-0.009631,3.237100,0.011058,-1.784564,481.318176,1.623352,0.000000,41.659366,44.966199,6998.725836,0.662744,0.240907,-0.633460,-0.475050
28.100000,5.818833,0.015957,-0.002536,3.027758,-0.354226,-1.851064,481.297638,1.602814,0.000000,41.659368,44.966195,6998.702621,-0.297180,1.000000,-0.815032,-1.000000
28.200000,5.852047,0.025691,-0.000801,2.664808,-0.264446,-1.665453,481.274139,1.579315,0.000000,41.659370,44.966192,6998.702621,1.000000,-0.720297,0.345691,0.100909
28.300000,5.869764,0.028394,-0.004539,2.236832,0.014043,-1.386563,481.268158,1.573334,0.000000,41.659372,44.966190,6998.679406,-0.655220,0.775831,0.811495,-1.000000
28.400000,5.872067,0.024697,-0.000453,2.057644,0.120118,-1.162772,481.278259,1.583435,0.000000,41.659373,44.966188,6998.679406,-1.000000,-0.626365,1.000000,-0.795883
28.500000,5.857270,0.019021,0.004844,2.114057,0.427672,-1.031592,481.309174,1.614349,0.000000,41.659375,44.966186,6998.658305,0.028513,-1.000000,0.294859,-1.000000
28.600000,5.824905,0.010004,0.016644,2.213405,0.627208,-0.899099,481.369537,1.674713,0.000000,41.659376,44.966184,6998.658305,-0.814047,0.319451,-0.714250,0.250075
28.700000,5.786637,-0.001685,0.030268,2.301701,0.416962,-0.777136,481.431183,1.736359,0.000000,41.659378,44.966182,6998.638863,1.000000,-0.391105,-0.666936,-0.744335
28.800000,5.749270,-0.013935,0.042679,2.365400,-0.068937,-0.617391,481.450043,1.755219,0.000000,41.659380,44.966180,6998.638863,0.906279,0.739157,-0.566874,-0.224927
28.900000,5.707186,-0.026416,0.049656,2.336285,-0.395455,-0.397836,481.415131,1.720306,0.000000,41.659381,44.966179,6998.620208,-1.000000,0.679085,1.000000,-0.369955
29.000000,5.669247,-0.035419,0.021487,2.170686,0.045345,-0.254174,481.388733,1.693909,0.000000,41.659383,44.966177,6998.620208,0.259506,1.000000,0.772540,0.727469
29.100000,5.643423,-0.041538,0.001050,2.040631,0.266436,-0.178784,481.401215,1.706390,0.000000,41.659385,44.966176,6998.602590,0.230737,1.000000,-0.491684,1.000000
29.200000,5.630247,-0.044454,-0.003787,1.793638,0.138662,-0.132626,481.415955,1.721130,0.000000,41.659386,44.966174,6998.602590,0.565345,0.148123,1.000000,-0.861926
29.300000,5.626013,-0.043410,-0.001805,1.585805,0.102597,-0.083898,481.416870,1.722046,0.000000,41.659387,44.966173,6998.582899,-1.000000,-0.542645,1.000000,1.000000
29.400000,5.627314,-0.040476,0.003082,1.616096,0.353451,-0.081981,481.429718,1.734894,0.000000,41.659388,44.966172,6998.582899,-1.000000,0.363129,0.364742,-1.000000
29.500000,5.631185,-0.038592,0.014526,1.727016,0.619475,-0.057656,481.479950,1.785126,0.000000,41.659390,44.966171,6998.560264,0.416000,0.694725,0.660204,-0.825974
29.600000,5.626156,-0.037696,0.033268,1.824155,0.573144,0.037935,481.534119,1.839294,0.000000,41.659391,44.966170,6998.560264,-0.944415,-0.598717,0.745007,0.405634
29.700000,5.619527,-0.038114,0.052654,1.938371,0.829985,0.065117,481.588379,1.893585,0.000000,41.659393,44.966169,6998.536676,-1.000000,1.000000,-0.453405,1.000000
29.800000,5.623643,-0.042087,0.071861,2.099514,1.545309,0.014006,481.707642,2.012817,0.000000,41.659394,44.966168,6998.536676,-0.189416,-0.700764,0.153452,1.000000
29.900000,5.644547,-0.049997,0.085890,2.236672,1.773074,-0.055216,481.866974,2.172150,0.000000,41.659396,44.966167,6998.512466,-1.000000,0.696877,-1.000000,1.000000
30.000000,5.677731,-0.060758,0.093360,2.365879,1.935914,-0.116650,482.033325,2.338501,0.000000,41.659398,44.966166,6998.512466,-0.092874,-0.407840,-0.075239,-1.000000
30.100000,5.717891,-0.074116,0.097569,2.479760,1.838403,-0.117795,482.213654,2.518829,0.000000,41.659400,44.966164,6998.487137,-0.196580,-0.841032,0.782661,1.000000
30.200000,5.758594,-0.087523,0.098788,2.579194,1.386940,-0.113367,482.360138,2.665314,0.000000,41.659402,44.966163,6998.487137,0.654549,0.623475,-0.184054,0.566881
30.300000,5.801376,-0.099600,0.094793,2.667600,0.685562,-0.119858,482.437836,2.743011,0.000000,41.659405,44.966162,6998.461726,1.000000,0.679302,1.000000,-0.621721
30.400000,5.846011,-0.110493,0.087343,2.770850,-0.123803,-0.077300,482.434692,2.739868,0.000000,41.659407,44.966161,6998.461726,-0.594975,-0.214454,0.976480,-0.927485
30.500000,5.879258,-0.118404,0.083012,2.903476,-0.387135,0.013017,482.369446,2.674622,0.000000,41.659409,44.966160,6998.434904,-0.766257,1.000000,1.000000,-0.455950
30.600000,5.899304,-0.123433,0.084079,3.070534,0.247751,0.067060,482.321136,2.626312,0.000000,41.659412,44.966159,6998.434904,-1.000000,1.000000,0.686656,-0.383801
30.700000,5.913207,-0.128205,0.090194,3.284323,0.835559,0.148116,482.346466,2.651642,0.000000,41.659415,44.966158,6998.405969,1.000000,-0.190918,1.000000,-0.812695
30.800000,5.918819,-0.132420,0.100309,3.450035,0.485407,0.273247,482.371124,2.676270,0.000000,41.659418,44.966158,6998.405969,0.440054,-0.983092,1.000000,0.521504
30.900000,5.924309,-0.135710,0.107827,3.598022,0.106653,0.342397,482.346069,2.651245,0.000000,41.659421,44.966157,6998.377696,-0.913682,-1.000000,0.153725,0.926979
31.000000,5.938633,-0.139252,0.108619,3.781124,0.242411,0.342060,482.305817,2.610992,0.000000,41.659424,44.966157,6998.377696,0.236651,-1.000000,-1.000000,-0.568972
31.100000,5.955454,-0.142376,0.104647,3.985002,0.466436,0.393865,482.282288,2.587463,0.000000,41.659428,44.966156,6998.351248,-0.941525,1.000000,-0.279619,-0.468782
31.200000,5.963872,-0.144477,0.101599,4.197085,0.858339,0.479934,482.279480,2.584656,0.000000,41.659431,44.966156,6998.351248,-1.000000,0.500765,-0.234013,-0.298946
31.300000,5.968369,-0.148218,0.099836,4.506365,1.951237,0.530298,482.350311,2.655487,0.000000,41.659435,44.966156,6998.325173,-1.000000,0.683163,-0.338265,0.749985
31.400000,5.977868,-0.156258,0.098186,4.796745,2.707441,0.531808,482.517151,2.822327,0.000000,41.659440,44.966156,6998.325173,0.673637,1.000000,-0.876895,1.000000
31.500000,5.996722,-0.166324,0.093574,5.001662,2.548751,0.505325,482.688660,2.993805,0.000000,41.659444,44.966156,6998.300880,-0.850331,-0.819051,-1.000000,-0.862397
31.600000,6.022067,-0.177411,0.086386,5.224798,2.316371,0.486551,482.833618,3.138794,0.000000,41.659449,44.966156,6998.300880,-0.448732,-1.000000,0.535564,1.000000
31.700000,6.050270,-0.189360,0.079268,5.500601,2.616822,0.414561,482.974030,3.279205,0.000000,41.659454,44.966156,6998.277790,-1.000000,1.000000,-0.105384,0.323620
31.800000,6.083703,-0.202321,0.071038,5.786614,3.211512,0.251108,483.136566,3.441772,0.000000,41.659460,44.966156,6998.277790,-0.842546,1.000000,1.000000,1.000000
31.900000,6.128402,-0.217855,0.059168,6.061200,3.571840,0.024915,483.356537,3.661713,0.000000,41.659466,44.966156,6998.253580,0.447245,-0.165717,1.000000,0.178777
32.000000,6.180121,-0.232596,0.042916,6.276795,3.167171,-0.218887,483.555420,3.860596,0.000000,41.659472,44.966156,6998.253580,1.000000,1.000000,0.142947,-1.000000
32.100000,6.228056,-0.243851,0.026593,6.462751,2.413115,-0.397261,483.673462,3.978607,0.000000,41.659478,44.966156,6998.228292,1.000000,-0.750626,1.000000,0.542965
32.200000,6.274041,-0.252485,0.011005,6.665799,1.472318,-0.597416,483.699158,4.004303,0.000000,41.659484,44.966157,6998.228292,-1.000000,1.000000,-0.518657,-0.229761
32.300000,0.039088,-0.258221,-0.005845,6.889206,0.917087,-0.886501,483.638123,3.943329,0.000000,41.659490,44.966157,6998.201512,-0.638333,-0.315638,-0.042712,1.000000
32.400000,0.088681,-0.260996,-0.022378,7.093820,0.717836,-1.229674,483.542603,3.847778,0.000000,41.659496,44.966158,6998.201512,1.000000,-0.838248,1.000000,0.619055
32.500000,0.146983,-0.260714,-0.041955,7.269891,0.088853,-1.643295,483.391418,3.696594,0.000000,41.659503,44.966158,6998.172660,0.672578,0.143010,-1.000000,-0.259699
32.600000,0.205235,-0.257153,-0.062062,7.414598,-0.706451,-2.065437,483.156830,3.462006,0.000000,41.659509,44.966159,6998.172660,0.422782,1.000000,0.649775,0.530043
32.700000,0.258831,-0.250497,-0.079263,7.504695,-1.114743,-2.480649,482.872650,3.177826,0.000000,41.659516,44.966159,6998.144263,-1.000000,1.000000,0.265193,0.320271
32.800000,0.314964,-0.237817,-0.087036,7.514012,-0.613573,-2.921647,482.570435,2.875610,0.000000,41.659522,44.966160,6998.144263,-0.662367,-0.610560,1.000000,1.000000
32.900000,0.372080,-0.217579,-0.075232,7.503852,0.473898,-3.381989,482.373352,2.678528,0.000000,41.659529,44.966160,6998.115742,1.000000,1.000000,-1.000000,-0.894687
33.000000,0.419370,-0.196065,-0.056375,7.532593,0.314193,-3.726163,482.247650,2.552795,0.000000,41.659537,44.966161,6998.115742,-0.137105,-0.037670,0.879974,-0.357071
33.100000,0.450114,-0.173735,-0.032526,7.589448,0.007715,-3.874685,482.096344,2.401520,0.000000,41.659544,44.966162,6998.087677,-1.000000,-1.000000,0.003509,-0.758659
33.200000,0.462878,-0.151290,-0.004469,7.723331,0.661890,-3.932588,481.991028,2.296204,0.000000,41.659552,44.966164,6998.087677,-0.549130,1.000000,-0.452401,1.000000
33.300000,0.471183,-0.131383,0.018127,7.904738,0.879682,-4.023345,481.970612,2.275787,0.000000,41.659559,44.966165,6998.063260,-0.004859,0.020189,-0.190585,1.000000
33.400000,0.486037,-0.112719,0.032804,8.028010,0.487967,-4.139713,481.956604,2.261780,0.000000,41.659567,44.966167,6998.063260,0.648774,-0.330279,0.091887,0.118738
33.500000,0.505472,-0.095909,0.039570,8.092751,0.027237,-4.249338,481.907440,2.212616,0.000000,41.659575,44.966168,6998.041081,-1.000000,1.000000,-0.587254,0.247813
33.600000,0.526071,-0.081874,0.041546,8.148997,0.081050,-4.350482,481.854858,2.160034,0.000000,41.659583,44.966170,6998.041081,-0.655325,-0.818448,-0.290220,-0.402680
33.700000,0.542343,-0.069216,0.043798,8.241962,0.306091,-4.373668,481.837097,2.142273,0.000000,41.659591,44.966172,6998.019483,0.025703,-0.592519,-0.227176,-0.376396
33.800000,0.547445,-0.058583,0.047408,8.366633,0.371604,-4.275793,481.835327,2.140503,0.000000,41.659600,44.966174,6998.019483,-1.000000,-0.942509,-1.000000,-0.994290
33.900000,0.541064,-0.050612,0.052178,8.539537,0.572258,-4.119205,481.856262,2.161469,0.000000,41.659608,44.966177,6997.997678,-0.128273,-1.000000,0.387375,1.000000
34.000000,0.533218,-0.045095,0.054675,8.717027,0.686465,-3.982326,481.903015,2.208191,0.000000,41.659616,44.966180,6997.997678,-0.672297,1.000000,-1.000000,-0.006112
34.100000,0.530268,-0.042335,0.052275,8.836316,0.411630,-3.879055,481.946686,2.251862,0.000000,41.659624,44.966183,6997.974380,1.000000,-0.443315,-0.055370,0.015509
34.200000,0.530135,-0.041045,0.046231,8.901965,-0.146606,-3.796728,481.943573,2.248749,0.000000,41.659633,44.966186,6997.974380,0.724466,-0.655777,1.000000,0.353633
34.300000,0.536126,-0.040485,0.034792,8.939491,-0.704574,-3.796184,481.873657,2.178833,0.000000,41.659641,44.966189,6997.949010,-1.000000,-0.940699,-0.493355,0.658112
34.400000,0.549285,-0.040908,0.020524,8.970804,-0.781693,-3.882944,481.771301,2.076477,0.000000,41.659649,44.966192,6997.949010,1.000000,-0.797645,-0.685301,-1.000000
34.500000,0.559106,-0.041860,0.009463,8.996456,-1.078994,-3.860778,481.655243,1.960419,0.000000,41.659658,44.966195,6997.922852,0.701347,-1.000000,1.000000,-0.545575
34.600000,0.554916,-0.042908,0.003375,9.066008,-1.642667,-3.704039,481.475952,1.781128,0.000000,41.659666,44.966198,6997.922852,-0.492161,0.626592,-0.485955,0.616411
34.700000,0.550641,-0.038396,-0.009514,8.211289,-0.190419,-3.348612,481.317169,1.622345,0.000000,41.659674,44.966202,6997.895491,-1.000000,-0.229088,1.000000,-0.128280
34.800000,0.557501,-0.026209,-0.011155,7.663599,0.750838,-3.184275,481.345154,1.650330,0.000000,41.659681,44.966205,6997.895491,0.534745,-1.000000,0.065054,0.953442
34.900000,0.569771,-0.014915,-0.003683,7.723194,0.502788,-3.321306,481.390198,1.695404,0.000000,41.659688,44.966208,6997.867965,-1.000000,0.482465,-0.598887,-0.450814
35.000000,0.590945,-0.006674,0.001043,7.755351,0.517622,-3.503327,481.427185,1.732361,0.000000,41.659695,44.966211,6997.867965,-1.000000,1.000000,0.285155,0.373555
35.100000,0.606128,-0.002498,0.007742,7.811098,0.662715,-3.574173,481.487183,1.792358,0.000000,41.659702,44.966214,6997.843258,0.310807,-0.698073,-0.638989,-0.857179
35.200000,0.611967,-0.001251,0.018092,7.867606,0.455475,-3.525543,481.550568,1.855743,0.000000,41.659710,44.966217,6997.843258,-0.530036,0.117201,0.422167,-1.000000
35.300000,0.599709,-0.002079,0.032279,7.974698,0.218663,-3.284733,481.588898,1.894073,0.000000,41.659717,44.966221,6997.820872,-0.119721,-0.941169,0.469802,-0.584193
35.400000,0.572948,-0.004536,0.047976,8.120715,0.051814,-2.955828,481.615417,1.920593,0.000000,41.659724,44.966224,6997.820872,0.841407,1.000000,0.061749,1.000000
35.500000,0.541173,-0.008442,0.062418,8.262224,-0.258845,-2.621351,481.611267,1.916443,0.000000,41.659731,44.966228,6997.799606,-1.000000,-0.441563,-0.199362,-0.705276
35.600000,0.512375,-0.013984,0.073672,8.416172,-0.141481,-2.298157,481.591461,1.896637,0.000000,41.659739,44.966232,6997.799606,-0.460209,-1.000000,0.457074,-0.183362
35.700000,0.483240,-0.020828,0.083697,8.575232,0.257869,-1.975000,481.601807,1.906982,0.000000,41.659746,44.966236,6997.779417,-0.409555,-1.000000,0.305888,0.368144
35.800000,0.456054,-0.029779,0.091225,8.724426,0.533386,-1.688942,481.636688,1.941864,0.000000,41.659753,44.966240,6997.779417,-0.476892,-1.000000,1.000000,1.000000
35.900000,0.439844,-0.040928,0.093593,8.862723,0.810468,-1.523732,481.688263,1.993408,0.000000,41.659760,44.966244,6997.757985,-0.524241,-1.000000,0.293099,0.653587
