t,yaw,pitch,roll,speed.x,speed.y,speed.z,altBar,altRad,egt,myloclat,myloclon,weightlb,collective,bank,pitch,rudder
0.000000,5.375005,0.027157,0.000000,0.000000,0.000000,0.000000,481.204865,1.510040,0.000000,41.659724,44.965707,7008.602206,-1.000000,-1.000000,1.000000,0.131790
0.100000,5.374699,0.031624,0.000931,-0.097073,0.517387,0.032737,481.239288,1.544464,0.000000,41.659724,44.965707,7004.964901,-0.752755,0.419614,0.491623,-0.805336
0.200000,5.372449,0.037378,0.004126,-0.070559,0.127423,0.059942,481.265533,1.570709,0.000000,41.659724,44.965707,7004.964901,-0.529376,-1.000000,-1.000000,0.640233
0.300000,5.371859,0.041248,0.006391,-0.047133,0.128953,-0.011830,481.274811,1.579987,0.000000,41.659724,44.965707,7000.556034,-0.599458,1.000000,0.179054,1.000000
0.400000,5.376123,0.043882,0.002040,-0.012986,0.058984,-0.082642,481.290985,1.596161,0.000000,41.659724,44.965707,7000.556034,1.000000,1.000000,0.008551,-0.688514
0.500000,5.381344,0.044084,-0.001165,-0.015575,-0.086341,-0.019726,481.285004,1.590179,0.000000,41.659724,44.965707,7000.556034,-1.000000,-0.202667,1.000000,0.235114
0.600000,5.380417,0.042609,0.000538,0.036940,0.030282,0.067054,481.283264,1.588440,0.000000,41.659724,44.965707,7000.556034,1.000000,-0.303072,0.613961,-1.000000
0.700000,5.374123,0.039285,0.002405,0.013472,0.010787,0.076944,481.285767,1.590942,0.000000,41.659724,44.965707,7000.541649,-1.000000,1.000000,0.138344,0.049691
0.800000,5.363979,0.034724,0.001769,0.003861,0.172605,0.075413,481.290375,1.595551,0.000000,41.659724,44.965707,7000.541649,-1.000000,1.000000,0.465069,0.564465
0.900000,5.356627,0.028439,0.003289,0.100145,0.900389,0.058318,481.336700,1.641876,0.000000,41.659724,44.965707,7000.526974,-1.000000,0.693327,-0.416704,-0.805669
1.000000,5.349812,0.017644,0.011890,0.216253,1.781152,0.055527,481.480469,1.785645,0.000000,41.659725,44.965707,7000.526974,-0.524508,1.000000,0.117768,-0.921274
1.100000,5.334721,0.004093,0.026590,0.271938,1.915702,0.127244,481.676697,1.981873,0.000000,41.659725,44.965707,7000.510682,0.438149,-1.000000,-0.230488,-1.000000
1.200000,5.309982,-0.009104,0.043327,0.298307,1.612675,0.202361,481.844391,2.149567,0.000000,41.659725,44.965707,7000.510682,-0.844411,-0.492095,-1.000000,-0.207508
1.300000,5.281323,-0.023548,0.060989,0.372812,1.658068,0.240535,482.002197,2.307373,0.000000,41.659726,44.965707,7000.491654,-1.000000,-0.036258,0.738490,0.121814
1.400000,5.258175,-0.040205,0.077158,0.489310,2.126523,0.270691,482.198730,2.503906,0.000000,41.659726,44.965707,7000.491654,0.240428,0.862885,1.000000,-0.873376
1.500000,5.237362,-0.056376,0.091805,0.544615,1.837463,0.374826,482.387787,2.692963,0.000000,41.659727,44.965706,7000.470595,-0.014528,-0.496492,-0.795195,-0.350299
1.600000,5.214021,-0.072087,0.106999,0.597367,1.184857,0.509664,482.533783,2.838959,0.000000,41.659728,44.965706,7000.470595,1.000000,-1.000000,0.918676,-0.216243
1.700000,5.195985,-0.086509,0.119303,0.678136,0.570755,0.623819,482.607208,2.912415,0.000000,41.659728,44.965706,7000.447380,-1.000000,1.000000,-0.557115,0.721464
1.800000,5.189551,-0.099830,0.126158,0.798699,0.378478,0.698084,482.632446,2.937653,0.000000,41.659729,44.965706,7000.447380,-0.181291,0.346014,-0.544143,0.319184
1.900000,5.196887,-0.114679,0.127154,0.972781,0.522037,0.743827,482.660767,2.965942,0.000000,41.659730,44.965705,7000.421554,-0.542027,-0.632879,-0.240311,1.000000
2.000000,5.220273,-0.130270,0.120871,1.157695,0.385925,0.773081,482.688934,2.994080,0.000000,41.659732,44.965705,7000.421554,1.000000,-1.000000,-1.000000,1.000000
2.100000,5.257013,-0.144509,0.107308,1.330222,-0.221430,0.804739,482.673798,2.978973,0.000000,41.659733,44.965704,7000.394981,0.506784,-0.312128,-0.340263,-0.373608
2.200000,5.303421,-0.157299,0.088143,1.529003,-0.949378,0.845307,482.581329,2.886505,0.000000,41.659734,44.965704,7000.394981,-0.923813,1.000000,0.931662,-1.000000
2.300000,5.349964,-0.166390,0.068158,1.739490,-1.051093,0.844353,482.439636,2.744812,0.000000,41.659735,44.965703,7000.367123,-0.339743,0.303409,-0.800042,1.000000
2.400000,5.395977,-0.170933,0.050067,1.943256,-0.668914,0.781472,482.328461,2.633636,0.000000,41.659737,44.965702,7000.367123,0.059047,1.000000,0.946333,0.082084
2.500000,5.451640,-0.171977,0.030697,2.153022,-0.894635,0.676739,482.216431,2.521606,0.000000,41.659739,44.965702,7000.337400,0.556755,-0.366556,1.000000,1.000000
2.600000,5.513233,-0.169031,0.011332,2.344494,-1.188273,0.549286,482.067230,2.372406,0.000000,41.659740,44.965701,7000.337400,-0.667416,-0.196153,0.017006,-1.000000
2.700000,5.569757,-0.161923,-0.001720,2.501816,-1.042206,0.448449,481.918640,2.223816,0.000000,41.659742,44.965700,7000.307925,-0.069862,0.350977,-1.000000,-1.000000
2.800000,5.619834,-0.149901,-0.002212,2.667034,-0.361530,0.387491,481.805298,2.110474,0.000000,41.659744,44.965699,7000.307925,-1.000000,-0.639904,-0.966878,0.578455
2.900000,5.664035,-0.135682,0.008012,2.898600,0.767882,0.232291,481.779846,2.085022,0.000000,41.659747,44.965697,7000.278202,-1.000000,-0.618469,0.715077,1.000000
3.000000,5.709271,-0.124467,0.016890,3.191037,1.793454,0.011755,481.866760,2.171997,0.000000,41.659749,44.965696,7000.278202,-1.000000,-0.396179,0.825642,-0.860271
3.100000,5.758190,-0.115908,0.024777,3.465724,2.606226,-0.182273,482.052917,2.358093,0.000000,41.659752,44.965694,7000.248603,-0.759905,1.000000,0.191781,0.873620
3.200000,5.804961,-0.109919,0.032400,3.694884,2.974822,-0.369085,482.303986,2.609161,0.000000,41.659755,44.965692,7000.248603,0.018364,-1.000000,-1.000000,0.485086
3.300000,5.851613,-0.105231,0.036017,3.836820,2.580741,-0.533431,482.536072,2.841278,0.000000,41.659759,44.965690,7000.222362,0.869962,1.000000,1.000000,-0.407462
3.400000,5.899736,-0.099600,0.036991,3.940496,1.743604,-0.630029,482.718018,3.023193,0.000000,41.659762,44.965688,7000.222362,0.275353,0.022743,-1.000000,-1.000000
3.500000,5.938892,-0.092690,0.038418,4.029125,0.824614,-0.664435,482.810974,3.116150,0.000000,41.659766,44.965687,7000.197862,1.000000,0.216910,1.000000,0.616130
3.600000,5.972041,-0.085443,0.038884,4.100454,-0.006147,-0.717415,482.816772,3.121948,0.000000,41.659769,44.965685,7000.197862,0.254298,-1.000000,-1.000000,0.189800
3.700000,6.011498,-0.077399,0.034911,4.155694,-0.829531,-0.838163,482.741791,3.046967,0.000000,41.659772,44.965683,7000.171497,1.000000,-0.415311,-0.154586,1.000000
3.800000,6.057747,-0.068991,0.024327,4.179250,-1.681200,-1.015415,482.587128,2.892303,0.000000,41.659776,44.965682,7000.171497,1.000000,0.029826,-0.086289,0.997738
3.900000,6.107754,-0.060507,0.008069,4.170206,-2.394296,-1.234570,482.363068,2.668243,0.000000,41.659779,44.965680,7000.144468,-0.593767,0.806344,-0.628652,0.069016
4.000000,6.162823,-0.050704,-0.010367,4.153193,-2.415843,-1.495880,482.086487,2.391663,0.000000,41.659783,44.965678,7000.144468,-0.040278,1.000000,-1.000000,1.000000
4.100000,6.218756,-0.040480,-0.022229,4.141127,-1.828591,-1.749853,481.853882,2.159058,0.000000,41.659787,44.965677,7000.116859,1.000000,-0.913807,1.000000,-1.000000
4.200000,6.266786,-0.031131,-0.027279,4.093096,-2.096683,-1.895129,481.651459,1.956635,0.000000,41.659790,44.965675,7000.116859,0.362861,0.448325,0.469211,-0.154970
4.300000,0.018734,-0.022051,-0.025537,4.054029,-2.450222,-1.959646,481.397827,1.702972,0.000000,41.659794,44.965674,7000.088877,0.101569,-0.571497,-0.894932,0.054885
4.400000,0.047735,-0.010512,-0.019682,2.201603,0.089675,-1.294038,481.250549,1.555725,0.000000,41.659797,44.965672,7000.088877,0.890621,-1.000000,-0.162813,1.000000
4.500000,0.074875,0.001772,-0.019121,1.523868,0.287817,-1.126938,481.287567,1.592743,0.000000,41.659799,44.965671,7000.063838,1.000000,0.217230,-0.710101,0.394651
4.600000,0.104474,0.015254,-0.003845,1.190329,-0.113918,-0.949473,481.288452,1.593658,0.000000,41.659800,44.965670,7000.063838,0.559858,-0.825008,0.059273,-1.000000
4.700000,0.122350,0.021611,-0.011613,0.737809,0.017077,-0.638234,481.278046,1.583221,0.000000,41.659801,44.965670,7000.041328,-1.000000,0.404201,-0.064605,-0.406110
4.800000,0.119791,0.023547,-0.020672,0.485137,0.422706,-0.368744,481.300568,1.605743,0.000000,41.659802,44.965669,7000.041328,-0.028609,-0.058129,-0.885602,-1.000000
4.900000,0.101304,0.022456,-0.030015,0.548487,0.435123,-0.318014,481.350372,1.655548,0.000000,41.659803,44.965669,7000.020393,-0.104447,0.060295,-0.350479,0.193933
5.000000,0.074306,0.018653,-0.036238,0.611010,0.426332,-0.306506,481.388336,1.693512,0.000000,41.659803,44.965669,7000.020393,-0.984364,-0.084091,-0.424648,0.197717
5.100000,0.049619,0.012201,-0.040114,0.698331,0.702348,-0.345301,481.443848,1.748993,0.000000,41.659804,44.965669,7000.002236,0.017335,0.296413,0.656555,0.201414
5.200000,0.025864,0.002444,-0.043680,0.776047,0.706211,-0.375822,481.519989,1.825165,0.000000,41.659804,44.965668,7000.002236,0.890262,0.997836,-0.978752,-0.154027
5.300000,0.001291,-0.009114,-0.045949,0.837362,0.359273,-0.361844,481.570679,1.875885,0.000000,41.659805,44.965668,6999.985737,-1.000000,0.224376,0.372531,-0.440639
5.400000,6.258765,-0.021449,-0.043680,0.923089,0.272133,-0.358463,481.594147,1.899323,0.000000,41.659806,44.965668,6999.985737,0.374368,1.000000,1.000000,0.751553
5.500000,6.233831,-0.035925,-0.036782,1.010896,0.064677,-0.356982,481.613129,1.918335,0.000000,41.659807,44.965668,6999.969486,0.600353,1.000000,0.078621,-1.000000
5.600000,6.209828,-0.050438,-0.027189,1.086599,-0.495468,-0.333800,481.584259,1.889465,0.000000,41.659808,44.965667,6999.969486,0.089738,0.467093,1.000000,1.000000
5.700000,6.190912,-0.063432,-0.017132,1.168052,-1.033794,-0.323905,481.504639,1.809814,0.000000,41.659809,44.965667,6999.952034,1.000000,0.346011,0.517845,0.433021
5.800000,6.181896,-0.072598,-0.009641,0.674557,-0.673785,-0.096309,481.392456,1.697632,0.000000,41.659810,44.965667,6999.952034,-1.000000,0.002107,0.581247,-1.000000
5.900000,6.180521,-0.068134,-0.004542,-0.150327,0.556109,0.129576,481.396851,1.702026,0.000000,41.659810,44.965667,6999.931887,-0.029478,0.003790,-0.462879,-1.000000
6.000000,6.171379,-0.060620,0.006892,-0.025132,0.603513,0.225273,481.457520,1.762695,0.000000,41.659810,44.965667,6999.931887,-0.054465,0.814871,-0.990845,-1.000000
6.100000,6.149668,-0.053534,0.026240,0.097359,0.581108,0.298525,481.511810,1.816956,0.000000,41.659810,44.965667,6999.908589,-0.847315,0.998568,0.358009,0.263443
6.200000,6.127457,-0.048197,0.046792,0.238009,0.809315,0.327656,481.579895,1.885071,0.000000,41.659810,44.965668,6999.908589,-0.252803,-0.823290,-0.962563,0.244009
6.300000,6.113059,-0.045543,0.063466,0.356384,0.765051,0.360970,481.657532,1.962708,0.000000,41.659810,44.965668,6999.884255,0.612594,0.541631,0.320875,-0.369428
6.400000,6.102316,-0.044126,0.077463,0.437075,0.276837,0.456233,481.705200,2.010376,0.000000,41.659811,44.965669,6999.884255,-0.310040,-0.626562,-0.904880,-0.193779
6.500000,6.094579,-0.043523,0.087654,0.530030,0.111955,0.530621,481.712952,2.018127,0.000000,41.659811,44.965669,6999.858346,-0.180464,0.681730,1.000000,1.000000
6.600000,6.096108,-0.044597,0.091594,0.623212,-0.002756,0.579673,481.715607,2.020813,0.000000,41.659812,44.965670,6999.858346,1.000000,-0.090688,1.000000,-0.145318
6.700000,6.106355,-0.046610,0.090094,0.693686,-0.629706,0.678621,481.677765,1.982910,0.000000,41.659812,44.965671,6999.830156,0.947527,0.233985,0.267884,-1.000000
6.800000,6.114526,-0.047686,0.086951,0.753801,-1.397366,0.826364,481.560455,1.865631,0.000000,41.659813,44.965671,6999.830156,-0.072836,-0.958621,1.000000,0.826338
6.900000,6.120250,-0.044337,0.075957,0.560277,-1.050029,0.518686,481.423248,1.728394,0.000000,41.659813,44.965672,6999.801759,-0.382227,-0.403439,0.075974,0.237100
7.000000,6.125533,-0.028061,0.040985,0.294201,0.146645,0.044204,481.386108,1.691284,0.000000,41.659814,44.965672,6999.801759,-1.000000,0.836371,-1.000000,-1.000000
7.100000,6.129488,-0.010715,0.014868,0.440592,0.855581,0.104717,481.438171,1.743317,0.000000,41.659814,44.965672,6999.772824,-0.467808,-0.496735,-0.010357,0.038165
7.200000,6.127063,0.002282,0.001511,0.572735,1.333303,0.151745,481.546051,1.851227,0.000000,41.659815,44.965672,6999.772824,-0.793548,0.065188,0.252297,-0.640944
7.300000,6.119055,0.012734,-0.004779,0.677576,1.466377,0.223392,481.693359,1.998505,0.000000,41.659815,44.965673,6999.744634,0.048168,0.853904,-1.000000,-1.000000
7.400000,6.098977,0.020219,-0.002281,0.740052,1.287222,0.323814,481.839996,2.145172,0.000000,41.659816,44.965673,6999.744634,0.080958,-1.000000,-0.758857,-0.808405
7.500000,6.070996,0.025564,0.006495,0.745943,0.697102,0.402007,481.938141,2.243317,0.000000,41.659816,44.965673,6999.719969,0.802245,0.755853,-0.176861,1.000000
7.600000,6.045374,0.029811,0.016921,0.744148,0.109242,0.419062,481.976929,2.282074,0.000000,41.659817,44.965674,6999.719969,-1.000000,-0.119491,-0.288507,0.156226
7.700000,6.031873,0.031341,0.025873,0.806549,0.255928,0.393841,481.989777,2.294952,0.000000,41.659818,44.965674,6999.696961,-0.537052,-0.501911,-0.694890,1.000000
7.800000,6.029705,0.028387,0.032429,0.899507,0.695529,0.368696,482.041779,2.346985,0.000000,41.659819,44.965674,6999.696961,-0.433168,-0.195228,0.523279,-0.799984
7.900000,6.032537,0.021040,0.038821,0.993888,1.104579,0.395428,482.130798,2.435974,0.000000,41.659819,44.965675,6999.672171,-1.000000,0.857449,-0.075421,0.219643
8.000000,6.035784,0.009542,0.046588,1.093155,1.609095,0.416079,482.270782,2.575958,0.000000,41.659820,44.965675,6999.672171,-0.340629,-1.000000,0.138805,0.302071
8.100000,6.045990,-0.004393,0.052302,1.151975,1.678385,0.401363,482.432678,2.737885,0.000000,41.659821,44.965676,6999.646635,0.275655,-1.000000,0.286559,1.000000
8.200000,6.067398,-0.020542,0.053703,1.198860,1.314598,0.425400,482.580933,2.886078,0.000000,41.659823,44.965676,6999.646635,-0.489626,-0.984430,-0.697847,-0.425032
8.300000,6.088543,-0.036881,0.054636,1.280081,1.084425,0.507327,482.693237,2.998413,0.000000,41.659824,44.965677,6999.620518,-1.000000,-0.146297,-0.009126,-1.000000
8.400000,6.106415,-0.053090,0.057114,1.418254,1.448743,0.545267,482.802216,3.107422,0.000000,41.659825,44.965677,6999.620518,-0.448023,-1.000000,-0.381436,0.823291
8.500000,6.128871,-0.072022,0.060129,1.556891,1.619283,0.546738,482.953217,3.258392,0.000000,41.659826,44.965678,6999.592785,0.545421,0.643992,0.603006,1.000000
8.600000,6.162594,-0.091231,0.058593,1.671206,1.133798,0.524840,483.078064,3.383240,0.000000,41.659828,44.965679,6999.592785,-0.249604,0.233506,-0.600480,-0.082627
8.700000,6.201038,-0.108506,0.053290,1.818714,0.772302,0.537744,483.146362,3.451538,0.000000,41.659830,44.965680,6999.564637,0.004951,0.421609,-0.381371,-1.000000
8.800000,6.235049,-0.125790,0.050923,2.015480,0.711470,0.627161,483.190826,3.496002,0.000000,41.659831,44.965680,6999.564637,-0.823664,0.454478,-0.941429,-0.910775
8.900000,6.254558,-0.142313,0.056907,2.228987,0.720209,0.716159,483.232666,3.537842,0.000000,41.659833,44.965682,6999.535825,0.401970,1.000000,-0.904043,1.000000
9.000000,6.271393,-0.157902,0.064752,2.438865,0.713902,0.728308,483.261749,3.566956,0.000000,41.659835,44.965683,6999.535825,-0.972720,0.894253,0.483911,-0.572877
9.100000,0.009423,-0.174826,0.071859,2.704920,1.129490,0.741133,483.297729,3.602936,0.000000,41.659837,44.965684,6999.505812,-1.000000,-0.362784,-1.000000,-0.014758
9.200000,0.027395,-0.193288,0.081466,3.019851,1.918359,0.748529,483.399841,3.704987,0.000000,41.659840,44.965686,6999.505812,1.000000,0.183939,0.143473,-0.067032
9.300000,0.045419,-0.211392,0.088684,3.253029,1.790624,0.742627,483.512177,3.817352,0.000000,41.659843,44.965688,6999.477830,0.799524,-0.909118,-0.068190,1.000000
9.400000,0.071245,-0.229640,0.089118,3.495758,1.272780,0.711405,483.580658,3.885834,0.000000,41.659846,44.965689,6999.477830,-0.651773,-1.000000,0.351333,1.000000
9.500000,0.106615,-0.246450,0.079780,3.787538,1.158556,0.639385,483.600769,3.905975,0.000000,41.659849,44.965691,6999.451796,-1.000000,0.200206,-0.716453,-1.000000
9.600000,0.139126,-0.260843,0.067008,4.124746,1.791061,0.589885,483.634003,3.939178,0.000000,41.659853,44.965693,6999.451796,-0.627070,0.077494,-0.382312,0.133549
9.700000,0.165584,-0.275855,0.056037,4.502908,2.410277,0.570312,483.726257,4.031433,0.000000,41.659856,44.965696,6999.426757,0.010917,0.575103,0.141641,0.040108
9.800000,0.190132,-0.290338,0.045778,4.825243,2.241870,0.546225,483.823547,4.128723,0.000000,41.659861,44.965699,6999.426757,0.244208,-1.000000,0.127386,-0.731315
9.900000,0.208056,-0.301741,0.039125,5.105965,1.661089,0.594747,483.862427,4.167603,0.000000,41.659865,44.965701,6999.402133,0.830878,0.707361,0.046620,-0.565747
10.000000,0.217609,-0.310805,0.038491,5.409001,0.988600,0.663868,483.825073,4.130249,0.000000,41.659869,44.965704,6999.402133,-0.045648,0.521243,-0.198753,0.387458
10.100000,0.227648,-0.317196,0.039282,5.725818,0.473524,0.665861,483.716125,4.021301,0.000000,41.659873,44.965707,6999.377799,0.551796,1.000000,-0.386885,-0.103416
10.200000,0.241951,-0.320877,0.039151,6.026643,0.057646,0.635628,483.560211,3.865387,0.000000,41.659878,44.965711,6999.377799,0.734796,-1.000000,-1.000000,1.000000
10.300000,0.261338,-0.321944,0.038165,6.339731,-0.391717,0.568904,483.343079,3.648254,0.000000,41.659883,44.965714,6999.351765,0.178447,-0.475654,-0.394604,1.000000
10.400000,0.288174,-0.319846,0.033164,6.637093,-0.835285,0.422161,483.070099,3.375275,0.000000,41.659887,44.965717,6999.351765,0.266711,-0.616916,0.052290,-0.097419
10.500000,0.318250,-0.313613,0.025875,6.872079,-0.902130,0.244870,482.783691,3.088867,0.000000,41.659892,44.965721,6999.325441,-0.459638,-1.000000,-0.250547,1.000000
10.600000,0.353245,-0.300769,0.017669,7.088469,-0.909482,0.002930,482.483307,2.788483,0.000000,41.659897,44.965724,6999.325441,0.607770,-0.018483,0.237250,-0.436835
10.700000,0.388984,-0.282421,0.010590,7.280980,-1.074981,-0.177939,482.175262,2.480438,0.000000,41.659902,44.965728,6999.299905,-0.453387,1.000000,-1.000000,-0.077541
10.800000,0.412969,-0.260473,0.012861,7.406097,-0.905775,-0.282457,481.887054,2.192230,0.000000,41.659907,44.965732,6999.299905,-0.516664,-0.298384,0.809765,-0.134439
10.900000,0.432695,-0.230472,0.011962,6.253143,0.877287,-0.386415,481.698486,2.003662,0.000000,41.659913,44.965736,6999.275529,-0.182930,0.455826,-0.508240,-0.328170
11.000000,0.445136,-0.199730,0.003258,5.765255,1.368102,-0.378011,481.710449,2.015656,0.000000,41.659917,44.965739,6999.275529,1.000000,0.500306,0.059318,-1.000000
11.100000,0.441117,-0.173020,0.003459,5.985992,0.771180,-0.233018,481.705719,2.010925,0.000000,41.659922,44.965743,6999.254138,-0.772778,0.508990,0.529894,-0.776764
11.200000,0.417553,-0.146472,0.014639,6.177767,0.430260,0.028659,481.661041,1.966217,0.000000,41.659927,44.965747,6999.254138,-0.497222,-0.372950,-1.000000,-1.000000
11.300000,0.378232,-0.121066,0.031745,6.268171,0.335644,0.392096,481.621002,1.926178,0.000000,41.659931,44.965751,6999.234820,0.841567,1.000000,0.674684,-0.727549
11.400000,0.332296,-0.096970,0.038404,6.196595,0.082136,0.779422,481.571808,1.876984,0.000000,41.659936,44.965755,6999.234820,-0.729546,0.668352,0.107851,-0.039520
11.500000,0.285368,-0.071178,0.026561,6.107678,-0.137276,1.093325,481.513702,1.818878,0.000000,41.659940,44.965759,6999.216207,0.760586,-0.549182,-1.000000,1.000000
11.600000,0.250241,-0.047132,0.005905,6.083850,-0.564100,1.264937,481.442169,1.747345,0.000000,41.659945,44.965763,6999.216207,1.000000,0.305498,-1.000000,1.000000
11.700000,0.231241,-0.024321,-0.010183,5.711352,-0.940211,1.263288,481.348114,1.653290,0.000000,41.659949,44.965767,6999.198174,1.000000,-0.035970,-0.580874,0.648905
11.800000,0.221227,0.001411,0.004039,4.465395,-0.107213,1.129772,481.275085,1.580261,0.000000,41.659953,44.965771,6999.198174,-0.797036,-1.000000,0.736720,-0.416704
11.900000,0.216332,0.018497,0.009865,3.999254,0.054753,1.081073,481.281342,1.586517,0.000000,41.659956,44.965774,6999.178732,-0.521720,0.815556,-0.344182,-0.273602
12.000000,0.208513,0.028598,0.008683,4.012389,0.263424,1.139851,481.300507,1.605682,0.000000,41.659959,44.965777,6999.178732,-0.991383,1.000000,0.097083,-0.500399
12.100000,0.197303,0.034269,0.010476,4.075698,0.559260,1.186373,481.360565,1.665741,0.000000,41.659962,44.965780,6999.156595,0.129228,0.728856,0.245755,0.909779
12.200000,0.191268,0.035426,0.011764,4.124131,0.657853,1.183233,481.436066,1.741241,0.000000,41.659965,44.965782,6999.156595,-1.000000,-0.004867,-1.000000,0.994807
12.300000,0.195246,0.032272,0.010752,4.218942,1.117556,1.123629,481.526001,1.831177,0.000000,41.659969,44.965785,6999.134458,-1.000000,-1.000000,-1.000000,-0.460893
12.400000,0.206273,0.022814,0.009305,4.348845,1.927513,1.059803,481.700104,2.005280,0.000000,41.659972,44.965788,6999.134458,-0.290328,1.000000,0.318363,-0.458217
12.500000,0.216187,0.009086,0.008985,4.400390,1.949238,1.071149,481.910431,2.215607,0.000000,41.659975,44.965791,6999.112652,0.394143,1.000000,-0.362457,-0.344763
12.600000,0.222806,-0.005560,0.009220,4.427945,1.634228,1.084292,482.079956,2.385132,0.000000,41.659978,44.965794,6999.112652,-0.813583,-1.000000,-0.004815,0.686153
12.700000,0.235310,-0.022813,0.007619,4.510109,1.686824,1.014501,482.236755,2.541931,0.000000,41.659982,44.965797,6999.089313,-0.445966,1.000000,0.302010,0.272838
12.800000,0.257490,-0.042155,0.003390,4.616126,1.810778,0.910871,482.404755,2.709930,0.000000,41.659985,44.965801,6999.089313,1.000000,1.000000,-1.000000,-1.000000
12.900000,0.278567,-0.060747,-0.000295,4.688353,1.350836,0.904536,482.535980,2.841156,0.000000,41.659989,44.965804,6999.064772,-0.129970,-0.068863,0.174425,-0.721348
13.000000,0.289592,-0.079784,0.001158,4.777153,0.769862,0.975319,482.606903,2.912079,0.000000,41.659992,44.965807,6999.064772,-0.001242,-0.992191,-0.845929,-0.981912
13.100000,0.290944,-0.098729,0.009414,4.929137,0.791236,1.041536,482.635254,2.940430,0.000000,41.659996,44.965811,6999.038614,-0.963125,0.990085,0.152545,-0.035911
13.200000,0.288874,-0.117450,0.021863,5.089693,0.920736,1.107765,482.667358,2.972534,0.000000,41.660000,44.965814,6999.038614,0.769216,0.193756,1.000000,-1.000000
13.300000,0.282497,-0.137142,0.038248,5.244253,0.805714,1.229213,482.683533,2.988708,0.000000,41.660004,44.965818,6999.010258,-1.000000,0.509651,0.586067,-0.331837
13.400000,0.270618,-0.155727,0.057134,5.417768,0.961544,1.362907,482.680359,2.985535,0.000000,41.660007,44.965822,6999.010258,-1.000000,-0.595308,-1.000000,0.244119
13.500000,0.263253,-0.173054,0.072603,5.627603,1.426276,1.406469,482.699921,3.005096,0.000000,41.660012,44.965826,6998.981696,-0.015529,-0.051684,-0.235859,0.102365
13.600000,0.262639,-0.191915,0.083721,5.859020,1.617969,1.453268,482.740021,3.045197,0.000000,41.660016,44.965831,6998.981696,0.166660,0.503160,-1.000000,-0.632167
13.700000,0.264827,-0.209922,0.091625,6.097348,1.653095,1.509187,482.762878,3.068054,0.000000,41.660020,44.965836,6998.952221,-1.000000,-1.000000,-0.107563,0.628158
13.800000,0.270857,-0.226311,0.095327,6.342948,1.729523,1.532625,482.782166,3.087341,0.000000,41.660025,44.965840,6998.952221,1.000000,0.260174,-0.491123,-0.320969
13.900000,0.280894,-0.242158,0.095325,6.588783,1.301305,1.586842,482.766846,3.072052,0.000000,41.660030,44.965845,6998.921959,-0.063965,0.465014,0.434183,-0.340853
14.000000,0.288321,-0.255018,0.094688,6.837695,0.723648,1.660956,482.681732,2.986908,0.000000,41.660035,44.965851,6998.921959,1.000000,0.392922,-1.000000,1.000000
14.100000,0.300078,-0.264799,0.088879,7.088219,0.162501,1.632770,482.536530,2.841736,0.000000,41.660039,44.965856,6998.893770,0.123343,0.289613,1.000000,1.000000
14.200000,0.323848,-0.272681,0.072715,7.364762,-0.293293,1.496748,482.317017,2.622192,0.000000,41.660044,44.965861,6998.893770,-0.212122,-1.000000,-1.000000,-0.489188
14.300000,0.349378,-0.274683,0.052634,7.592458,0.069408,1.362926,482.082275,2.387451,0.000000,41.660049,44.965866,6998.867073,-0.602528,-0.546027,0.005559,-1.000000
14.400000,0.362206,-0.268262,0.039366,7.791138,0.780790,1.340345,481.917786,2.222961,0.000000,41.660055,44.965872,6998.867073,-0.417059,-0.580643,-0.386358,0.441270
14.500000,0.369842,-0.255265,0.026080,7.718818,1.754226,1.233802,481.829956,2.135132,0.000000,41.660060,44.965878,6998.841702,-0.929761,-1.000000,1.000000,0.833607
14.600000,0.384759,-0.240993,0.004423,8.014646,2.497451,1.099445,481.841766,2.146942,0.000000,41.660066,44.965884,6998.841702,-0.886546,0.113714,-0.476159,-1.000000
14.700000,0.398869,-0.229049,-0.010144,8.405526,3.046938,1.011713,481.922729,2.227905,0.000000,41.660072,44.965890,6998.819607,1.000000,0.717287,0.305109,-0.525875
14.800000,0.404764,-0.217834,-0.015921,8.726054,2.742088,1.030440,482.023926,2.329102,0.000000,41.660079,44.965897,6998.819607,-0.410835,0.192673,-0.173023,0.855689
14.900000,0.407559,-0.206699,-0.016378,8.987492,2.016599,0.997539,482.070984,2.376160,0.000000,41.660085,44.965903,6998.799625,-1.000000,0.301624,-0.172239,0.733664
15.000000,0.418390,-0.196062,-0.016662,9.247590,1.914131,0.844713,482.076294,2.381470,0.000000,41.660092,44.965910,6998.799625,-0.415790,1.000000,-0.018357,0.509045
15.100000,0.439138,-0.185548,-0.014650,9.561631,2.278574,0.588053,482.106079,2.411255,0.000000,41.660099,44.965917,6998.779644,-1.000000,-1.000000,-0.080770,0.339578
15.200000,0.467293,-0.177388,-0.010528,9.900829,2.813529,0.235112,482.177887,2.483063,0.000000,41.660106,44.965924,6998.779644,-1.000000,-1.000000,1.000000,1.000000
15.300000,0.500528,-0.172722,-0.005999,10.195626,3.384465,-0.155402,482.306396,2.611572,0.000000,41.660113,44.965931,6998.758129,-0.658600,-0.803208,1.000000,-1.000000
15.400000,0.536611,-0.170012,0.001278,10.471019,3.846892,-0.566770,482.490814,2.795990,0.000000,41.660121,44.965939,6998.758129,-1.000000,0.198506,-0.621194,0.985245
15.500000,0.573785,-0.169194,0.009224,10.695621,3.908726,-1.004774,482.704742,3.009918,0.000000,41.660129,44.965946,6998.734541,0.085340,0.584084,1.000000,0.480439
15.600000,0.615067,-0.169249,0.012792,10.865610,3.760284,-1.489873,482.894531,3.199677,0.000000,41.660137,44.965954,6998.734541,-1.000000,0.878824,-0.221180,0.841643
15.700000,0.665522,-0.170078,0.011969,11.037700,3.938297,-2.071068,483.087799,3.393005,0.000000,41.660146,44.965962,6998.708342,-0.820068,1.000000,1.000000,0.440876
15.800000,0.721559,-0.172479,0.007463,11.170110,4.251378,-2.715844,483.316376,3.621552,0.000000,41.660154,44.965971,6998.708342,1.000000,0.529727,-0.789892,1.000000
15.900000,0.778781,-0.174661,-0.001727,11.191724,3.850865,-3.340936,483.518616,3.823792,0.000000,41.660163,44.965979,6998.681437,-0.819186,-1.000000,-0.761496,0.460253
16.000000,0.842824,-0.175258,-0.018132,11.151044,3.202172,-4.011796,483.669739,3.974915,0.000000,41.660172,44.965988,6998.681437,1.000000,-0.601609,-0.375311,0.736296
16.100000,0.906631,-0.173727,-0.038949,11.071359,2.564667,-4.650637,483.749237,4.054413,0.000000,41.660180,44.965997,6998.653372,-0.618347,1.000000,0.710731,-0.976630
16.200000,0.960920,-0.170492,-0.057800,10.987641,1.991308,-5.173513,483.759460,4.064636,0.000000,41.660189,44.966006,6998.653372,1.000000,0.860215,0.300979,0.415579
16.300000,1.011611,-0.165505,-0.074427,10.895162,1.282635,-5.689491,483.702576,4.007751,0.000000,41.660198,44.966015,6998.623442,0.294285,0.959189,-0.243466,0.021278
16.400000,1.061444,-0.158677,-0.089839,10.769824,0.574096,-6.238385,483.563843,3.869049,0.000000,41.660206,44.966024,6998.623442,-1.000000,-0.921529,0.198293,1.000000
16.500000,1.110771,-0.150432,-0.101636,10.611979,0.439781,-6.797995,483.388000,3.693176,0.000000,41.660215,44.966033,6998.593511,-1.000000,-1.000000,1.000000,-0.097949
16.600000,1.165162,-0.139941,-0.102728,10.427275,1.237310,-7.405383,483.234772,3.539917,0.000000,41.660224,44.966042,6998.593511,-1.000000,-0.805518,-0.358111,-0.688818
16.700000,1.216687,-0.130063,-0.088336,10.267078,1.879533,-7.991573,483.185303,3.490448,0.000000,41.660233,44.966052,6998.562917,-0.297064,1.000000,0.156717,0.873346
16.800000,1.262673,-0.122581,-0.071189,10.087698,1.868995,-8.523233,483.183136,3.488312,0.000000,41.660242,44.966062,6998.562917,0.333218,0.170491,-0.195675,0.140797
16.900000,1.311603,-0.115804,-0.055471,9.842711,1.574085,-9.041739,483.177338,3.482513,0.000000,41.660251,44.966072,6998.531038,-1.000000,1.000000,-1.000000,0.043283
17.000000,1.357265,-0.110474,-0.040809,9.619504,1.593167,-9.503924,483.175323,3.480530,0.000000,41.660260,44.966083,6998.531038,-0.452971,-0.240990,-0.372052,1.000000
17.100000,1.401295,-0.107598,-0.029739,9.414666,1.934910,-9.966768,483.213074,3.518250,0.000000,41.660269,44.966094,7000.034529,-0.918874,-1.000000,-0.489294,0.135071
17.200000,1.448832,-0.107536,-0.023233,9.161383,2.251765,-10.419468,483.297943,3.603119,0.000000,41.660278,44.966105,7000.034529,-0.350801,-0.030787,-0.296234,-0.886079
17.300000,1.487978,-0.109899,-0.017616,8.932709,2.204125,-10.686834,483.408081,3.713257,0.000000,41.660287,44.966116,7000.004060,0.273671,0.579669,1.000000,-0.768232
17.400000,1.508598,-0.112936,-0.009323,8.847767,1.665508,-10.759821,483.486450,3.791626,0.000000,41.660296,44.966128,7000.004060,0.366944,0.340287,-0.279303,1.000000
17.500000,1.522421,-0.116140,-0.002207,8.827955,0.853090,-10.815717,483.506287,3.811462,0.000000,41.660305,44.966139,6999.973632,1.000000,-0.706139,-0.936561,-1.000000
17.600000,1.533990,-0.118904,-0.000300,8.836069,0.126524,-10.831619,483.445374,3.750519,0.000000,41.660314,44.966151,6999.973632,-0.269708,-0.595152,0.308585,0.643290
17.700000,1.539347,-0.121367,-0.001071,8.924174,-0.162746,-10.811402,483.336517,3.641693,0.000000,41.660323,44.966163,6999.945940,0.061593,0.735752,0.613872,-0.183056
17.800000,1.542291,-0.124163,-0.004311,9.055520,-0.270352,-10.791108,483.202454,3.507629,0.000000,41.660331,44.966175,6999.945940,0.277559,-1.000000,-0.654003,1.000000
17.900000,1.545583,-0.127011,-0.011274,9.195770,-0.144278,-10.820027,483.049164,3.354309,0.000000,41.660340,44.966187,6999.919823,-1.000000,-0.069821,0.078362,1.000000
18.000000,1.553771,-0.130163,-0.021104,9.306471,0.604604,-10.927329,482.934937,3.240112,0.000000,41.660349,44.966199,6999.919823,-1.000000,-0.053592,0.938832,1.000000
18.100000,1.568568,-0.135225,-0.030628,9.408532,1.954825,-11.099316,482.915985,3.221161,0.000000,41.660357,44.966212,6999.895075,1.000000,0.355514,-0.132675,0.540420
18.200000,1.586376,-0.142416,-0.039763,9.415646,2.174199,-11.256563,482.959534,3.264679,0.000000,41.660366,44.966225,6999.895075,1.000000,1.000000,-0.750372,0.434478
18.300000,1.601976,-0.149576,-0.048851,9.398404,1.828822,-11.365526,482.971436,3.276642,0.000000,41.660375,44.966239,6999.873560,-0.463252,1.000000,0.235216,0.319527
18.400000,1.616786,-0.157027,-0.057646,9.409870,1.541866,-11.478681,482.929291,3.234436,0.000000,41.660383,44.966252,6999.873560,0.040329,0.197956,0.745645,0.653097
18.500000,1.632227,-0.164478,-0.063643,9.436684,1.547281,-11.620013,482.860779,3.165955,0.000000,41.660392,44.966266,6999.854117,-0.254423,-0.498157,-1.000000,0.378263
18.600000,1.648036,-0.171452,-0.065916,9.447213,1.506597,-11.769845,482.781342,3.086517,0.000000,41.660400,44.966279,6999.854117,0.017532,-0.886745,0.939269,0.512404
18.700000,1.665018,-0.178674,-0.063048,9.459024,1.595907,-11.926593,482.689240,2.994415,0.000000,41.660409,44.966294,6999.834385,-0.620978,0.265235,1.000000,0.037004
18.800000,1.680500,-0.185683,-0.052835,9.497323,1.761553,-12.072063,482.611145,2.916321,0.000000,41.660417,44.966308,6999.834385,-0.193512,-0.390941,0.385400,0.335315
18.900000,1.691875,-0.192304,-0.037712,9.568076,1.585216,-12.156236,482.551147,2.856323,0.000000,41.660425,44.966323,6999.813325,0.523558,0.578502,1.000000,-0.946124
19.000000,1.693754,-0.199100,-0.017607,9.750341,0.923422,-12.089006,482.453125,2.758301,0.000000,41.660434,44.966337,6999.813325,0.418167,0.281310,0.565754,-0.012312
19.100000,1.683429,-0.205005,0.004781,10.074812,0.271240,-11.908673,482.299744,2.604919,0.000000,41.660442,44.966352,6999.791147,0.202465,0.903370,0.940514,0.613819
19.200000,1.671689,-0.209085,0.023489,10.402385,-0.315618,-11.714042,482.112762,2.417938,0.000000,41.660450,44.966367,6999.791147,1.000000,-0.238259,-1.000000,-0.771155
19.300000,1.653173,-0.211509,0.042686,10.815600,-1.118280,-11.358502,481.854340,2.159515,0.000000,41.660458,44.966382,6999.767766,0.665277,1.000000,0.645830,-0.010332
19.400000,1.633061,-0.208979,0.009043,9.958409,0.078116,-10.160633,481.579437,1.884583,0.000000,41.660465,44.966397,6999.767766,-0.964680,-1.000000,0.576110,1.000000
19.500000,1.635823,-0.200115,-0.066611,8.069461,2.499511,-8.552340,481.500641,1.805817,0.000000,41.660472,44.966410,6999.744759,-0.767903,0.286099,0.720486,-0.906732
19.600000,1.657386,-0.185467,-0.140414,6.618745,4.651649,-7.200636,481.652344,1.957520,0.000000,41.660477,44.966420,6999.744759,-0.772679,0.248210,0.990635,-0.189563
19.700000,1.679181,-0.171178,-0.190441,6.751223,4.989080,-7.196983,481.897125,2.202332,0.000000,41.660483,44.966431,6999.722373,0.887405,0.157726,1.000000,-0.500062
19.800000,1.691323,-0.159376,-0.211912,6.880152,4.595422,-7.319367,482.097046,2.402222,0.000000,41.660488,44.966442,6999.722373,-1.000000,-0.024276,0.145377,1.000000
19.900000,1.704478,-0.147355,-0.222429,7.018324,4.394787,-7.578352,482.262939,2.568115,0.000000,41.660493,44.966453,6999.700858,-0.282979,0.274103,0.347731,-0.828189
20.000000,1.719408,-0.137118,-0.221644,7.143833,4.394222,-7.897797,482.424103,2.729279,0.000000,41.660499,44.966464,6999.700858,-0.492264,0.151130,0.148806,0.741922
20.100000,1.732057,-0.130194,-0.210345,7.265270,4.436764,-8.209206,482.573639,2.878815,0.000000,41.660504,44.966475,6999.681540,-1.000000,0.393527,-1.000000,-1.000000
20.200000,1.741909,-0.127111,-0.189233,7.410304,4.449871,-8.510477,482.756744,3.061920,0.000000,41.660510,44.966487,6999.681540,1.000000,-0.171073,-1.000000,-0.158341
20.300000,1.741220,-0.128424,-0.161981,7.579693,3.720088,-8.679777,482.918060,3.223236,0.000000,41.660516,44.966499,6999.662305,-0.609760,0.187298,0.706614,-0.021301
20.400000,1.737564,-0.131418,-0.137527,7.761555,2.998051,-8.846633,483.011230,3.316406,0.000000,41.660521,44.966512,6999.662305,0.197346,-1.000000,1.000000,1.000000
20.500000,1.741725,-0.135306,-0.116748,7.915128,2.706746,-9.047640,483.073059,3.378235,0.000000,41.660527,44.966524,6999.641163,-1.000000,-0.710631,1.000000,-1.000000
20.600000,1.749232,-0.141037,-0.097580,8.064888,2.784652,-9.232080,483.130981,3.436157,0.000000,41.660533,44.966537,6999.641163,-1.000000,-1.000000,0.464951,1.000000
20.700000,1.759984,-0.149174,-0.080444,8.211243,3.406054,-9.460316,483.233795,3.538971,0.000000,41.660538,44.966550,6999.618487,-0.691372,-0.780691,0.748277,0.830241
20.800000,1.781409,-0.160171,-0.066531,8.235532,3.733723,-9.778625,483.400421,3.705536,0.000000,41.660544,44.966563,6999.618487,0.246060,-0.859108,0.199173,-0.251072
20.900000,1.809494,-0.171784,-0.057288,8.132116,3.328658,-10.072749,483.558563,3.863739,0.000000,41.660550,44.966577,6999.593945,-0.326655,0.397023,1.000000,1.000000
21.000000,1.840203,-0.181959,-0.053279,7.987928,2.795511,-10.359956,483.658905,3.964081,0.000000,41.660556,44.966591,6999.593945,0.587702,-1.000000,0.960987,0.160273
21.100000,1.878353,-0.191485,-0.054278,7.796427,2.411616,-10.682774,483.708923,4.014099,0.000000,41.660561,44.966605,6999.567041,-1.000000,0.074003,0.821784,0.642184
21.200000,1.920959,-0.199932,-0.058496,7.574994,2.344141,-11.042505,483.730072,4.035248,0.000000,41.660567,44.966619,6999.567041,0.268751,1.000000,-0.532010,0.987805
21.300000,1.968350,-0.206802,-0.066031,7.294106,2.424043,-11.438435,483.743774,4.048950,0.000000,41.660572,44.966634,6999.539515,-1.000000,-0.393624,-0.017115,0.681457
21.400000,2.025278,-0.212996,-0.076801,6.897388,2.359627,-11.868963,483.751953,4.057129,0.000000,41.660578,44.966649,6999.539515,1.000000,0.679572,0.964283,-0.416140
21.500000,2.078761,-0.217792,-0.086858,6.492604,1.840047,-12.182094,483.719025,4.024170,0.000000,41.660583,44.966663,6999.510952,0.792375,0.579663,1.000000,-1.000000
21.600000,2.114786,-0.221454,-0.090387,6.265302,1.006833,-12.346429,483.617340,3.922516,0.000000,41.660588,44.966678,6999.510952,1.000000,1.000000,1.000000,0.455090
21.700000,2.141057,-0.224517,-0.089554,6.171007,0.154358,-12.472312,483.421021,3.726196,0.000000,41.660593,44.966693,6999.480607,0.351338,0.029932,-0.190535,-1.000000
21.800000,2.155164,-0.226763,-0.082498,6.221425,-0.509499,-12.489580,483.150665,3.455872,0.000000,41.660598,44.966708,6999.480607,-0.010895,-1.000000,-1.000000,-0.189274
21.900000,2.153375,-0.227712,-0.065875,6.438948,-0.808811,-12.425431,482.864014,3.169189,0.000000,41.660603,44.966723,6999.451589,0.094010,0.064219,-0.007707,0.194429
22.000000,2.146490,-0.225914,-0.044948,6.714063,-1.108953,-12.362205,482.550537,2.855713,0.000000,41.660608,44.966738,6999.451589,0.255906,1.000000,1.000000,0.004456
22.100000,2.134817,-0.220647,-0.023115,7.017980,-1.363234,-12.193921,482.229279,2.534454,0.000000,41.660612,44.966753,6999.424684,-0.118281,-1.000000,0.844444,-1.000000
22.200000,2.109574,-0.211929,0.002108,7.452777,-1.699875,-11.902100,481.927612,2.232788,0.000000,41.660617,44.966768,6999.424684,1.000000,1.000000,0.422397,0.886091
22.300000,2.079841,-0.196177,0.008386,7.379903,-1.403873,-11.092280,481.600800,1.905975,0.000000,41.660621,44.966784,6999.400143,1.000000,-0.190758,1.000000,0.315689
22.400000,2.079629,-0.154552,-0.065773,5.694641,1.120872,-9.369753,481.425812,1.730988,0.000000,41.660625,44.966797,6999.400143,-0.408955,-0.592112,1.000000,1.000000
22.500000,2.104082,-0.097096,-0.102319,4.581286,2.437118,-8.250406,481.480591,1.785767,0.000000,41.660628,44.966808,6999.379001,-0.384286,-0.897304,-0.733042,0.071336
22.600000,2.138990,-0.034470,-0.148345,4.415963,2.389072,-8.344343,481.594971,1.900146,0.000000,41.660631,44.966819,6999.379001,0.199867,-0.931039,-0.175741,-0.123555
22.700000,2.170706,0.018537,-0.172969,4.270619,2.281977,-8.605855,481.684021,1.989197,0.000000,41.660635,44.966830,6999.360097,-1.000000,0.921285,-1.000000,0.945967
22.800000,2.199589,0.060371,-0.184870,4.082744,2.241812,-8.887569,481.764465,2.069611,0.000000,41.660638,44.966840,6999.360097,0.314552,-1.000000,0.383326,-0.340436
22.900000,2.229026,0.097357,-0.188811,3.823747,2.132857,-9.192863,481.843719,2.148895,0.000000,41.660641,44.966851,6999.342479,-1.000000,-0.998397,1.000000,1.000000
23.000000,2.258386,0.127860,-0.185779,3.518109,2.044243,-9.508818,481.916199,2.221375,0.000000,41.660645,44.966863,6999.342479,0.180311,1.000000,-0.652956,1.000000
23.100000,2.290313,0.151935,-0.177852,3.135511,1.720891,-9.815777,481.975220,2.280396,0.000000,41.660649,44.966874,6999.326809,0.257274,1.000000,0.767479,1.000000
23.200000,2.329281,0.173765,-0.164887,2.631874,1.193946,-10.100632,481.991913,2.297058,0.000000,41.660652,44.966885,6999.326809,-0.786049,0.232165,-0.145860,-0.787543
23.300000,2.368370,0.189454,-0.142850,2.183209,1.359149,-10.294248,481.998596,2.303772,0.000000,41.660656,44.966897,6999.311678,-1.000000,0.849321,-0.169523,-0.050445
23.400000,2.396457,0.195604,-0.115410,1.844208,1.623608,-10.455406,482.057098,2.362274,0.000000,41.660660,44.966908,6999.311678,1.000000,0.106545,0.785219,1.000000
23.500000,2.425285,0.196491,-0.090623,1.409023,1.125290,-10.624323,482.123108,2.428284,0.000000,41.660664,44.966920,6999.294723,-0.730839,-0.750128,-1.000000,0.142338
23.600000,2.457739,0.193793,-0.071672,0.935852,0.632647,-10.737674,482.142212,2.447388,0.000000,41.660668,44.966931,6999.294723,0.189482,-1.000000,0.031930,0.757015
23.700000,2.492157,0.187175,-0.056758,0.499701,0.644076,-10.833337,482.148376,2.453552,0.000000,41.660673,44.966943,6999.275488,-1.000000,0.627122,-0.417360,0.790319
23.800000,2.534685,0.175737,-0.045040,-0.039985,0.578742,-10.901706,482.163361,2.468536,0.000000,41.660677,44.966954,6999.275488,1.000000,1.000000,1.000000,0.488186
23.900000,2.580282,0.161634,-0.039326,-0.636748,0.246092,-10.898174,482.152557,2.457733,0.000000,41.660682,44.966966,6999.253724,-1.000000,-0.104578,-0.222589,0.111991
24.000000,2.623094,0.146685,-0.037858,-1.157111,0.210625,-10.859249,482.115570,2.420746,0.000000,41.660686,44.966977,6999.253724,-1.000000,-1.000000,-1.000000,0.328666
24.100000,2.669984,0.127865,-0.036738,-1.640147,0.953855,-10.837598,482.109222,2.414398,0.000000,41.660691,44.966989,6999.229183,-0.682918,0.187210,-1.000000,0.974217
24.200000,2.722170,0.105963,-0.039303,-2.210444,1.455036,-10.789765,482.176636,2.481812,0.000000,41.660695,44.967000,6999.229183,0.583754,0.040274,-0.313590,0.111500
24.300000,2.773995,0.085093,-0.046503,-2.805671,1.349748,-10.669596,482.245117,2.550293,0.000000,41.660700,44.967012,6999.203605,-1.000000,0.786919,-0.204890,0.712275
24.400000,2.831067,0.063499,-0.056618,-3.415294,1.364450,-10.519115,482.299591,2.604767,0.000000,41.660704,44.967024,6999.203605,-0.308603,-0.734843,-0.123787,0.537048
24.500000,2.891200,0.042289,-0.067502,-4.027005,1.385517,-10.321826,482.359528,2.664703,0.000000,41.660709,44.967035,6999.176576,0.673131,1.000000,0.002457,-0.349427
24.600000,2.948111,0.023832,-0.077825,-4.615642,0.858841,-10.097890,482.384460,2.689636,0.000000,41.660714,44.967047,6999.176576,1.000000,0.389631,0.484876,0.938514
24.700000,3.009654,0.006971,-0.088726,-5.216122,0.198580,-9.846254,482.343536,2.648712,0.000000,41.660718,44.967059,6999.147599,-0.209859,-1.000000,0.108030,0.166394
24.800000,3.073733,-0.006871,-0.097802,-5.790319,-0.300026,-9.554628,482.243835,2.549011,0.000000,41.660723,44.967071,6999.147599,0.665478,-1.000000,-0.191926,0.090175
24.900000,3.134269,-0.017459,-0.102212,-6.300849,-0.826825,-9.250720,482.108490,2.413666,0.000000,41.660727,44.967082,6999.118373,0.375598,1.000000,0.270817,0.173915
25.000000,3.198076,-0.026193,-0.102427,-6.802960,-1.313526,-8.893610,481.915558,2.220734,0.000000,41.660732,44.967094,6999.118373,-0.141556,-0.073321,-0.445123,1.000000
25.100000,3.262841,-0.032608,-0.094111,-7.273496,-1.489731,-8.494295,481.705170,2.010345,0.000000,41.660736,44.967106,6999.088443,0.097311,-0.921640,-1.000000,1.000000
25.200000,3.326411,-0.036757,-0.079824,-7.715422,-1.699524,-8.058142,481.512665,1.817841,0.000000,41.660741,44.967118,6999.088443,1.000000,1.000000,0.976571,-0.224083
25.300000,3.403127,-0.019741,-0.044581,-7.731559,-1.245013,-6.726739,481.326599,1.631775,0.000000,41.660745,44.967129,6999.058305,0.720433,-0.987261,-0.624409,0.052272
25.400000,3.486134,0.042216,-0.008380,-7.454141,-0.105975,-5.237621,481.233643,1.538818,0.000000,41.660749,44.967139,6999.058305,-1.000000,0.478900,0.336464,-0.032797
25.500000,3.541850,0.108790,-0.025628,-6.655065,1.669965,-4.058864,481.258087,1.563263,0.000000,41.660752,44.967148,6999.031732,1.000000,1.000000,1.000000,-0.390840
25.600000,3.593000,0.176106,-0.024485,-6.531700,2.009481,-3.467542,481.345306,1.650482,0.000000,41.660755,44.967156,6999.031732,1.000000,-0.538924,1.000000,-1.000000
25.700000,3.618657,0.234708,-0.036008,-6.493700,2.060688,-3.083551,481.402466,1.707642,0.000000,41.660759,44.967164,6999.008186,-0.794716,0.535339,0.236875,-1.000000
25.800000,3.619471,0.282051,-0.050408,-6.412413,2.197535,-2.904612,481.428009,1.733185,0.000000,41.660762,44.967172,6999.008186,1.000000,-0.659837,0.444139,-0.633507
25.900000,3.594348,0.292844,-0.071810,-6.038120,2.263637,-2.895747,481.463348,1.768524,0.000000,41.660765,44.967179,6998.986878,-0.968742,-0.325334,0.818004,-0.454005
26.000000,3.561355,0.292116,-0.088589,-6.047915,2.276336,-3.092199,481.476929,1.782104,0.000000,41.660768,44.967186,6998.986878,-0.604223,0.558527,-1.000000,-0.100184
26.100000,3.533350,0.287655,-0.095433,-5.793046,3.085740,-3.246393,481.523346,1.828522,0.000000,41.660772,44.967194,6998.968513,-1.000000,-1.000000,1.000000,0.644956
26.200000,3.515030,0.283555,-0.092715,-5.867382,3.543605,-3.501950,481.657776,1.962952,0.000000,41.660775,44.967201,6998.968513,0.573984,0.223460,0.042566,-0.466616
26.300000,3.500197,0.276064,-0.091683,-6.062219,3.112957,-3.712729,481.787018,2.092163,0.000000,41.660778,44.967209,6998.951890,1.000000,-1.000000,1.000000,0.681603
26.400000,3.489594,0.267492,-0.093482,-6.267257,2.469076,-3.883444,481.850586,2.155731,0.000000,41.660782,44.967217,6998.951890,-1.000000,0.859481,0.441327,0.360650
26.500000,3.484708,0.256724,-0.097015,-6.447235,2.300692,-4.025629,481.871796,2.176971,0.000000,41.660785,44.967225,6998.935598,-0.047258,-0.838198,0.920747,-0.353294
26.600000,3.483850,0.242936,-0.098477,-6.619683,2.347601,-4.150125,481.899628,2.204773,0.000000,41.660789,44.967233,6998.935598,-0.543925,-1.000000,-0.496603,0.834881
26.700000,3.489539,0.228079,-0.098776,-6.793090,2.449571,-4.256782,481.930237,2.235443,0.000000,41.660793,44.967242,6998.918601,-0.779108,-1.000000,0.489984,0.967077
26.800000,3.508023,0.210804,-0.098885,-7.004112,2.892156,-4.305482,481.995514,2.300690,0.000000,41.660796,44.967250,6998.918601,-1.000000,-0.297198,-0.942605,-1.000000
26.900000,3.532970,0.191483,-0.098678,-7.239302,3.356586,-4.244548,482.125122,2.430298,0.000000,41.660800,44.967260,6998.898744,1.000000,-0.410847,-0.544402,-0.688542
27.000000,3.552658,0.172060,-0.097598,-7.490947,3.006351,-4.153510,482.262360,2.567535,0.000000,41.660804,44.967269,6998.898744,0.298917,0.855718,-0.418007,1.000000
27.100000,3.574498,0.152185,-0.096731,-7.743695,2.482316,-4.105730,482.366547,2.671692,0.000000,41.660808,44.967278,6998.875737,-1.000000,-0.665993,0.968050,0.915160
27.200000,3.608148,0.133849,-0.096829,-7.981730,2.414898,-4.000417,482.452667,2.757813,0.000000,41.660812,44.967288,6998.875737,-1.000000,1.000000,0.591581,-0.788634
27.300000,3.647271,0.116585,-0.095876,-8.174225,2.901398,-3.803969,482.574463,2.879639,0.000000,41.660816,44.967298,6998.851444,-0.228213,-1.000000,-0.607112,-0.441149
27.400000,3.685647,0.097476,-0.091566,-8.383415,2.901181,-3.546054,482.743835,3.049011,0.000000,41.660819,44.967308,6998.851444,-1.000000,-1.000000,0.182750,-1.000000
27.500000,3.718157,0.077848,-0.082920,-8.535785,2.976711,-3.368856,482.933441,3.238617,0.000000,41.660823,44.967318,6998.825493,-0.431834,0.871520,-0.396741,0.372835
27.600000,3.749837,0.059255,-0.072133,-8.671982,2.905526,-3.213464,483.137573,3.442749,0.000000,41.660827,44.967328,6998.825493,-0.435321,-1.000000,0.080600,0.810892
27.700000,3.790808,0.040430,-0.061243,-8.815853,2.857530,-3.000803,483.360718,3.665894,0.000000,41.660830,44.967338,6998.797345,-1.000000,-0.542874,1.000000,-0.213044
27.800000,3.839348,0.022509,-0.052372,-8.945463,2.921964,-2.690077,483.611786,3.916962,0.000000,41.660834,44.967348,6998.797345,-0.287873,0.723544,0.406883,0.169733
27.900000,3.888543,0.006475,-0.045248,-9.051337,2.833922,-2.337566,483.866089,4.171265,0.000000,41.660837,44.967358,6998.768907,-0.384987,-0.682480,-1.000000,0.860471
28.000000,3.948071,-0.008876,-0.041104,-9.165311,2.347145,-1.902695,484.126038,4.431213,0.000000,41.660841,44.967368,6998.768907,1.000000,0.715794,-1.000000,1.000000
28.100000,4.017607,-0.021231,-0.043541,-9.260070,1.578629,-1.330788,484.332703,4.637878,0.000000,41.660844,44.967378,6998.739516,-0.652834,1.000000,0.942958,-1.000000
28.200000,4.083935,-0.030107,-0.049448,-9.286575,0.899594,-0.722241,484.469147,4.774323,0.000000,41.660847,44.967389,6998.739516,1.000000,-1.000000,-1.000000,-1.000000
28.300000,4.146642,-0.037125,-0.055015,-9.259240,0.097944,-0.140383,484.551514,4.856720,0.000000,41.660851,44.967399,6998.708424,0.497334,-1.000000,1.000000,1.000000
28.400000,4.209028,-0.041102,-0.061638,-9.190155,-0.726107,0.387749,484.553864,4.859039,0.000000,41.660854,44.967409,6998.708424,-0.457308,0.783373,0.525677,-1.000000
28.500000,4.267993,-0.042460,-0.067513,-9.064534,-1.097891,0.899567,484.503296,4.808472,0.000000,41.660857,44.967419,6998.677623,0.143272,0.779534,1.000000,-1.000000
28.600000,4.321805,-0.042942,-0.066028,-8.892672,-1.217344,1.401025,484.432159,4.737305,0.000000,41.660860,44.967429,6998.677623,-0.434746,-0.466839,0.673976,0.001123
28.700000,4.371002,-0.042893,-0.056799,-8.696800,-1.178773,1.820025,484.354858,4.660034,0.000000,41.660864,44.967438,6998.646242,-1.000000,1.000000,0.527319,-0.666346
28.800000,4.417244,-0.043158,-0.042753,-8.455415,-0.475383,2.195237,484.317383,4.622559,0.000000,41.660867,44.967448,6998.646242,-0.505705,0.664099,0.095430,-0.458461
28.900000,4.465285,-0.044878,-0.024737,-8.169678,0.318413,2.536061,484.356842,4.662018,0.000000,41.660870,44.967457,6998.613824,-1.000000,-0.546177,-0.401895,0.938368
29.000000,4.520195,-0.048292,-0.010680,-7.864159,0.701435,2.894186,484.459625,4.764801,0.000000,41.660873,44.967467,6998.613824,1.000000,-0.256098,-0.687720,-0.478109
29.100000,4.577041,-0.051580,-0.003221,-7.590985,0.350015,3.322840,484.552948,4.858154,0.000000,41.660876,44.967476,6998.582194,0.059636,0.397053,0.069761,-0.471819
29.200000,4.633458,-0.053720,0.001147,-7.310943,-0.330684,3.807178,484.593842,4.899017,0.000000,41.660879,44.967485,6998.582194,0.869481,0.367124,0.182661,-1.000000
29.300000,4.679984,-0.054168,0.004506,-7.040931,-0.916859,4.228864,484.565948,4.871124,0.000000,41.660882,44.967493,6998.550605,-0.663800,-0.349551,-0.805971,-1.000000
29.400000,4.711777,-0.053418,0.008861,-6.812698,-1.242170,4.547143,484.494354,4.799530,0.000000,41.660885,44.967502,6998.550605,1.000000,0.327754,-1.000000,0.092260
29.500000,4.734902,-0.051657,0.014172,-6.622700,-1.678469,4.769903,484.378540,4.683716,0.000000,41.660888,44.967511,6998.518312,0.056250,-1.000000,1.000000,0.439445
29.600000,4.758913,-0.048858,0.014472,-6.432914,-2.123642,4.936451,484.206970,4.512146,0.000000,41.660891,44.967520,6998.518312,-1.000000,1.000000,-0.329872,-1.000000
29.700000,4.783185,-0.045564,0.010113,-6.230539,-2.235955,5.076696,484.019867,4.325073,0.000000,41.660894,44.967529,6998.487511,1.000000,0.788171,0.165823,0.961537
29.800000,4.811672,-0.041635,0.001452,-6.008552,-2.461068,5.216913,483.808105,4.113251,0.000000,41.660898,44.967537,6998.487511,0.117164,1.000000,0.487587,-0.684438
29.900000,4.842765,-0.036932,-0.011576,-5.794608,-3.017650,5.345674,483.555176,3.860352,0.000000,41.660901,44.967546,6998.459238,1.000000,-1.000000,-0.535368,1.000000
30.000000,4.873515,-0.031612,-0.026407,-5.593015,-3.569204,5.449586,483.268036,3.573212,0.000000,41.660904,44.967554,6998.459238,0.355506,1.000000,1.000000,-0.953932
30.100000,4.906245,-0.025048,-0.041864,-5.377272,-3.887690,5.539007,482.916534,3.221741,0.000000,41.660907,44.967562,6998.433329,-0.218798,-0.054466,1.000000,1.000000
30.200000,4.939892,-0.017870,-0.051641,-5.147926,-3.808109,5.624114,482.563812,2.868988,0.000000,41.660910,44.967571,6998.433329,0.675591,0.223790,-0.983560,0.730103
30.300000,4.978474,-0.010460,-0.057837,-4.905852,-4.015792,5.690557,482.230103,2.535278,0.000000,41.660914,44.967579,6998.411150,1.000000,-0.741273,-0.773480,1.000000
30.400000,5.028029,-0.001592,-0.067350,-4.636368,-4.838697,5.779601,481.824707,2.129822,0.000000,41.660917,44.967587,6998.411150,0.940273,0.320697,-0.374626,0.397340
30.500000,5.081946,0.010113,-0.076916,-4.408601,-6.464297,5.830554,481.295746,1.600922,0.000000,41.660920,44.967595,6998.391418,1.000000,-0.969017,-0.349993,1.000000
30.600000,5.135837,0.030334,-0.065577,-4.257831,-8.163482,5.960267,480.624390,0.929565,0.000000,41.660923,44.967603,6998.391418,-1.000000,0.174320,-0.657281,1.000000
30.700000,5.195767,0.053991,-0.053220,-4.129932,-8.962698,6.275438,479.758972,0.064148,0.000000,41.660926,44.967611,6998.373343,0.024614,0.205222,-0.819476,0.359377
30.800000,5.271856,0.058292,0.014608,-1.991022,2.209077,5.293537,479.856445,0.161621,0.000000,41.660928,44.967618,6998.373343,0.527391,1.000000,0.329799,1.000000
30.900000,5.332672,0.058683,0.058006,-1.625355,1.944506,5.125480,480.033539,0.338745,0.000000,41.660931,44.967624,6998.357590,1.000000,0.238700,-1.000000,1.000000
31.000000,5.388202,0.060362,0.089240,-1.294253,1.542147,4.951719,480.157196,0.462372,0.000000,41.660933,44.967629,6998.357590,-1.000000,-0.149858,-0.484977,1.000000
31.100000,5.438522,0.060539,0.118186,-0.990965,1.478150,4.856082,480.249512,0.554688,0.000000,41.660935,44.967635,6998.343330,-0.243310,0.108792,0.177077,0.196204
31.200000,5.480337,0.053780,0.131690,-0.753741,1.549366,4.927779,480.333160,0.638336,0.000000,41.660937,44.967640,6998.343330,0.325904,-0.118540,-1.000000,0.944278
31.300000,5.517426,0.045367,0.139529,-0.544876,1.245197,4.790265,480.404266,0.709442,0.000000,41.660939,44.967645,6998.330023,0.629877,-1.000000,1.000000,0.275543
31.400000,5.545391,0.044690,0.157738,-0.373232,1.015453,4.412217,480.444977,0.750153,0.000000,41.660941,44.967650,6998.330023,0.723784,0.206902,1.000000,-1.000000
31.500000,5.570844,0.045018,0.192974,-0.225392,1.004232,4.024023,480.468018,0.773193,0.000000,41.660943,44.967655,6998.318042,-1.000000,-1.000000,-0.226203,1.000000
31.600000,5.594510,0.041178,0.220900,-0.090843,1.248130,4.038748,480.491241,0.796417,0.000000,41.660945,44.967659,6998.318042,-1.000000,-1.000000,0.223705,1.000000
31.700000,5.614890,0.026648,0.225968,0.042354,1.380820,4.193659,480.536072,0.841248,0.000000,41.660947,44.967663,6998.306518,0.847770,0.647827,-0.660382,1.000000
31.800000,5.630881,0.009697,0.220831,0.140855,1.202406,4.134706,480.568542,0.873718,0.000000,41.660949,44.967668,6998.306518,-0.411030,0.503464,-0.269689,1.000000
31.900000,5.643315,-0.005116,0.226459,0.243186,1.264775,3.942668,480.598602,0.903778,0.000000,41.660951,44.967672,6998.293957,-1.000000,0.862210,-0.471958,-0.523381
32.000000,5.652937,-0.026170,0.228332,0.420542,1.883162,4.054929,480.656799,0.961975,0.000000,41.660953,44.967676,6998.293957,-1.000000,0.201444,-1.000000,-0.299973
32.100000,5.661819,-0.059302,0.221117,0.603010,2.540915,4.216858,480.779175,1.084351,0.000000,41.660955,44.967681,6998.280360,-0.403993,-0.939031,0.654708,1.000000
32.200000,5.672936,-0.103435,0.204080,0.768795,2.708712,4.413535,480.948090,1.253235,0.000000,41.660958,44.967685,6998.280360,0.775301,1.000000,-0.386603,1.000000
32.300000,5.687195,-0.148072,0.180226,0.917542,2.198295,4.550148,481.095978,1.401154,0.000000,41.660961,44.967690,6998.263861,-0.381888,0.049600,1.000000,0.080995
32.400000,5.700450,-0.182422,0.158786,1.072408,1.671499,4.532714,481.186859,1.492035,0.000000,41.660964,44.967695,6998.263861,1.000000,0.138076,0.533617,-0.403710
32.500000,5.706658,-0.203444,0.146427,1.172225,1.168445,4.333079,481.238739,1.543915,0.000000,41.660966,44.967699,6998.243838,0.223063,0.919977,-1.000000,1.000000
32.600000,5.702465,-0.207262,0.147391,1.222498,0.764099,4.138313,481.243713,1.548889,0.000000,41.660969,44.967703,6998.243838,-1.000000,-1.000000,0.617308,-0.339301
32.700000,5.693140,-0.201918,0.156562,1.321668,0.843730,4.080775,481.230865,1.536041,0.000000,41.660972,44.967707,6998.221825,-0.046946,1.000000,-0.892076,0.670670
32.800000,5.688217,-0.201421,0.163977,1.555155,1.280347,4.157424,481.241302,1.546478,0.000000,41.660974,44.967710,6998.221825,-1.000000,0.379962,-0.222548,0.021422
32.900000,5.691747,-0.210773,0.167639,1.834668,1.597855,4.220363,481.279602,1.584778,0.000000,41.660978,44.967714,6998.197823,0.037226,-0.191859,-0.632703,0.635171
33.000000,5.701346,-0.226437,0.170533,2.115492,1.765786,4.253945,481.329407,1.634583,0.000000,41.660981,44.967718,6998.197823,-0.704109,-0.149816,0.562683,-0.727933
33.100000,5.717631,-0.247285,0.172885,2.386607,1.833053,4.210545,481.379639,1.684814,0.000000,41.660985,44.967721,6998.171582,0.236754,-1.000000,-0.286975,0.687902
33.200000,5.736003,-0.267152,0.177125,2.614991,1.937412,4.086279,481.426086,1.731262,0.000000,41.660988,44.967725,6998.171582,-0.720242,-1.000000,1.000000,0.562987
33.300000,5.754569,-0.284860,0.182636,2.874447,2.149447,3.987812,481.472290,1.777466,0.000000,41.660992,44.967728,6998.144885,-0.088769,0.144798,-1.000000,-0.341777
33.400000,5.776506,-0.304457,0.188099,3.121847,2.280846,3.832420,481.529846,1.835022,0.000000,41.660997,44.967732,6998.144885,0.852313,-0.168504,-0.770687,1.000000
33.500000,5.797974,-0.319156,0.196358,3.280419,1.910902,3.645090,481.560822,1.865997,0.000000,41.661001,44.967735,6998.116861,0.227641,-0.965818,-0.386279,-0.982782
33.600000,5.813585,-0.323685,0.209698,3.269525,1.646528,3.376705,481.551758,1.856964,0.000000,41.661005,44.967738,6998.116861,-1.000000,1.000000,0.352760,0.447958
33.700000,5.822210,-0.319206,0.229204,3.293231,1.811115,3.173815,481.539948,1.845123,0.000000,41.661009,44.967740,6998.086931,0.552730,0.046185,-1.000000,0.813819
33.800000,5.831924,-0.314381,0.243043,3.495604,1.945125,3.122831,481.538788,1.843964,0.000000,41.661013,44.967743,6998.086931,-0.864679,-0.001701,0.201979,-0.372134
33.900000,5.846098,-0.312877,0.248362,3.831299,2.211487,3.172465,481.541321,1.846497,0.000000,41.661017,44.967746,6998.057124,-0.285273,1.000000,-1.000000,0.238784
34.000000,5.869934,-0.319891,0.242200,4.204841,2.512420,3.186441,481.565338,1.870483,0.000000,41.661021,44.967748,6998.057124,0.504099,0.408500,0.369622,0.990625
34.100000,5.897149,-0.329188,0.231984,4.441644,2.546039,3.090100,481.588684,1.893890,0.000000,41.661026,44.967751,6998.026655,-1.000000,-0.500787,0.753647,-0.694059
34.200000,5.923279,-0.337842,0.221044,4.646648,2.509200,2.980210,481.609406,1.914581,0.000000,41.661031,44.967754,6998.026655,1.000000,-0.063569,-0.633642,0.952812
34.300000,5.948445,-0.342455,0.211681,4.706203,2.187657,2.791135,481.613129,1.918304,0.000000,41.661036,44.967756,6997.994859,0.174671,-0.405308,-0.034427,-0.760625
34.400000,5.965862,-0.337346,0.210331,4.559511,1.723660,2.557391,481.583710,1.888885,0.000000,41.661041,44.967759,6997.994859,0.928428,0.039447,-1.000000,0.610611
34.500000,5.971633,-0.322233,0.218331,4.339932,1.478239,2.379038,481.538757,1.843933,0.000000,41.661045,44.967761,6997.964721,-0.476155,0.015928,1.000000,0.030398
34.600000,5.969750,-0.299539,0.228954,4.269242,1.226387,2.346340,481.481537,1.786682,0.000000,41.661049,44.967763,6997.964721,1.000000,-1.000000,1.000000,-1.000000
34.700000,5.961908,-0.272787,0.236871,4.214698,1.100441,2.375746,481.414429,1.719635,0.000000,41.661054,44.967765,6997.936449,-1.000000,-0.129651,0.955339,-0.136296
34.800000,5.950749,-0.247275,0.236632,4.294758,1.184372,2.497377,481.356873,1.662079,0.000000,41.661058,44.967768,6997.936449,0.448923,0.514136,-0.423104,-1.000000
34.900000,5.939522,-0.226936,0.222161,4.516971,1.368630,2.705985,481.316956,1.622131,0.000000,41.661062,44.967770,6997.910001,-1.000000,-0.678077,-0.395164,-1.000000
35.000000,5.930708,-0.214846,0.199048,4.731179,1.373365,2.914488,481.291656,1.596832,0.000000,41.661067,44.967772,6997.910001,0.767944,-0.343343,0.783570,0.610046
35.100000,5.924177,-0.207760,0.176340,4.813619,1.047969,3.041094,481.257446,1.562622,0.000000,41.661072,44.967775,6997.887200,0.851186,-0.142719,-0.979899,0.970292
35.200000,5.913804,-0.195587,0.159143,4.606245,0.609335,3.029850,481.187408,1.492584,0.000000,41.661076,44.967777,6997.887200,-0.092418,-1.000000,0.978718,0.707676
35.300000,5.894306,-0.171808,0.152590,4.304951,0.306713,3.025758,481.108612,1.413818,0.000000,41.661081,44.967779,6997.866887,0.978168,0.230979,-0.682099,0.514593
35.400000,5.874142,-0.146747,0.150403,3.990976,-0.015835,2.993859,481.011047,1.316223,0.000000,41.661085,44.967782,6997.866887,0.407477,-0.252695,0.198818,0.097453
35.500000,5.848352,-0.113045,0.152641,3.219013,0.156352,2.683549,480.928589,1.233765,0.000000,41.661088,44.967784,6997.847777,0.029028,0.879648,-0.490983,-0.076864
35.600000,5.823967,-0.080784,0.142082,2.875146,0.216335,2.555105,480.882782,1.187958,0.000000,41.661092,44.967785,6997.847777,0.112527,-0.880847,0.847457,-0.807102
35.700000,5.804235,-0.057446,0.126597,2.851989,0.330609,2.621033,480.854797,1.159973,0.000000,41.661095,44.967787,6997.829868,-0.584295,0.431877,0.178332,0.320219
35.800000,5.787645,-0.043826,0.110599,2.902459,0.318113,2.738498,480.846222,1.151398,0.000000,41.661098,44.967789,6997.829868,0.635523,0.360997,0.931059,-0.167855
35.900000,5.774936,-0.036925,0.094618,2.773782,0.049112,2.697113,480.824677,1.129822,0.000000,41.661101,44.967791,6997.812415,1.000000,-1.000000,-0.776649,0.760449
