t,yaw,pitch,roll,speed.x,speed.y,speed.z,altBar,altRad,egt,myloclat,myloclon,weightlb,collective,bank,pitch,rudder
0.100000,5.374772,0.031623,0.000892,-0.097951,0.517314,0.029425,481.239288,1.544464,0.000000,41.659724,44.965707,7004.964901,0.988384,1.000000,0.451006,0.606928
0.200000,5.373591,0.037301,0.003501,-0.071610,0.113341,0.037940,481.265228,1.570435,0.000000,41.659724,44.965707,7004.964901,0.081692,1.000000,-0.438743,0.444422
0.300000,5.374633,0.041516,0.005143,-0.067404,0.128022,-0.018349,481.274536,1.579773,0.000000,41.659724,44.965707,7000.556034,0.246945,0.230273,1.000000,0.091017
0.400000,5.375501,0.045520,0.001773,-0.046024,-0.023960,-0.037585,481.281006,1.586182,0.000000,41.659724,44.965707,7000.556034,0.595128,-1.000000,0.053406,-1.000000
0.500000,5.370385,0.047990,0.001693,-0.039358,-0.096011,0.056325,481.272888,1.578064,0.000000,41.659724,44.965707,7000.556034,0.971875,-1.000000,0.488728,-0.968678
0.600000,5.360189,0.050232,0.004891,-0.061041,0.001726,0.059577,481.268738,1.573914,0.000000,41.659724,44.965707,7000.556034,0.881739,-1.000000,-0.999010,1.000000
0.700000,5.354820,0.053063,0.004154,-0.028868,0.035030,-0.059717,481.270203,1.575378,0.000000,41.659724,44.965707,7000.541649,-0.810016,-0.249161,0.456512,1.000000
0.800000,5.359010,0.053904,0.000450,0.019085,0.111144,-0.070484,481.277496,1.582672,0.000000,41.659724,44.965707,7000.541649,-0.017194,-0.681607,0.347159,-1.000000
0.900000,5.363962,0.051596,-0.000620,0.055348,0.190725,-0.006753,481.293915,1.599091,0.000000,41.659724,44.965707,7000.527098,-0.380618,0.353719,-0.505460,-0.517345
1.000000,5.358807,0.047186,0.002635,0.068693,0.023539,0.055910,481.309357,1.614532,0.000000,41.659724,44.965707,7000.527098,0.692694,-0.486989,0.364744,-0.459131
1.100000,5.348287,0.040343,0.008332,0.050270,-0.026287,0.056110,481.305481,1.610657,0.000000,41.659724,44.965707,7000.511760,-1.000000,0.643608,1.000000,1.000000
1.200000,5.342639,0.031432,0.010298,0.091329,0.204117,0.015890,481.310150,1.615326,0.000000,41.659724,44.965707,7000.511760,-0.369257,-0.537749,0.976801,0.636422
1.300000,5.346499,0.019834,0.011682,0.174671,0.782239,-0.035039,481.362732,1.667908,0.000000,41.659724,44.965707,7000.495509,-1.000000,0.328405,-0.839028,-1.000000
1.400000,5.353795,0.005994,0.014716,0.246953,1.038824,-0.016153,481.461060,1.766235,0.000000,41.659725,44.965707,7000.495509,0.171317,1.000000,0.051213,0.238652
1.500000,5.358089,-0.008109,0.019962,0.304628,0.990029,0.014030,481.560974,1.866150,0.000000,41.659725,44.965706,7000.478140,0.378558,-0.774268,0.365862,-0.099060
1.600000,5.364477,-0.023201,0.025602,0.341142,0.402749,0.054320,481.633759,1.938934,0.000000,41.659725,44.965706,7000.478140,1.000000,-0.974136,-1.000000,-0.735996
1.700000,5.368664,-0.037082,0.031954,0.378459,-0.470441,0.156807,481.629517,1.934692,0.000000,41.659725,44.965706,7000.458407,0.777096,1.000000,1.000000,-0.341725
1.800000,5.367104,-0.048580,0.039474,0.434928,-1.201580,0.273209,481.543152,1.848328,0.000000,41.659726,44.965706,7000.458407,-1.000000,-0.087548,-1.000000,-1.000000
1.900000,5.356568,-0.057593,0.042115,0.237175,-1.002233,0.279653,481.414032,1.719208,0.000000,41.659726,44.965706,7000.435607,1.000000,0.141007,-1.000000,-1.000000
2.000000,5.336496,-0.049064,0.024063,-0.215355,-0.078791,-0.001649,481.371277,1.676483,0.000000,41.659726,44.965706,7000.435607,0.560778,0.892604,1.000000,1.000000
2.100000,5.323274,-0.027978,0.005364,-0.276379,-0.225381,-0.096710,481.362061,1.667236,0.000000,41.659726,44.965706,7000.411480,0.091650,0.474757,-0.241227,0.277569
2.200000,5.323403,-0.002330,-0.001657,-0.343409,-0.451094,-0.096015,481.324524,1.629700,0.000000,41.659726,44.965706,7000.411480,0.231365,-0.973364,-1.000000,-1.000000
2.300000,5.329282,0.024550,-0.000392,-0.425173,-0.258185,0.040773,481.282715,1.587891,0.000000,41.659725,44.965707,7000.386648,-0.734148,1.000000,0.853309,-0.868764
2.400000,5.327212,0.047455,0.005147,-0.331754,0.365452,0.125228,481.285248,1.590424,0.000000,41.659725,44.965707,7000.386648,-0.212059,1.000000,0.430591,-0.333893
2.500000,5.321930,0.067453,0.016616,-0.282403,0.666664,0.138261,481.339020,1.644196,0.000000,41.659725,44.965707,7000.360076,-0.607205,1.000000,0.051292,0.849729
2.600000,5.322784,0.083411,0.030635,-0.244458,0.996155,0.109301,481.417206,1.722382,0.000000,41.659725,44.965708,7000.360076,-0.834440,0.195019,-1.000000,-0.249490
2.700000,5.329963,0.094417,0.044539,-0.226487,1.176393,0.121835,481.525208,1.830383,0.000000,41.659725,44.965708,7000.333752,1.000000,1.000000,1.000000,-0.991732
2.800000,5.332749,0.103819,0.060016,-0.278309,0.661754,0.254076,481.617920,1.923096,0.000000,41.659725,44.965709,7000.333752,0.167214,1.000000,0.267468,-1.000000
2.900000,5.321368,0.112399,0.075203,-0.344255,0.150675,0.405373,481.648560,1.953735,0.000000,41.659725,44.965709,7000.308672,-0.356394,-0.455142,-1.000000,-0.672673
3.000000,5.301020,0.118670,0.087040,-0.385367,0.036178,0.512138,481.648926,1.954102,0.000000,41.659725,44.965710,7000.308672,0.236680,-0.060441,-0.303477,0.004825
3.100000,5.277718,0.121983,0.094698,-0.408502,0.228330,0.578732,481.647369,1.952545,0.000000,41.659725,44.965711,7000.284130,-1.000000,0.455088,-0.885007,-0.603012
3.200000,5.255844,0.120786,0.097365,-0.418005,0.649479,0.625971,481.678986,1.984161,0.000000,41.659725,44.965712,7000.284130,-0.187116,-1.000000,-1.000000,1.000000
3.300000,5.241494,0.115272,0.095868,-0.435279,0.992129,0.658630,481.748291,2.053467,0.000000,41.659725,44.965713,7000.260418,-0.823443,1.000000,0.751945,1.000000
3.400000,5.237923,0.105352,0.089723,-0.466297,1.098348,0.687364,481.845642,2.150818,0.000000,41.659726,44.965714,7000.260418,0.207667,0.855404,-1.000000,-0.055677
3.500000,5.245532,0.092713,0.079372,-0.514897,0.768244,0.754025,481.933472,2.238647,0.000000,41.659726,44.965715,7000.236871,0.032962,1.000000,1.000000,1.000000
3.600000,5.262291,0.079652,0.066549,-0.546794,0.319550,0.803252,481.974304,2.279480,0.000000,41.659726,44.965716,7000.236871,0.087362,0.827969,-0.818438,1.000000
3.700000,5.293675,0.064645,0.050526,-0.540866,-0.037731,0.827738,481.977539,2.282715,0.000000,41.659726,44.965717,7000.213283,-0.209666,-0.623181,0.336079,-0.273636
3.800000,5.333010,0.048803,0.034903,-0.480238,0.000811,0.883490,481.961975,2.267151,0.000000,41.659727,44.965718,7000.213283,-1.000000,0.631323,1.000000,-1.000000
3.900000,5.367945,0.032577,0.024631,-0.367195,0.772472,0.923785,481.991974,2.297150,0.000000,41.659727,44.965719,7000.189986,-0.719172,0.010318,-0.414696,0.914124
4.000000,5.405511,0.013400,0.017933,-0.239881,1.582876,0.929226,482.110657,2.415833,0.000000,41.659727,44.965721,7000.189986,-1.000000,0.002501,-0.654280,1.000000
4.100000,5.448555,-0.007259,0.012327,-0.131494,1.848320,0.929619,482.293060,2.598236,0.000000,41.659728,44.965722,7000.165776,1.000000,-0.053624,-0.091290,-0.623846
4.200000,5.491861,-0.026365,0.006434,-0.063173,1.383083,0.962493,482.451172,2.756348,0.000000,41.659728,44.965722,7000.165776,1.000000,0.492402,-0.405016,0.768475
4.300000,5.539946,-0.044763,-0.001161,0.014075,0.530692,0.983448,482.550018,2.855194,0.000000,41.659729,44.965723,7000.141152,0.643919,1.000000,-1.000000,0.298273
4.400000,5.593133,-0.060512,-0.011629,0.122027,-0.399366,0.986787,482.555847,2.861023,0.000000,41.659729,44.965724,7000.141152,1.000000,0.873374,-0.900818,0.005312
4.500000,5.643124,-0.072862,-0.021647,0.255315,-1.075215,1.003773,482.481506,2.786682,0.000000,41.659730,44.965725,7000.117564,-1.000000,-1.000000,-0.622750,-0.345226
4.600000,5.690714,-0.083745,-0.026707,0.426892,-1.117559,1.030611,482.361816,2.666992,0.000000,41.659730,44.965726,7000.117564,0.023804,1.000000,0.181519,-1.000000
4.700000,5.728794,-0.092890,-0.019387,0.603448,-0.746203,1.052802,482.268524,2.573730,0.000000,41.659731,44.965727,7000.092318,-0.501717,-1.000000,0.599820,1.000000
4.800000,5.763927,-0.100043,-0.006751,0.772643,-0.442156,1.022405,482.205322,2.510498,0.000000,41.659732,44.965728,7000.092318,-0.231894,1.000000,-0.651757,0.960180
4.900000,5.807273,-0.106460,0.006872,0.975942,0.072804,0.946378,482.175903,2.481079,0.000000,41.659733,44.965729,7000.065538,-0.895154,1.000000,1.000000,0.498139
5.000000,5.856946,-0.112486,0.019098,1.222728,0.808837,0.859971,482.201599,2.506805,0.000000,41.659734,44.965729,7000.065538,-1.000000,0.562743,0.459507,-0.956611
5.100000,5.902333,-0.119546,0.031300,1.487468,1.475692,0.821181,482.298187,2.603363,0.000000,41.659736,44.965730,7000.040375,-0.462765,0.964013,1.000000,0.589244
5.200000,5.945609,-0.128587,0.045592,1.734813,1.754071,0.772209,482.444733,2.749908,0.000000,41.659738,44.965730,7000.040375,1.000000,-0.833951,-0.633705,0.464520
5.300000,5.990290,-0.137822,0.055223,1.931802,1.292581,0.734078,482.573975,2.879181,0.000000,41.659739,44.965731,7000.016579,0.969931,-1.000000,0.478816,-1.000000
5.400000,6.028156,-0.144973,0.061599,2.100845,0.556738,0.775679,482.630463,2.935638,0.000000,41.659741,44.965732,7000.016579,0.273939,0.208389,0.844692,0.179604
5.500000,6.060614,-0.150240,0.067491,2.282940,-0.170541,0.835223,482.608765,2.913940,0.000000,41.659743,44.965732,6999.993074,-0.433451,1.000000,-0.482445,0.823962
5.600000,6.095732,-0.153666,0.067946,2.483068,-0.345320,0.780193,482.532837,2.838013,0.000000,41.659746,44.965733,6999.993074,-1.000000,-0.080796,1.000000,0.560339
5.700000,6.135635,-0.155088,0.061702,2.697106,0.281681,0.699611,482.482635,2.787811,0.000000,41.659748,44.965734,6999.969486,-0.478381,0.215891,1.000000,-0.610366
5.800000,6.178597,-0.155003,0.053729,2.968615,1.059812,0.611121,482.504639,2.809814,0.000000,41.659750,44.965735,6999.969486,-1.000000,-0.474595,1.000000,1.000000
5.900000,6.225239,-0.155380,0.044060,3.269166,1.621747,0.488116,482.588867,2.894043,0.000000,41.659753,44.965736,6999.944116,-0.512968,0.224783,1.000000,0.074497
6.000000,6.273717,-0.156806,0.032646,3.544419,2.035376,0.333745,482.712250,3.017426,0.000000,41.659756,44.965737,6999.944116,-0.818411,1.000000,-1.000000,0.378280
6.100000,0.046094,-0.158745,0.017408,3.799646,2.039832,0.172119,482.864044,3.169220,0.000000,41.659760,44.965738,6999.917543,0.440923,1.000000,-0.473216,-0.313004
6.200000,0.100025,-0.159880,0.000893,4.009813,1.588814,0.022369,482.987152,3.292328,0.000000,41.659763,44.965739,6999.917543,1.000000,0.823091,-0.196851,0.347421
6.300000,0.151076,-0.159264,-0.016797,4.168693,0.823718,-0.158827,483.040161,3.345337,0.000000,41.659767,44.965740,6999.892256,0.549330,-0.007792,-0.541246,0.312128
6.400000,0.206884,-0.156135,-0.038115,4.314358,-0.082818,-0.370502,483.007568,3.312744,0.000000,41.659771,44.965742,6999.892256,1.000000,-0.723140,0.060428,-1.000000
6.500000,0.252610,-0.150966,-0.055138,4.449061,-0.902105,-0.482907,482.885712,3.190887,0.000000,41.659774,44.965743,6999.865932,0.352043,0.868440,-0.270601,-1.000000
6.600000,0.277562,-0.145307,-0.061567,4.570750,-1.591193,-0.520996,482.699554,3.004730,0.000000,41.659778,44.965744,6999.865932,0.918316,0.026936,-0.086676,1.000000
6.700000,0.295291,-0.138498,-0.061558,4.687656,-2.322976,-0.603567,482.432159,2.737335,0.000000,41.659782,44.965746,6999.837535,0.653839,0.353686,0.140797,0.539273
6.800000,0.316721,-0.130290,-0.060164,4.776814,-2.872804,-0.735083,482.095245,2.400421,0.000000,41.659785,44.965748,6999.837535,-0.963683,0.180584,-1.000000,0.160783
6.900000,0.339096,-0.120523,-0.051365,4.831313,-2.637522,-0.822924,481.763489,2.068665,0.000000,41.659789,44.965749,6999.809885,-0.836268,0.285972,-1.000000,0.709083
7.000000,0.366299,-0.105704,-0.018990,4.550008,-0.762811,-0.841408,481.520905,1.826080,0.000000,41.659793,44.965751,6999.809885,-0.516114,0.417628,0.315147,1.000000
7.100000,0.398319,-0.085470,0.002384,4.261556,0.856317,-0.940349,481.496521,1.801697,0.000000,41.659797,44.965753,6999.784473,-1.000000,0.630821,0.689663,-0.668120
7.200000,0.428895,-0.068309,0.011317,4.418301,1.137607,-1.058278,481.568542,1.873718,0.000000,41.659801,44.965755,6999.784473,1.000000,-1.000000,-1.000000,0.453339
7.300000,0.454947,-0.052939,0.021579,4.512109,0.670266,-1.132424,481.639435,1.944641,0.000000,41.659804,44.965757,6999.761133,0.091298,-0.481074,1.000000,-0.393908
7.400000,0.475976,-0.038914,0.028931,4.556206,-0.091727,-1.142703,481.650208,1.955383,0.000000,41.659808,44.965758,6999.761133,0.907019,1.000000,0.102625,-0.538143
7.500000,0.487381,-0.026327,0.034275,4.576318,-0.902502,-1.099407,481.593140,1.898315,0.000000,41.659812,44.965761,6999.740862,1.000000,0.824419,0.912676,0.637758
7.600000,0.497182,-0.013531,0.035479,4.572088,-1.818800,-1.074139,481.446686,1.751862,0.000000,41.659816,44.965763,6999.740862,0.652557,1.000000,-1.000000,0.184188
7.700000,0.510003,0.000317,0.008514,3.743511,-1.196697,-1.112957,481.259888,1.565063,0.000000,41.659820,44.965765,6999.721420,0.426436,-0.508351,0.031145,0.581805
7.800000,0.523799,0.010750,-0.010901,2.314066,0.486313,-0.898038,481.250702,1.555878,0.000000,41.659822,44.965766,6999.721420,-1.000000,1.000000,1.000000,-1.000000
7.900000,0.531945,0.021284,-0.003712,2.261469,0.212087,-0.801446,481.291718,1.596893,0.000000,41.659824,44.965767,6999.699283,1.000000,1.000000,0.028018,-1.000000
8.000000,0.521429,0.029856,0.008500,2.269536,-0.113910,-0.636440,481.302551,1.607727,0.000000,41.659826,44.965768,6999.699283,-0.671822,-1.000000,0.156668,-1.000000
8.100000,0.494525,0.035884,0.008779,2.160453,-0.161459,-0.424613,481.292938,1.598114,0.000000,41.659828,44.965769,6999.676814,0.024101,0.217111,0.256563,1.000000
8.200000,0.459582,0.039038,-0.003171,2.174811,-0.081049,-0.326090,481.294800,1.599976,0.000000,41.659830,44.965770,6999.676814,0.156975,1.000000,-1.000000,1.000000
8.300000,0.429833,0.038014,-0.005406,1.975672,-0.229046,-0.218741,481.285126,1.590302,0.000000,41.659832,44.965771,6999.654677,1.000000,-1.000000,-1.000000,-0.754983
8.400000,0.405859,0.031274,0.002030,1.506891,0.020408,-0.007250,481.277344,1.582520,0.000000,41.659833,44.965772,6999.654677,-0.787453,-0.315626,0.720631,0.543256
8.500000,0.384314,0.022689,0.004537,1.372617,0.131585,0.054604,481.288696,1.593872,0.000000,41.659834,44.965773,6999.632416,0.493648,0.209067,0.441676,0.126002
8.600000,0.368540,0.012479,-0.000145,1.330181,0.035151,0.082821,481.303650,1.608826,0.000000,41.659835,44.965774,6999.632416,0.878522,-1.000000,1.000000,-0.453592
8.700000,0.351797,0.003786,-0.000192,1.054024,0.066248,0.202344,481.306549,1.611725,0.000000,41.659836,44.965775,6999.611108,-0.454221,0.430106,0.992278,-0.727420
8.800000,0.326903,-0.001526,-0.000009,0.770297,0.139061,0.326480,481.316986,1.622162,0.000000,41.659837,44.965775,6999.611108,0.677425,0.317864,0.653874,0.355239
8.900000,0.301390,-0.004521,0.000234,0.611001,0.020157,0.370289,481.328949,1.634125,0.000000,41.659837,44.965776,6999.590131,-0.045146,-0.407462,-0.541634,0.890839
9.000000,0.282524,-0.005189,-0.000380,0.429906,-0.068551,0.335720,481.323792,1.628967,0.000000,41.659837,44.965777,6999.590131,0.352557,0.076924,0.275749,1.000000
9.100000,0.273335,-0.002072,0.001546,0.205599,-0.081140,0.225860,481.317200,1.622375,0.000000,41.659837,44.965777,6999.568989,0.174809,1.000000,1.000000,1.000000
9.200000,0.274379,0.005008,0.003151,0.010929,-0.082255,0.060818,481.308350,1.613525,0.000000,41.659837,44.965777,6999.568989,0.081904,0.881266,-0.856299,0.010698
9.300000,0.279152,0.013787,0.002530,-0.120127,-0.153723,-0.051203,481.296997,1.602173,0.000000,41.659837,44.965777,6999.548925,0.596651,-0.078995,-0.018323,0.601125
9.400000,0.281651,0.023803,0.000006,-0.166808,-0.076359,-0.017910,481.283508,1.588684,0.000000,41.659837,44.965777,6999.548925,-0.192229,0.815920,0.633983,-0.654477
9.500000,0.281044,0.032053,0.000384,-0.098360,0.086231,0.022407,481.276367,1.581543,0.000000,41.659837,44.965777,6999.529441,-0.382863,-0.865786,-0.362732,0.524706
9.600000,0.278788,0.037298,0.001678,-0.064785,0.088506,0.030551,481.291351,1.596527,0.000000,41.659837,44.965777,6999.529441,1.000000,-0.100363,0.867579,-0.405486
9.700000,0.276062,0.041168,0.004877,-0.070277,-0.217748,0.065316,481.283051,1.588226,0.000000,41.659837,44.965777,6999.509916,1.000000,-0.263210,0.773132,-0.064541
9.800000,0.272532,0.045914,0.003493,-0.096010,0.003195,-0.064128,481.262726,1.567902,0.000000,41.659837,44.965777,6999.509916,-0.424505,0.056329,-1.000000,0.132883
9.900000,0.272403,0.051024,0.000033,-0.063370,0.133968,-0.067960,481.273895,1.579071,0.000000,41.659837,44.965777,6999.491634,1.000000,0.889639,-0.186520,1.000000
10.000000,0.276326,0.052822,-0.002577,-0.014057,-0.043868,-0.038182,481.279663,1.584869,0.000000,41.659837,44.965777,6999.491634,1.000000,0.565482,-0.781908,-0.428045
10.100000,0.282183,0.051956,-0.002673,0.017312,-0.122980,-0.004474,481.265778,1.570953,0.000000,41.659837,44.965777,6999.473933,1.000000,-0.723888,-0.254279,1.000000
10.200000,0.291420,0.051055,-0.003560,0.017940,0.103962,0.003805,481.266327,1.571503,0.000000,41.659837,44.965777,6999.473933,-0.131281,-1.000000,-1.000000,-0.646512
10.300000,0.293515,0.048860,-0.001039,0.047735,0.120041,0.064954,481.278534,1.583710,0.000000,41.659837,44.965777,6999.455983,-0.798208,-0.271001,-0.132020,-0.767945
10.400000,0.282383,0.043194,0.005146,0.065569,0.095895,0.147505,481.294769,1.599945,0.000000,41.659837,44.965777,6999.455983,1.000000,0.019460,0.618633,-1.000000
10.500000,0.256827,0.035312,0.010748,0.000653,-0.075173,0.227631,481.295319,1.600494,0.000000,41.659837,44.965777,6999.438821,-0.107017,-0.489078,0.697154,1.000000
10.600000,0.225970,0.027118,-0.000009,-0.045032,-0.118897,0.212590,481.279724,1.584900,0.000000,41.659837,44.965778,6999.438821,0.217074,-0.432989,0.977291,0.462333
10.700000,0.210459,0.026384,0.002976,-0.030997,-0.076106,0.147839,481.271088,1.576263,0.000000,41.659837,44.965778,6999.422321,1.000000,-1.000000,-1.000000,-1.000000
10.800000,0.205519,0.029450,0.006582,-0.071808,0.031646,-0.002818,481.267151,1.572327,0.000000,41.659837,44.965778,6999.422321,-0.456767,1.000000,-0.027589,1.000000
10.900000,0.206474,0.033618,0.004639,-0.066356,0.079439,-0.032592,481.273010,1.578217,0.000000,41.659837,44.965778,6999.405781,1.000000,-1.000000,1.000000,-0.519067
11.000000,0.210838,0.037281,0.001323,-0.071313,-0.051022,-0.071813,481.274384,1.579559,0.000000,41.659837,44.965778,6999.405781,1.000000,-0.605142,1.000000,-0.436410
11.100000,0.210989,0.042339,-0.001758,-0.101881,-0.075856,-0.028522,481.264984,1.570160,0.000000,41.659837,44.965778,6999.389033,0.583971,-1.000000,-0.810535,-0.396993
11.200000,0.208315,0.048431,-0.001321,-0.091040,0.050229,0.030023,481.264893,1.570068,0.000000,41.659836,44.965777,6999.389033,1.000000,-0.130259,0.279999,-0.606940
11.300000,0.203168,0.052052,0.001294,-0.056951,0.045290,0.051144,481.269409,1.574585,0.000000,41.659836,44.965777,6999.371415,0.326115,-0.062229,-0.492342,-1.000000
11.400000,0.193410,0.052420,0.004098,-0.059583,0.094947,0.049491,481.274567,1.579742,0.000000,41.659836,44.965778,6999.371415,0.286960,-1.000000,-1.000000,-0.824946
11.500000,0.177502,0.051076,0.009296,-0.068670,0.217804,0.103540,481.291748,1.596924,0.000000,41.659836,44.965778,6999.352553,-0.972297,-1.000000,-1.000000,-0.157130
11.600000,0.155338,0.046089,0.014682,-0.043478,0.229266,0.134920,481.318939,1.624115,0.000000,41.659836,44.965778,6999.352553,0.939095,0.033044,-0.303697,0.628099
11.700000,0.136712,0.039652,0.019640,-0.048068,-0.167109,0.121783,481.324158,1.629333,0.000000,41.659836,44.965778,6999.334395,0.654481,-0.740038,1.000000,1.000000
11.800000,0.124581,0.033432,0.013342,-0.070884,-0.575705,-0.049199,481.280762,1.585938,0.000000,41.659836,44.965778,6999.334395,1.000000,-0.495942,-1.000000,0.063615
11.900000,0.120359,0.034179,-0.001179,-0.064706,0.067079,-0.185150,481.244141,1.549316,0.000000,41.659836,44.965778,6999.316777,-0.307651,0.540990,-0.644987,-1.000000
12.000000,0.119830,0.037832,-0.004478,-0.036046,0.286450,0.003944,481.265900,1.571075,0.000000,41.659836,44.965778,6999.316777,0.529809,1.000000,1.000000,0.545604
12.100000,0.119161,0.040453,-0.002232,-0.016329,0.181925,0.030595,481.289093,1.594269,0.000000,41.659836,44.965778,6999.298330,-0.785785,-0.041306,1.000000,0.606581
12.200000,0.124375,0.041368,0.002743,0.006101,0.192921,0.002047,481.306519,1.611694,0.000000,41.659836,44.965778,6999.298330,0.332783,0.430466,0.336313,0.977373
12.300000,0.137897,0.040229,0.008735,0.043940,0.332594,-0.040001,481.330994,1.636169,0.000000,41.659836,44.965778,6999.279592,-1.000000,0.252356,-0.125361,1.000000
12.400000,0.162354,0.036682,0.016276,0.088769,0.500625,-0.069918,481.373627,1.678802,0.000000,41.659836,44.965778,6999.279592,0.204644,1.000000,-0.652296,-1.000000
12.500000,0.188473,0.030986,0.025825,0.111791,0.332391,-0.015155,481.422729,1.727905,0.000000,41.659836,44.965778,6999.260854,0.450680,-0.935378,1.000000,-0.153907
12.600000,0.205105,0.025051,0.037058,0.116949,-0.142831,0.078397,481.431335,1.736511,0.000000,41.659836,44.965778,6999.260854,0.098442,0.462181,-1.000000,0.105783
12.700000,0.218560,0.018397,0.048925,0.131291,-0.648502,0.166620,481.391022,1.696198,0.000000,41.659836,44.965778,6999.241495,0.762426,-0.453230,0.719418,-0.593002
12.800000,0.226187,0.013651,0.053157,0.021443,-0.687395,-0.082246,481.311646,1.616821,0.000000,41.659836,44.965778,6999.241495,1.000000,1.000000,0.667928,1.000000
12.900000,0.226922,0.018977,0.024133,-0.164120,-0.271128,-0.667866,481.271759,1.576965,0.000000,41.659836,44.965777,6999.222011,0.320829,0.194778,1.000000,-0.264094
13.000000,0.228024,0.031464,-0.009736,-0.244265,-0.004795,-0.353735,481.257111,1.562286,0.000000,41.659836,44.965777,6999.222011,1.000000,-0.366644,1.000000,0.549128
13.100000,0.231989,0.045061,-0.015977,-0.242219,0.187142,0.012463,481.267883,1.573059,0.000000,41.659836,44.965776,6999.200952,-1.000000,1.000000,0.952611,1.000000
13.200000,0.241241,0.053301,-0.009034,-0.238173,0.208494,0.157066,481.286957,1.592133,0.000000,41.659836,44.965776,6999.200952,0.864060,0.923720,1.000000,0.151471
13.300000,0.255815,0.059326,0.001780,-0.215282,-0.093572,0.164561,481.294403,1.599579,0.000000,41.659836,44.965777,6999.178400,1.000000,1.000000,-1.000000,0.650058
13.400000,0.268334,0.063778,0.005172,-0.081625,-0.133914,0.074939,481.272369,1.577545,0.000000,41.659836,44.965777,6999.178400,-1.000000,-1.000000,0.227077,-0.173285
13.500000,0.272029,0.064951,0.005208,0.029658,0.342347,-0.034700,481.283661,1.588837,0.000000,41.659836,44.965777,6999.157341,-0.084353,-1.000000,1.000000,-0.291621
13.600000,0.267840,0.063285,0.004633,0.051854,0.525852,0.007801,481.334076,1.639252,0.000000,41.659836,44.965777,6999.157341,0.349572,0.894080,-0.827679,-0.884436
13.700000,0.254272,0.059975,0.007490,0.034030,0.087691,0.052704,481.366852,1.672028,0.000000,41.659836,44.965777,6999.137608,0.153827,-1.000000,-0.108470,1.000000
13.800000,0.241220,0.055644,0.010491,0.033233,-0.183755,0.062365,481.357758,1.662933,0.000000,41.659836,44.965777,6999.137608,-0.693323,0.035471,0.842469,-0.696650
13.900000,0.229831,0.048718,0.014723,0.074184,0.012504,0.060372,481.350159,1.655334,0.000000,41.659836,44.965777,6999.118539,0.293850,-0.501577,-0.310846,1.000000
14.000000,0.220751,0.039359,0.019866,0.106661,0.030514,0.074612,481.354889,1.660065,0.000000,41.659836,44.965777,6999.118539,-0.475395,-1.000000,0.560174,-1.000000
14.100000,0.212717,0.029041,0.025100,0.131491,-0.121729,0.103362,481.353180,1.658356,0.000000,41.659836,44.965777,6999.100838,1.000000,0.742460,1.000000,1.000000
14.200000,0.204618,0.017571,0.028125,0.101594,-0.501782,0.114420,481.319580,1.624756,0.000000,41.659836,44.965777,6999.100838,1.000000,0.626625,-1.000000,-1.000000
14.300000,0.193933,0.012030,0.012450,-0.033738,-0.155863,-0.156464,481.274597,1.579773,0.000000,41.659836,44.965777,6999.083054,-0.424222,-1.000000,0.123127,-0.550701
14.400000,0.185241,0.019360,0.007756,-0.085639,0.198080,-0.010080,481.285065,1.590240,0.000000,41.659836,44.965777,6999.083054,-1.000000,1.000000,0.113393,-0.624298
14.500000,0.169671,0.027284,0.012215,0.001320,0.593088,0.059458,481.317902,1.623077,0.000000,41.659836,44.965777,6999.063984,-0.841580,-0.018255,-0.857084,-0.861438
14.600000,0.143342,0.031372,0.025086,0.113651,1.249610,0.124824,481.421112,1.726288,0.000000,41.659836,44.965777,6999.063984,1.000000,-1.000000,0.707598,-0.807840
14.700000,0.110877,0.032922,0.041052,0.136770,1.031653,0.184334,481.535583,1.840759,0.000000,41.659836,44.965778,6999.044003,1.000000,-0.377165,-0.256241,0.829952
14.800000,0.080349,0.033724,0.056250,0.118074,0.317364,0.224689,481.605652,1.910828,0.000000,41.659836,44.965778,6999.044003,1.000000,0.315200,1.000000,0.789807
14.900000,0.062280,0.033861,0.066385,0.096500,-0.415077,0.248493,481.595856,1.901031,0.000000,41.659836,44.965778,6999.023400,-0.097928,-0.373311,0.061302,1.000000
15.000000,0.058724,0.032979,0.070863,0.098916,-0.790119,0.263457,481.532654,1.837830,0.000000,41.659836,44.965778,6999.023400,-0.803398,0.127636,-0.067491,0.860481
15.100000,0.068649,0.030404,0.070539,0.129729,-0.785246,0.268516,481.450928,1.756104,0.000000,41.659836,44.965779,6999.001263,0.757219,0.637171,0.620792,0.844757
15.200000,0.090511,0.026366,0.066225,0.157257,-0.952297,0.290517,481.365631,1.670807,0.000000,41.659836,44.965779,6999.001263,0.702797,-0.683099,-0.477372,-0.575052
15.300000,0.112321,0.026978,0.052554,0.122677,-0.366694,-0.336298,481.295135,1.600311,0.000000,41.659836,44.965779,6998.977799,-0.113195,-0.405770,-0.394211,0.990447
15.400000,0.132018,0.033362,0.013748,0.151011,-0.133625,-0.535024,481.278259,1.583435,0.000000,41.659837,44.965778,6998.977799,-1.000000,0.414935,-0.463825,0.528487
15.500000,0.156673,0.037451,-0.012995,0.114005,0.503766,-0.528080,481.298004,1.603180,0.000000,41.659837,44.965778,6998.953216,0.048358,0.109911,1.000000,0.429745
15.600000,0.185137,0.038058,-0.029371,0.145734,0.606132,-0.568055,481.355865,1.661041,0.000000,41.659837,44.965777,6998.953216,-0.089949,0.282565,0.386282,1.000000
15.700000,0.221483,0.037650,-0.041619,0.134845,0.241673,-0.596809,481.398315,1.703491,0.000000,41.659837,44.965777,6998.927390,0.263938,0.639605,1.000000,-1.000000
15.800000,0.255794,0.036296,-0.046579,0.125238,-0.105610,-0.573043,481.402100,1.707275,0.000000,41.659838,44.965776,6998.927390,-0.103185,-0.902577,-0.092213,-1.000000
15.900000,0.274084,0.033509,-0.040656,0.120517,-0.522978,-0.479964,481.371857,1.677032,0.000000,41.659838,44.965776,6998.903512,1.000000,0.184641,1.000000,-1.000000
16.000000,0.273182,0.029498,-0.022645,0.131191,-0.759996,-0.216195,481.297058,1.602234,0.000000,41.659838,44.965775,6998.903512,-0.484660,-0.163676,-0.406672,-1.000000
16.100000,0.260286,0.029057,-0.001222,-0.014700,0.188258,0.244725,481.259125,1.564301,0.000000,41.659838,44.965775,6998.881333,-0.475708,0.462064,-0.091763,-0.385485
16.200000,0.245199,0.027822,0.010237,0.012068,0.416010,0.269342,481.296814,1.601990,0.000000,41.659838,44.965776,6998.881333,1.000000,0.754861,1.000000,0.902878
16.300000,0.231127,0.025945,0.020821,0.024495,0.235963,0.278946,481.334015,1.639221,0.000000,41.659838,44.965776,6998.859735,-1.000000,-1.000000,1.000000,0.652433
16.400000,0.225142,0.022333,0.029751,0.071218,0.228337,0.263386,481.349823,1.654999,0.000000,41.659838,44.965776,6998.859735,-1.000000,0.720904,1.000000,0.541715
16.500000,0.226747,0.015989,0.038116,0.182685,0.971340,0.233079,481.402344,1.707520,0.000000,41.659838,44.965777,6998.840127,-0.894573,0.144479,0.260398,1.000000
16.600000,0.237630,0.004364,0.046788,0.327310,1.990227,0.180793,481.554199,1.859375,0.000000,41.659838,44.965777,6998.840127,-1.000000,-0.203111,0.098635,1.000000
16.700000,0.260133,-0.011969,0.053263,0.443803,2.741631,0.136381,481.801086,2.106262,0.000000,41.659838,44.965777,6998.821389,0.758726,1.000000,0.390833,-1.000000
16.800000,0.286625,-0.029315,0.057012,0.489687,2.591028,0.177355,482.060089,2.365265,0.000000,41.659839,44.965778,6998.821389,0.770126,0.575505,0.096977,0.508864
16.900000,0.312747,-0.047314,0.059690,0.536538,2.090100,0.252252,482.293243,2.598419,0.000000,41.659839,44.965779,6998.801988,-0.892642,0.761642,0.816854,-0.546628
17.000000,0.338640,-0.064813,0.060903,0.630772,1.829838,0.318572,482.481842,2.787018,0.000000,41.659839,44.965780,6998.801988,-0.982013,-0.957478,0.773246,0.399738
17.100000,0.365374,-0.082013,0.061230,0.786968,2.208164,0.324291,482.664368,2.969543,0.000000,41.659840,44.965780,7000.316258,-0.581799,-1.000000,0.435207,0.908537
17.200000,0.402678,-0.102018,0.058695,0.953673,2.493253,0.314265,482.899536,3.204712,0.000000,41.659841,44.965782,7000.316258,0.898342,-0.715854,1.000000,0.136707
17.300000,0.446766,-0.121680,0.052209,1.081170,2.044910,0.341906,483.120026,3.425201,0.000000,41.659841,44.965783,7000.293955,-0.322284,0.331527,0.020191,-0.720678
17.400000,0.485316,-0.137959,0.046024,1.221969,1.511860,0.429310,483.270081,3.575256,0.000000,41.659842,44.965784,7000.293955,-0.747918,0.198871,-0.641018,-0.823386
17.500000,0.514095,-0.153368,0.045882,1.437431,1.439699,0.536177,483.393921,3.699066,0.000000,41.659843,44.965786,7000.268833,-0.083379,-0.151806,-0.303759,-0.999225
17.600000,0.530416,-0.168190,0.054068,1.666895,1.383474,0.626802,483.510010,3.815186,0.000000,41.659844,44.965788,7000.268833,-0.330324,0.072979,1.000000,0.902707
17.700000,0.545569,-0.181751,0.063481,1.865596,0.993787,0.653020,483.592194,3.897369,0.000000,41.659845,44.965790,7000.242882,0.997050,0.710375,0.620219,0.318637
17.800000,0.571458,-0.195162,0.069810,2.080687,0.360476,0.672663,483.618134,3.923309,0.000000,41.659846,44.965792,7000.242882,0.026716,-1.000000,0.849318,-0.314151
17.900000,0.604511,-0.206815,0.073097,2.316377,-0.120811,0.668842,483.576263,3.881439,0.000000,41.659847,44.965794,7000.215481,-0.834482,0.445132,0.555349,1.000000
18.000000,0.643109,-0.215840,0.072207,2.568597,0.140666,0.603556,483.517059,3.822235,0.000000,41.659848,44.965797,7000.215481,-0.714068,-1.000000,1.000000,-0.491886
18.100000,0.698010,-0.223780,0.063391,2.859991,0.570645,0.422313,483.497070,3.802246,0.000000,41.659849,44.965800,7000.186172,0.229397,0.890017,1.000000,1.000000
18.200000,0.768449,-0.229324,0.043630,3.133619,0.392903,0.217679,483.479492,3.784668,0.000000,41.659851,44.965803,7000.186172,1.000000,0.694134,-0.090863,1.000000
18.300000,0.838964,-0.230813,0.019052,3.366962,-0.188395,0.021359,483.418335,3.723480,0.000000,41.659852,44.965806,7000.156780,0.060991,-1.000000,-1.000000,-0.187829
18.400000,0.913231,-0.227896,-0.010453,3.591107,-0.728029,-0.223133,483.288025,3.593201,0.000000,41.659854,44.965809,7000.156780,-0.891465,-1.000000,-0.330232,0.513196
18.500000,0.985751,-0.219947,-0.039366,3.783775,-0.517212,-0.513742,483.132874,3.438019,0.000000,41.659856,44.965813,7000.126767,-0.617094,-1.000000,0.524992,-0.316263
18.600000,1.050315,-0.208052,-0.058474,3.975927,0.504108,-0.797559,483.047943,3.353119,0.000000,41.659857,44.965816,7000.126767,-1.000000,-0.014624,1.000000,0.395834
18.700000,1.111171,-0.193889,-0.067579,4.197638,1.002062,-1.059356,483.045258,3.350403,0.000000,41.659860,44.965821,7000.096132,1.000000,-1.000000,0.266628,-1.000000
18.800000,1.157497,-0.180106,-0.067484,4.370219,0.584750,-1.237232,483.040161,3.345337,0.000000,41.659862,44.965825,7000.096132,0.531809,1.000000,-1.000000,-0.039387
18.900000,1.188396,-0.167398,-0.061926,4.502542,-0.176685,-1.374555,482.978699,3.283875,0.000000,41.659864,44.965830,7000.068440,0.947738,0.427157,1.000000,0.512504
19.000000,1.219690,-0.153480,-0.057484,4.611308,-1.042385,-1.539385,482.833801,3.138977,0.000000,41.659866,44.965835,7000.068440,0.674777,0.310310,0.060587,-0.637529
19.100000,1.247907,-0.139217,-0.053256,4.694935,-1.669875,-1.686482,482.613434,2.918610,0.000000,41.659868,44.965839,7000.043608,-1.000000,-0.488836,-1.000000,1.000000
19.200000,1.275123,-0.125008,-0.046782,4.754734,-1.529748,-1.831946,482.385712,2.690918,0.000000,41.659870,44.965844,7000.043608,0.268568,0.626689,-0.042353,-0.084343
19.300000,1.305601,-0.109196,-0.033720,4.811064,-1.277850,-1.977213,482.187439,2.492615,0.000000,41.659872,44.965849,7000.019937,-0.213006,-0.352918,0.159117,0.837694
19.400000,1.335302,-0.093680,-0.020035,4.842785,-1.501242,-2.124298,481.993958,2.299103,0.000000,41.659875,44.965854,7000.019937,0.816076,-0.503655,-0.352850,1.000000
19.500000,1.365932,-0.079497,-0.011933,4.848110,-1.809252,-2.284788,481.791565,2.096771,0.000000,41.659877,44.965860,6999.998381,-0.200456,0.301069,-1.000000,-1.000000
19.600000,1.395540,-0.065408,-0.006800,4.870187,-1.883511,-2.393463,481.559601,1.864777,0.000000,41.659879,44.965865,6999.998381,-0.592892,-0.372062,-0.439687,0.836843
19.700000,1.420556,-0.051916,-0.003091,4.495472,-1.020250,-2.350728,481.372101,1.677277,0.000000,41.659881,44.965871,6999.978607,0.636353,1.000000,-1.000000,0.810534
19.800000,1.450134,-0.032149,-0.012801,3.448454,0.239421,-2.123202,481.327118,1.632294,0.000000,41.659883,44.965875,6999.978607,1.000000,-0.649419,1.000000,0.760234
19.900000,1.485415,-0.009546,-0.007782,3.151932,-0.149550,-2.135143,481.326355,1.631561,0.000000,41.659885,44.965879,6999.959496,-1.000000,1.000000,1.000000,-0.832318
20.000000,1.519354,0.011037,-0.001240,2.937974,-0.209160,-2.095445,481.302704,1.607849,0.000000,41.659887,44.965883,6999.959496,0.246394,-0.826584,0.916856,0.392059
20.100000,1.543169,0.027335,0.004264,2.835353,0.017396,-2.065228,481.303192,1.608398,0.000000,41.659888,44.965887,6999.941877,0.820454,-1.000000,-0.548209,-0.755558
20.200000,1.559567,0.042655,0.006288,2.716546,-0.361614,-1.997873,481.297791,1.602966,0.000000,41.659890,44.965890,6999.941877,0.000919,-1.000000,-1.000000,-0.587010
20.300000,1.557513,0.051366,-0.007226,2.385941,-0.225861,-1.707121,481.269867,1.575043,0.000000,41.659891,44.965894,6999.924922,-1.000000,1.000000,-1.000000,-1.000000
20.400000,1.536192,0.047788,-0.020349,2.125524,0.516925,-1.406939,481.296936,1.602112,0.000000,41.659892,44.965896,6999.924922,-0.681032,0.504739,0.862727,1.000000
20.500000,1.508134,0.037091,-0.045645,2.238905,0.633174,-1.417395,481.367523,1.672699,0.000000,41.659893,44.965899,6999.908050,0.597767,-0.337676,-0.169244,-0.968096
20.600000,1.481562,0.023774,-0.074032,2.289189,0.341896,-1.389214,481.416718,1.721893,0.000000,41.659895,44.965902,6999.908050,-0.431215,-1.000000,1.000000,0.251500
20.700000,1.454936,0.010407,-0.096848,2.318102,0.038172,-1.365350,481.426910,1.732117,0.000000,41.659896,44.965905,6999.891634,1.000000,0.448560,0.629795,1.000000
20.800000,1.431390,-0.001207,-0.107426,2.009713,0.105142,-1.095819,481.420532,1.725739,0.000000,41.659897,44.965907,6999.891634,0.191795,0.043959,-0.382647,-0.551287
20.900000,1.415557,-0.007036,-0.093288,1.695247,-0.005570,-0.780823,481.418335,1.723541,0.000000,41.659898,44.965910,6999.874430,1.000000,0.536338,0.786272,0.089296
21.000000,1.404160,-0.006441,-0.066549,1.515688,-0.351105,-0.598141,481.394897,1.700073,0.000000,41.659898,44.965911,6999.874430,0.324615,0.638958,-1.000000,0.016374
21.100000,1.397357,-0.000451,-0.028473,1.297534,-0.603876,-0.363619,481.340576,1.645752,0.000000,41.659899,44.965913,6999.854490,-0.498106,0.051200,0.147444,-1.000000
21.200000,1.390018,0.008224,0.006713,0.924707,-0.143884,-0.047023,481.291138,1.596313,0.000000,41.659899,44.965914,6999.854490,0.540529,-0.813364,-0.295818,1.000000
21.300000,1.386833,0.011921,0.001319,0.551063,0.064078,-0.048932,481.298798,1.603973,0.000000,41.659899,44.965915,6999.832643,0.562752,-0.335681,-0.396226,-0.667291
21.400000,1.387564,0.012142,-0.001531,0.196985,-0.062937,-0.017973,481.296356,1.601532,0.000000,41.659899,44.965916,6999.832643,0.750750,1.000000,-0.214174,0.552189
21.500000,1.389076,0.011788,-0.001035,-0.033596,0.056135,0.013879,481.296753,1.601959,0.000000,41.659899,44.965916,6999.809760,-0.127241,-0.389216,-0.301023,-0.156930
21.600000,1.390958,0.014511,-0.000285,-0.037194,0.045970,0.019424,481.300629,1.605804,0.000000,41.659899,44.965916,6999.809760,-1.000000,0.231449,0.319136,-0.685310
21.700000,1.389177,0.014979,0.001201,0.050432,0.300440,0.029947,481.316223,1.621399,0.000000,41.659899,44.965916,6999.786670,0.236619,-0.440156,0.243114,0.918063
21.800000,1.388861,0.011847,0.001083,0.102498,0.335356,0.001849,481.355804,1.660980,0.000000,41.659899,44.965916,6999.786670,0.953965,0.099904,0.360625,1.000000
21.900000,1.395566,0.007792,-0.004358,0.111138,-0.183044,-0.040578,481.365295,1.670471,0.000000,41.659899,44.965916,6999.765238,0.235918,-0.235813,-1.000000,0.396420
22.000000,1.410030,0.004110,-0.010412,0.050968,-0.627826,-0.117167,481.316620,1.621796,0.000000,41.659899,44.965916,6999.765238,0.519333,-0.010576,-0.182848,0.718690
22.100000,1.422353,0.008765,-0.002837,-0.140343,0.115285,0.091315,481.290253,1.595428,0.000000,41.659899,44.965916,6999.745173,0.407867,1.000000,-0.335390,-1.000000
22.200000,1.425299,0.017218,0.001592,-0.112114,0.023644,0.056310,481.298035,1.603241,0.000000,41.659899,44.965916,6999.745173,-0.612873,0.958956,-0.694874,0.569321
22.300000,1.424088,0.025164,0.007445,-0.076195,0.038897,0.072490,481.302673,1.607849,0.000000,41.659899,44.965916,6999.725689,1.000000,0.823327,-1.000000,-0.212288
22.400000,1.422766,0.031235,0.007844,-0.065837,-0.177305,0.001700,481.299866,1.605011,0.000000,41.659899,44.965916,6999.725689,1.000000,-1.000000,-0.421447,-0.482954
22.500000,1.416639,0.033019,0.006829,-0.014458,-0.251599,0.014484,481.268005,1.573181,0.000000,41.659899,44.965916,6999.706952,-1.000000,-0.552228,0.653695,-0.701045
22.600000,1.408460,0.031417,0.005754,0.050141,0.248784,-0.016698,481.274323,1.579529,0.000000,41.659899,44.965916,6999.706952,0.654369,-1.000000,1.000000,0.227423
22.700000,1.399852,0.024884,0.004090,0.088970,-0.002827,-0.002695,481.290131,1.595337,0.000000,41.659899,44.965916,6999.688753,-0.028528,0.789016,-1.000000,-0.264149
22.800000,1.394799,0.018602,0.001257,0.117883,0.108400,-0.050131,481.291504,1.596680,0.000000,41.659899,44.965916,6999.688753,0.461965,-0.723550,-0.848219,-0.435095
22.900000,1.391314,0.012913,-0.001303,0.062604,0.003310,-0.015052,481.299164,1.604340,0.000000,41.659899,44.965916,6999.670305,0.587750,-0.369345,-0.926648,1.000000
23.000000,1.393724,0.011508,-0.001602,-0.001791,0.047327,-0.026757,481.299866,1.605042,0.000000,41.659899,44.965916,6999.670305,-0.265462,0.526335,-1.000000,0.427759
23.100000,1.400257,0.011456,-0.001803,0.015027,0.018294,-0.050878,481.303558,1.608734,0.000000,41.659899,44.965916,6999.652894,0.529289,0.552836,0.279904,0.674190
23.200000,1.408145,0.011135,-0.001220,0.026147,-0.055637,-0.028919,481.302460,1.607635,0.000000,41.659899,44.965916,6999.652894,0.245357,1.000000,-0.221221,-0.176192
23.300000,1.412158,0.012448,-0.000143,-0.006562,0.081422,0.033907,481.302063,1.607239,0.000000,41.659899,44.965916,6999.635400,-0.940500,-0.548030,0.454432,0.420885
23.400000,1.415699,0.011458,0.007410,0.107748,0.404672,0.069785,481.323242,1.628387,0.000000,41.659899,44.965916,6999.635400,-0.106267,-0.487243,-0.113116,-0.197362
23.500000,1.423016,0.005389,0.024309,0.186782,0.440093,0.070837,481.374084,1.679230,0.000000,41.659899,44.965916,6999.617160,0.525364,-1.000000,-0.733860,0.612783
23.600000,1.433591,-0.003639,0.036482,0.229376,-0.089504,0.065497,481.393555,1.698761,0.000000,41.659899,44.965916,6999.617160,0.394219,0.711621,1.000000,1.000000
23.700000,1.447196,-0.010637,0.035920,0.275143,-0.320079,-0.097279,481.369720,1.674896,0.000000,41.659899,44.965917,6999.599459,0.015972,-1.000000,-1.000000,0.348506
23.800000,1.461163,-0.010782,0.016775,0.218714,-0.150816,-0.376533,481.343140,1.648315,0.000000,41.659899,44.965917,6999.599459,-0.887886,0.499402,1.000000,0.472335
23.900000,1.476336,-0.006299,-0.000148,0.136026,0.080688,-0.448148,481.344116,1.649292,0.000000,41.659900,44.965917,6999.581716,0.774665,-0.132544,-1.000000,0.228112
24.000000,1.493427,-0.000457,-0.005735,0.125920,-0.050880,-0.462683,481.347656,1.652832,0.000000,41.659900,44.965917,6999.581716,-0.562016,-0.122907,1.000000,0.120050
24.100000,1.512019,0.006597,-0.007570,0.130500,-0.141677,-0.438471,481.333496,1.638672,0.000000,41.659900,44.965918,6999.562274,0.296376,1.000000,0.644103,-0.817274
24.200000,1.526809,0.013416,-0.000052,0.134367,-0.300255,-0.388699,481.314941,1.620117,0.000000,41.659901,44.965918,6999.562274,-0.042183,-0.426571,-0.812829,0.703469
24.300000,1.539257,0.020694,0.000296,0.028730,-0.013753,-0.216455,481.291351,1.596527,0.000000,41.659901,44.965918,6999.542168,-0.307490,-0.350044,0.264832,-1.000000
24.400000,1.546792,0.024926,-0.003444,-0.004165,0.361240,-0.118992,481.309906,1.615082,0.000000,41.659901,44.965918,6999.542168,-1.000000,1.000000,1.000000,-1.000000
24.500000,1.544692,0.026818,0.005092,0.036148,0.516089,-0.033338,481.361572,1.666748,0.000000,41.659901,44.965918,6999.521440,0.726354,0.371054,-0.061330,-0.478809
24.600000,1.533375,0.028196,0.024316,0.039544,0.369125,0.088170,481.403809,1.708984,0.000000,41.659901,44.965918,6999.521440,-1.000000,1.000000,0.014180,-1.000000
24.700000,1.513920,0.029194,0.057618,0.071593,0.412245,0.258065,481.440033,1.745209,0.000000,41.659901,44.965918,6999.499759,0.350833,0.478666,-0.595761,-0.309798
24.800000,1.489688,0.027765,0.101017,0.134123,0.445819,0.456584,481.483795,1.788940,0.000000,41.659901,44.965918,6999.499759,-0.624850,-0.094348,-0.445734,-0.820307
24.900000,1.463378,0.023428,0.140350,0.169805,0.167871,0.641232,481.509247,1.814423,0.000000,41.659900,44.965918,6999.478825,1.000000,-0.031980,0.922435,-0.314340
25.000000,1.431269,0.016979,0.173381,0.151474,-0.253786,0.867499,481.493958,1.799133,0.000000,41.659899,44.965918,6999.478825,1.000000,0.170410,1.000000,-1.000000
25.100000,1.396341,0.012387,0.183205,-0.279006,-0.215645,0.606661,481.450409,1.755585,0.000000,41.659899,44.965918,6999.457310,0.752080,-0.488120,0.503779,1.000000
25.200000,1.366014,0.017190,0.169150,-0.474454,0.045121,0.101971,481.440094,1.745270,0.000000,41.659898,44.965918,6999.457310,-0.267134,-0.771184,-0.526804,0.476816
25.300000,1.343438,0.029737,0.143433,-0.469963,-0.053859,-0.047588,481.438263,1.743439,0.000000,41.659898,44.965917,6999.433846,0.129441,-1.000000,-1.000000,0.346455
25.400000,1.329925,0.042902,0.113541,-0.452411,-0.276280,-0.059174,481.425110,1.730286,0.000000,41.659898,44.965917,6999.433846,1.000000,-0.066756,-0.772180,0.521253
25.500000,1.324535,0.054727,0.081078,-0.385717,-0.464279,-0.177691,481.385132,1.690308,0.000000,41.659899,44.965916,6999.409885,-1.000000,0.214378,-1.000000,0.938931
25.600000,1.327184,0.063310,0.042098,-0.203044,-0.224119,-0.337479,481.345886,1.651062,0.000000,41.659899,44.965916,6999.409885,0.258249,0.112266,-0.763214,0.081121
25.700000,1.335435,0.063566,0.006374,-0.012448,0.139127,-0.353564,481.342957,1.648132,0.000000,41.659899,44.965916,6999.386670,-1.000000,0.536744,0.486569,-0.546351
25.800000,1.342830,0.054907,-0.017349,0.158750,0.570554,-0.327913,481.372986,1.678162,0.000000,41.659899,44.965916,6999.386670,-1.000000,0.889124,-0.112561,1.000000
25.900000,1.354959,0.036312,-0.025146,0.302457,1.018110,-0.280474,481.464569,1.769745,0.000000,41.659900,44.965916,6999.364284,0.446793,0.450939,-1.000000,-0.815428
26.000000,1.370812,0.011891,-0.014685,0.369413,0.768363,-0.227773,481.561157,1.866302,0.000000,41.659900,44.965916,6999.364284,0.071933,-0.061568,-0.075947,-1.000000
26.100000,1.379757,-0.014415,0.007620,0.451791,0.442120,-0.124637,481.614258,1.919434,0.000000,41.659900,44.965917,6999.343889,-0.589910,0.514860,0.225566,-0.473001
26.200000,1.378985,-0.046038,0.041785,0.605002,0.600940,0.001918,481.661072,1.966248,0.000000,41.659900,44.965918,6999.343889,-0.753965,-1.000000,0.126222,-0.795239
26.300000,1.368246,-0.080527,0.079286,0.798282,1.196433,0.111303,481.746277,2.051422,0.000000,41.659900,44.965918,6999.324571,-0.703075,-0.335293,-0.514635,-1.000000
26.400000,1.346760,-0.113711,0.107699,0.967971,1.551200,0.178573,481.873413,2.178619,0.000000,41.659900,44.965920,6999.324571,0.857580,-1.000000,0.440607,-0.059756
26.500000,1.318627,-0.146612,0.126813,1.094657,1.202184,0.313342,481.999756,2.304932,0.000000,41.659900,44.965921,6999.303387,0.351521,0.350027,1.000000,-1.000000
26.600000,1.288542,-0.174531,0.138413,1.226378,0.638359,0.489697,482.063934,2.369110,0.000000,41.659899,44.965923,6999.303387,-0.422083,1.000000,-1.000000,0.626015
26.700000,1.263832,-0.195982,0.142278,1.384316,0.392530,0.640949,482.080963,2.386139,0.000000,41.659899,44.965924,6999.280587,0.522077,-1.000000,-0.615179,-0.877358
26.800000,1.242570,-0.214297,0.141859,1.592447,0.119360,0.821429,482.064606,2.369781,0.000000,41.659899,44.965926,6999.280587,-0.345589,0.175137,0.143211,-1.000000
26.900000,1.216848,-0.227509,0.141522,1.809729,-0.162542,1.051205,482.012024,2.317200,0.000000,41.659898,44.965929,6999.255838,1.000000,-0.515550,0.055115,0.559447
27.000000,1.191977,-0.235843,0.138592,1.922677,-0.550487,1.168473,481.921753,2.226929,0.000000,41.659897,44.965931,6999.255838,0.999138,-0.939507,1.000000,0.147678
27.100000,1.176868,-0.239867,0.118500,1.388595,-0.646156,0.808768,481.814667,2.119843,0.000000,41.659897,44.965933,6999.228727,1.000000,-0.565150,0.582928,0.620315
27.200000,1.172990,-0.238132,0.088839,1.019552,-0.812934,0.454913,481.695618,2.000793,0.000000,41.659897,44.965934,6999.228727,0.348682,-0.848723,0.799445,-0.299091
27.300000,1.172869,-0.225605,0.065184,-0.138460,-0.000873,-0.119426,481.643219,1.948395,0.000000,41.659897,44.965934,6999.201117,0.499921,-1.000000,-0.259793,1.000000
27.400000,1.175132,-0.202929,0.050273,-0.476643,-0.085004,-0.279770,481.659393,1.964569,0.000000,41.659897,44.965934,6999.201117,0.706004,0.639368,0.856023,-0.797028
27.500000,1.175841,-0.174986,0.035986,-0.403609,-0.453478,-0.228093,481.637634,1.942810,0.000000,41.659897,44.965933,6999.173094,-0.563091,0.672937,-1.000000,-1.000000
27.600000,1.164589,-0.144439,0.026571,-0.375821,-0.273151,-0.100440,481.600006,1.905182,0.000000,41.659897,44.965933,6999.173094,-0.463611,-1.000000,-1.000000,-0.586751
27.700000,1.141717,-0.110810,0.006807,-0.173103,0.546296,-0.102932,481.619568,1.924744,0.000000,41.659897,44.965932,6999.146231,-1.000000,-0.908011,-0.116538,1.000000
27.800000,1.117911,-0.085193,-0.018499,0.221980,1.476025,-0.265047,481.717224,2.022400,0.000000,41.659897,44.965932,6999.146231,-1.000000,0.261954,1.000000,-0.706162
27.900000,1.098117,-0.070668,-0.052316,0.550358,2.409216,-0.381336,481.904877,2.210052,0.000000,41.659898,44.965933,6999.123016,0.278286,1.000000,1.000000,-0.310542
28.000000,1.075937,-0.060306,-0.082657,0.704588,2.374026,-0.356781,482.147491,2.452698,0.000000,41.659898,44.965934,6999.123016,1.000000,-1.000000,1.000000,-0.261095
28.100000,1.052737,-0.050506,-0.101227,0.784037,1.760836,-0.357868,482.350372,2.655579,0.000000,41.659899,44.965934,6999.102330,-0.695644,1.000000,1.000000,0.086407
28.200000,1.033954,-0.039774,-0.108788,0.821911,1.306615,-0.419615,482.485291,2.790466,0.000000,41.659900,44.965935,6999.102330,-0.260736,-0.049866,-0.891491,0.396065
28.300000,1.021031,-0.025115,-0.102247,0.846358,1.134297,-0.495670,482.602295,2.907471,0.000000,41.659901,44.965936,6999.082266,-0.202993,-0.226116,0.092985,-0.605581
28.400000,1.013047,-0.008974,-0.080286,0.893148,0.743275,-0.582494,482.695435,3.000641,0.000000,41.659901,44.965936,6999.082266,1.000000,-1.000000,0.432198,0.684909
28.500000,1.009505,0.005993,-0.055076,0.908484,-0.005818,-0.623088,482.728241,3.033417,0.000000,41.659902,44.965937,6999.060917,1.000000,-0.249218,-0.026025,-1.000000
28.600000,1.006257,0.021239,-0.028796,0.892368,-0.920855,-0.594492,482.676666,2.981812,0.000000,41.659903,44.965938,6999.060917,-0.148518,-1.000000,0.529434,0.259097
28.700000,1.001811,0.035778,-0.006806,0.862269,-1.356306,-0.583560,482.557129,2.862305,0.000000,41.659904,44.965938,6999.037453,0.106823,1.000000,0.426104,0.969648
28.800000,1.005515,0.049093,0.007439,0.813846,-1.610862,-0.617408,482.420563,2.725739,0.000000,41.659905,44.965939,6999.037453,0.582409,-1.000000,0.204318,0.879824
28.900000,1.022433,0.062907,0.017878,0.741250,-2.028791,-0.627583,482.239960,2.545135,0.000000,41.659906,44.965940,6999.011419,0.147188,-1.000000,-0.174984,-1.000000
29.000000,1.043482,0.075989,0.026099,0.668925,-2.258426,-0.580454,482.023987,2.329132,0.000000,41.659906,44.965940,6999.011419,-0.081425,-0.645701,1.000000,0.033139
29.100000,1.058647,0.087163,0.029392,0.616247,-1.770980,-0.603051,481.829163,2.134338,0.000000,41.659907,44.965941,6998.985261,-1.000000,0.344604,0.606822,-0.009266
29.200000,1.074820,0.098099,0.022860,0.533395,-0.790768,-0.670089,481.709503,2.014648,0.000000,41.659908,44.965941,6998.985261,-0.073204,-0.686522,-0.308087,-0.318617
29.300000,1.088527,0.109754,0.010504,0.439678,-0.120382,-0.696310,481.672516,1.977692,0.000000,41.659909,44.965942,6998.958274,-1.000000,-1.000000,0.882800,-0.342907
29.400000,1.097765,0.121795,-0.006311,0.338500,0.120150,-0.748926,481.682770,1.987915,0.000000,41.659909,44.965942,6998.958274,0.807666,-1.000000,1.000000,0.876038
29.500000,1.111834,0.136367,-0.029732,0.197601,-0.276507,-0.831466,481.681183,1.986328,0.000000,41.659910,44.965942,6998.929670,1.000000,0.676346,-0.812300,1.000000
29.600000,1.138044,0.153066,-0.052966,0.027320,-1.048664,-0.923693,481.613403,1.918579,0.000000,41.659911,44.965942,6998.929670,0.656706,-1.000000,1.000000,0.774293
29.700000,1.171425,0.170012,-0.071083,-0.200070,-1.682861,-0.949057,481.471680,1.776855,0.000000,41.659912,44.965942,6998.902849,1.000000,0.559051,-0.763298,-0.794392
29.800000,1.199994,0.176161,-0.075786,-0.353036,-1.282818,-0.139813,481.305176,1.610321,0.000000,41.659912,44.965942,6998.902849,0.908417,0.894694,1.000000,-0.497379
29.900000,1.208260,0.171459,-0.060291,0.211924,0.329577,0.514795,481.268982,1.574127,0.000000,41.659912,44.965942,6998.876939,0.403719,-0.432150,0.522771,0.441399
30.000000,1.213018,0.160195,-0.020623,0.230113,0.254225,0.724864,481.309814,1.614990,0.000000,41.659911,44.965942,6998.876939,0.794461,-0.440867,1.000000,-0.404022
30.100000,1.215629,0.146832,0.012961,0.189568,-0.102718,0.523775,481.317352,1.622528,0.000000,41.659911,44.965942,6998.851237,0.265643,1.000000,-1.000000,0.150453
30.200000,1.214152,0.131439,0.036177,0.257713,0.101569,0.269048,481.318970,1.624146,0.000000,41.659911,44.965943,6998.851237,0.768586,-0.296735,-1.000000,-1.000000
30.300000,1.205143,0.113017,0.048429,0.315514,0.353699,0.185606,481.339630,1.644775,0.000000,41.659910,44.965943,6998.828520,-0.787116,0.556858,-0.067182,-1.000000
30.400000,1.182589,0.088449,0.060709,0.224965,0.198158,0.221468,481.371674,1.676849,0.000000,41.659910,44.965943,6998.828520,1.000000,0.566916,1.000000,0.566181
30.500000,1.154571,0.061024,0.072201,0.165867,-0.187170,0.198977,481.374115,1.679291,0.000000,41.659910,44.965944,6998.808248,1.000000,-1.000000,-1.000000,1.000000
30.600000,1.133697,0.035508,0.066039,0.162023,-0.447117,0.013465,481.341187,1.646362,0.000000,41.659910,44.965944,6998.808248,0.794591,-0.071938,-0.542983,0.504106
30.700000,1.116316,0.015084,0.030816,0.060922,-0.388139,-0.375802,481.295105,1.600281,0.000000,41.659910,44.965944,6998.789428,-0.245885,0.341402,-1.000000,0.614092
30.800000,1.106955,0.008262,-0.006181,0.043721,0.129617,-0.389809,481.277863,1.583038,0.000000,41.659911,44.965944,6998.789428,0.594681,-0.014975,-0.140005,-0.039299
30.900000,1.107078,0.008917,-0.017620,0.022365,0.308016,-0.162173,481.297485,1.602661,0.000000,41.659911,44.965944,6998.772514,-1.000000,0.477823,1.000000,-1.000000
31.000000,1.102362,0.008026,-0.023101,0.110504,0.367805,-0.086465,481.335327,1.640533,0.000000,41.659911,44.965944,6998.772514,0.530782,-0.192503,-0.937987,0.627304
31.100000,1.093264,0.002825,-0.019280,0.206994,0.348438,-0.066947,481.371765,1.676941,0.000000,41.659911,44.965944,6998.756388,-1.000000,-0.629257,0.714564,-1.000000
31.200000,1.081239,-0.005284,-0.008830,0.300785,0.436410,-0.056802,481.406952,1.712097,0.000000,41.659911,44.965944,6998.756388,0.134547,-0.807180,0.140773,-0.028444
31.300000,1.061944,-0.016149,0.002336,0.367663,0.310932,-0.072565,481.451538,1.756714,0.000000,41.659912,44.965945,6998.740386,1.000000,0.162451,-0.526047,0.903074
31.400000,1.045362,-0.027150,0.007870,0.424108,-0.155170,-0.090633,481.456482,1.761627,0.000000,41.659912,44.965945,6998.740386,-0.808065,0.155336,0.825891,-0.392734
31.500000,1.032959,-0.037029,0.009099,0.494209,-0.141086,-0.085670,481.434113,1.739288,0.000000,41.659912,44.965946,6998.724509,-1.000000,-0.212236,1.000000,-0.105602
31.600000,1.020105,-0.045058,0.006585,0.511350,0.790241,-0.075601,481.461365,1.766510,0.000000,41.659912,44.965946,6998.724509,-1.000000,1.000000,-1.000000,0.687708
31.700000,1.014840,-0.050009,0.012024,0.577147,1.735119,-0.075416,481.594208,1.899353,0.000000,41.659912,44.965947,6998.706808,0.702482,1.000000,1.000000,0.821087
31.800000,1.021645,-0.053600,0.030851,0.659424,1.699037,-0.062260,481.761566,2.066742,0.000000,41.659913,44.965947,6998.706808,0.708459,0.279197,-0.885459,-0.102928
31.900000,1.037388,-0.057381,0.059677,0.745147,1.191523,-0.005950,481.904999,2.210175,0.000000,41.659913,44.965948,6998.685749,-0.622687,-1.000000,-1.000000,-0.946525
32.000000,1.051599,-0.061953,0.092826,0.857899,0.655774,0.103602,481.993561,2.298706,0.000000,41.659913,44.965949,6998.685749,1.000000,1.000000,1.000000,1.000000
32.100000,1.067607,-0.068287,0.120322,0.974141,0.248740,0.186328,482.027313,2.332458,0.000000,41.659913,44.965950,6998.662948,-1.000000,0.735147,-0.829472,-0.459817
32.200000,1.092699,-0.077835,0.144704,1.117270,0.136883,0.306205,482.030029,2.335205,0.000000,41.659913,44.965952,6998.662948,0.181286,-0.334563,0.958892,0.832268
32.300000,1.124322,-0.090396,0.168844,1.283957,0.308263,0.449546,482.039581,2.344788,0.000000,41.659913,44.965953,6998.638324,1.000000,0.417936,0.506030,-1.000000
32.400000,1.155672,-0.103112,0.188812,1.403801,-0.087843,0.606475,482.031158,2.336334,0.000000,41.659913,44.965955,6998.638324,0.544446,0.169175,1.000000,0.802487
32.500000,1.189724,-0.115272,0.205180,1.528430,-0.607388,0.790054,481.963470,2.268677,0.000000,41.659913,44.965957,6998.611212,0.166946,0.662955,-0.051098,-0.968898
32.600000,1.225609,-0.124627,0.217809,1.657653,-0.902938,0.966742,481.847504,2.152679,0.000000,41.659913,44.965959,6998.611212,0.119241,0.480392,-1.000000,1.000000
32.700000,1.260768,-0.129220,0.230481,1.397661,-0.772935,0.737536,481.731415,2.036591,0.000000,41.659912,44.965960,6998.583645,0.666708,-1.000000,1.000000,-1.000000
32.800000,1.296544,-0.129342,0.248793,0.490252,-0.306075,0.106080,481.652069,1.957245,0.000000,41.659912,44.965961,6998.583645,1.000000,1.000000,0.412456,-0.423577
32.900000,1.320752,-0.118284,0.253174,-0.328045,0.301305,-0.436294,481.660980,1.966187,0.000000,41.659912,44.965961,6998.554958,0.369070,-0.666796,1.000000,0.560405
33.000000,1.336491,-0.096430,0.237804,-0.361942,0.001602,-0.446595,481.696747,2.001923,0.000000,41.659913,44.965961,6998.554958,-0.430690,0.218403,-0.558044,0.320109
33.100000,1.356878,-0.071933,0.223567,-0.303725,-0.095249,-0.280273,481.695557,2.000732,0.000000,41.659913,44.965961,6998.524779,-0.031786,-0.830975,0.902256,-1.000000
33.200000,1.371660,-0.044651,0.209272,-0.247376,0.125194,-0.103321,481.702148,2.007324,0.000000,41.659913,44.965960,6998.524779,-0.638925,-1.000000,0.667353,0.598651
33.300000,1.381476,-0.017561,0.187938,-0.234734,0.449406,-0.013445,481.730255,2.035431,0.000000,41.659913,44.965960,6998.496258,-0.357937,-1.000000,1.000000,1.000000
33.400000,1.395833,0.012477,0.153157,-0.268288,0.541447,0.033092,481.785858,2.091064,0.000000,41.659913,44.965960,6998.496258,0.375263,0.316575,0.561131,0.114914
33.500000,1.414543,0.043673,0.116764,-0.312677,0.169881,0.139413,481.819763,2.124939,0.000000,41.659913,44.965959,6998.470555,-0.326900,0.053005,-0.317972,-0.410775
33.600000,1.428872,0.073912,0.087692,-0.359653,0.066207,0.251400,481.821899,2.127075,0.000000,41.659913,44.965959,6998.470555,-0.402094,1.000000,-0.772712,-0.696597
33.700000,1.434734,0.104592,0.066680,-0.333785,0.574984,0.379184,481.844299,2.149475,0.000000,41.659913,44.965958,6998.447050,-1.000000,0.066099,-0.349635,-0.211627
33.800000,1.434058,0.128791,0.063608,-0.262790,0.977616,0.532218,481.922302,2.227448,0.000000,41.659912,44.965958,6998.447050,0.082335,0.597819,0.370453,-0.709434
33.900000,1.430766,0.144851,0.076781,-0.269265,0.975550,0.628783,482.009888,2.315094,0.000000,41.659912,44.965958,6998.426281,-0.604533,-1.000000,-0.332507,1.000000
34.000000,1.432113,0.155187,0.097254,-0.299648,1.056100,0.668439,482.096802,2.401978,0.000000,41.659911,44.965957,6998.426281,-1.000000,-0.511963,-0.012972,0.533424
34.100000,1.442248,0.157636,0.112873,-0.326301,1.245544,0.672046,482.207550,2.512726,0.000000,41.659910,44.965956,6998.406300,1.000000,-1.000000,-0.104513,-0.357720
34.200000,1.454827,0.155270,0.117679,-0.423318,0.776463,0.770296,482.292511,2.597687,0.000000,41.659909,44.965956,6998.406300,-0.026458,-1.000000,1.000000,-0.257665
34.300000,1.464457,0.151163,0.112165,-0.554747,0.053288,0.928656,482.315918,2.621094,0.000000,41.659909,44.965955,6998.385158,1.000000,0.801487,0.889932,-0.651632
34.400000,1.469083,0.147316,0.096384,-0.690789,-0.538144,1.044505,482.268219,2.573395,0.000000,41.659908,44.965954,6998.385158,-0.597016,-1.000000,-0.532520,0.426790
34.500000,1.475511,0.144265,0.075508,-0.798922,-0.829448,1.084436,482.182220,2.487396,0.000000,41.659907,44.965954,6998.362482,0.620173,0.890091,0.982424,-0.224323
34.600000,1.488095,0.141317,0.053453,-0.890698,-1.142955,1.135055,482.066315,2.371490,0.000000,41.659906,44.965953,6998.362482,0.757372,0.410258,-0.542918,-1.000000
34.700000,1.498575,0.139141,0.038137,-0.986906,-1.752460,1.246221,481.900085,2.205261,0.000000,41.659905,44.965952,6998.337941,0.196039,0.421786,-0.737357,-0.048348
34.800000,1.505488,0.136757,0.033119,-1.038594,-2.025826,1.325721,481.698975,2.004150,0.000000,41.659904,44.965951,6998.337941,0.239034,0.170412,1.000000,1.000000
34.900000,1.519742,0.131519,0.038656,-1.076255,-2.322353,1.367283,481.464142,1.769318,0.000000,41.659903,44.965950,6998.311036,1.000000,-0.013143,0.850063,0.821306
35.000000,1.544693,0.126381,0.046916,-0.263311,-1.242467,0.579405,481.237396,1.542572,0.000000,41.659902,44.965949,6998.311036,-0.262838,1.000000,1.000000,-0.467973
35.100000,1.556662,0.128567,0.046054,0.119891,0.822068,-0.320119,481.242706,1.547882,0.000000,41.659902,44.965949,6998.283718,0.074207,-0.183854,-0.259154,-0.190814
35.200000,1.558843,0.131827,0.025396,0.056639,1.033453,-0.343552,481.343872,1.649017,0.000000,41.659902,44.965949,6998.283718,-1.000000,0.956473,0.360697,0.786674
35.300000,1.565721,0.137745,0.032652,-0.070031,1.107640,-0.246515,481.453949,1.759125,0.000000,41.659903,44.965949,6998.257062,0.285256,1.000000,1.000000,-0.548573
35.400000,1.576878,0.144420,0.065963,-0.205363,0.941616,-0.126076,481.554688,1.859863,0.000000,41.659903,44.965949,6998.257062,0.075595,-0.601896,1.000000,-1.000000
35.500000,1.580413,0.153296,0.111018,-0.361220,0.330824,0.078309,481.614899,1.920074,0.000000,41.659903,44.965948,6998.231733,0.683803,0.381367,0.197040,-0.911617
35.600000,1.565070,0.165545,0.152952,-0.523100,-0.257003,0.325622,481.607849,1.913025,0.000000,41.659903,44.965948,6998.231733,0.217903,0.007637,0.507621,-1.000000
35.700000,1.535020,0.177395,0.178788,-0.655871,-0.227435,0.300697,481.560577,1.865753,0.000000,41.659903,44.965947,6998.209637,-0.861881,0.060055,-0.735659,-0.434377
35.800000,1.493354,0.188188,0.193570,-0.640946,0.282727,0.176213,481.545929,1.851074,0.000000,41.659902,44.965946,6998.209637,-0.434817,0.795701,-1.000000,-0.779989
35.900000,1.445611,0.198165,0.212562,-0.649980,0.615123,0.273394,481.582825,1.888000,0.000000,41.659902,44.965945,6998.189407,0.201885,-0.123659,0.393954,-0.720276
36.000000,1.394031,0.205788,0.230495,-0.673513,0.821986,0.374627,481.619965,1.925140,0.000000,41.659902,44.965944,6998.189407,-1.000000,-0.850051,-0.301828,-1.000000
36.100000,1.332449,0.212311,0.254068,-0.656335,1.089820,0.340378,481.700684,2.005829,0.000000,41.659901,44.965943,6998.169426,0.616034,-1.000000,-1.000000,-0.908766
