t,yaw,pitch,roll,speed.x,speed.y,speed.z,altBar,altRad,egt,myloclat,myloclon,weightlb,collective,bank,pitch,rudder
0.100000,5.374699,0.031624,0.000931,-0.097073,0.517387,0.032737,481.239288,1.544464,0.000000,41.659724,44.965707,7004.964901,-0.477411,-0.057259,-0.989236,-0.271275
0.200000,5.370285,0.037299,0.004894,-0.074744,0.106328,0.058685,481.265533,1.570740,0.000000,41.659724,44.965707,7004.964901,-0.937109,0.968423,1.000000,0.056694
0.300000,5.366796,0.040725,0.008002,-0.055914,0.093178,0.015477,481.273621,1.578796,0.000000,41.659724,44.965707,7000.556034,-1.000000,-0.204071,-1.000000,-0.561617
0.400000,5.360385,0.041792,0.005098,-0.015087,0.441300,0.008036,481.300079,1.605255,0.000000,41.659724,44.965707,7000.556034,-0.238015,-0.776461,-0.022446,-0.289004
0.500000,5.345545,0.039759,0.006092,0.049419,0.655377,0.053448,481.360046,1.665222,0.000000,41.659724,44.965707,7000.556034,-0.490418,-0.050978,0.021407,-1.000000
0.600000,5.322349,0.035508,0.010660,0.079452,0.535491,0.103880,481.421814,1.727020,0.000000,41.659724,44.965707,7000.556034,1.000000,0.022992,1.000000,-0.188494
0.700000,5.290596,0.029967,0.017794,0.068856,-0.085464,0.177237,481.447388,1.752563,0.000000,41.659725,44.965707,7000.541649,0.601053,-0.849157,-0.675035,-1.000000
0.800000,5.252441,0.024527,0.026686,0.054296,-0.781273,0.282566,481.398468,1.703644,0.000000,41.659725,44.965707,7000.541649,-0.329712,1.000000,-1.000000,-0.817037
0.900000,5.210419,0.019161,0.035196,-0.017631,-0.673438,0.333759,481.315735,1.620911,0.000000,41.659725,44.965707,7000.526849,0.135018,1.000000,-0.538604,0.934531
1.000000,5.174474,0.013678,0.010486,-0.253104,-0.127628,0.065716,481.281433,1.586609,0.000000,41.659725,44.965708,7000.526849,0.236324,-0.963745,1.000000,0.196401
1.100000,5.160257,0.020082,0.003275,-0.143245,0.132055,0.019265,481.286560,1.591736,0.000000,41.659725,44.965708,7000.509563,-0.434661,0.480393,0.069481,-1.000000
1.200000,5.155396,0.025646,0.003316,-0.120592,0.308912,-0.016830,481.305664,1.610840,0.000000,41.659725,44.965708,7000.509563,-0.888173,-1.000000,0.115409,0.823466
1.300000,5.155801,0.028998,0.007620,-0.061025,0.470228,-0.045942,481.351563,1.656738,0.000000,41.659725,44.965708,7000.489042,0.529459,0.071059,-1.000000,0.782014
1.400000,5.169564,0.030549,0.013087,-0.022835,0.383419,-0.096265,481.394104,1.699280,0.000000,41.659725,44.965708,7000.489042,-1.000000,1.000000,-0.486312,0.839372
1.500000,5.195062,0.030210,0.018866,0.026700,0.500129,-0.115496,481.434631,1.739807,0.000000,41.659725,44.965708,7000.467030,0.113686,-0.184578,0.482299,-1.000000
1.600000,5.226545,0.027623,0.028730,0.071340,0.486308,-0.062678,481.490631,1.795807,0.000000,41.659725,44.965708,7000.467030,1.000000,0.499705,-0.984322,-0.181880
1.700000,5.252500,0.024031,0.042060,0.074984,-0.095783,0.038402,481.513062,1.818237,0.000000,41.659725,44.965708,7000.443027,1.000000,-1.000000,0.235454,0.023910
1.800000,5.275549,0.020458,0.054300,0.073331,-0.768618,0.132248,481.468262,1.773438,0.000000,41.659725,44.965708,7000.443027,-1.000000,-0.332595,0.775648,-0.960337
1.900000,5.297785,0.016279,0.066260,0.117222,-0.842156,0.212155,481.377197,1.682373,0.000000,41.659725,44.965708,7000.416496,-1.000000,0.317334,-1.000000,1.000000
2.000000,5.316097,0.017252,0.062521,0.169500,0.024307,-0.097578,481.348969,1.654144,0.000000,41.659725,44.965708,7000.416496,1.000000,1.000000,1.000000,-0.617327
2.100000,5.331977,0.022617,0.050414,0.153878,-0.221637,-0.121787,481.343201,1.648376,0.000000,41.659725,44.965707,7000.389343,0.267936,0.875618,-0.354274,0.307664
2.200000,5.346847,0.030144,0.031894,0.070500,-0.455429,-0.245952,481.302979,1.608154,0.000000,41.659725,44.965707,7000.389343,0.061606,1.000000,-1.000000,0.114476
2.300000,5.360881,0.037305,0.004471,0.025120,-0.012157,-0.344378,481.272736,1.577881,0.000000,41.659725,44.965707,7000.361817,-1.000000,-0.189607,0.318290,-0.850044
2.400000,5.367316,0.040112,-0.004577,0.058001,0.732556,-0.295630,481.308624,1.613800,0.000000,41.659725,44.965707,7000.361817,-0.918990,-0.324742,0.165038,0.497297
2.500000,5.374081,0.038252,-0.004862,0.202682,1.774859,-0.340665,481.438232,1.743408,0.000000,41.659725,44.965706,7000.335037,-0.946593,0.411336,-1.000000,0.352346
2.600000,5.387044,0.030894,-0.000334,0.296742,2.398298,-0.392139,481.662018,1.967194,0.000000,41.659724,44.965706,7000.335037,0.218162,-0.133219,-0.549599,-0.420911
2.700000,5.400497,0.021122,0.006259,0.326077,2.333598,-0.393490,481.890930,2.196106,0.000000,41.659724,44.965705,7000.311159,-0.929947,-1.000000,-0.417867,-0.045564
2.800000,5.413763,0.008563,0.013820,0.368478,2.317404,-0.406291,482.126648,2.431793,0.000000,41.659724,44.965705,7000.311159,-0.144296,0.788961,1.000000,0.669923
2.900000,5.432458,-0.006016,0.019555,0.397075,2.114696,-0.432160,482.359222,2.664398,0.000000,41.659724,44.965704,7000.289353,1.000000,0.174444,-1.000000,0.074449
3.000000,5.455977,-0.019998,0.022160,0.396076,1.430278,-0.411240,482.531525,2.836700,0.000000,41.659724,44.965703,7000.289353,1.000000,0.840489,-0.092306,-0.713478
3.100000,5.478234,-0.033829,0.024875,0.419141,0.658123,-0.304210,482.633881,2.939056,0.000000,41.659725,44.965703,7000.266968,-1.000000,-0.058773,-0.723703,-1.000000
3.200000,5.487602,-0.046789,0.032526,0.505138,0.392508,-0.177698,482.678894,2.984070,0.000000,41.659725,44.965702,7000.266968,-1.000000,1.000000,-0.848145,-1.000000
3.300000,5.485506,-0.059534,0.045300,0.665309,0.857437,-0.104360,482.732849,3.037994,0.000000,41.659725,44.965702,7000.243131,-0.499601,-1.000000,-0.114028,0.178902
3.400000,5.481789,-0.075638,0.060887,0.858538,1.457016,-0.074313,482.846405,3.151611,0.000000,41.659726,44.965701,7000.243131,-1.000000,-0.474068,-0.455209,0.394545
3.500000,5.485790,-0.094198,0.074135,1.022102,1.725082,-0.071383,483.004456,3.309631,0.000000,41.659726,44.965700,7000.217636,-0.043880,-1.000000,-0.244594,0.270308
3.600000,5.499691,-0.112840,0.082589,1.161609,1.677732,-0.061886,483.160278,3.465454,0.000000,41.659727,44.965699,7000.217636,1.000000,0.983231,1.000000,0.789679
3.700000,5.526459,-0.132469,0.085605,1.287091,1.062656,-0.042162,483.286438,3.591614,0.000000,41.659728,44.965698,7000.190152,1.000000,-0.717653,-0.683433,0.948358
3.800000,5.566445,-0.150626,0.080444,1.428123,0.278755,-0.029675,483.332001,3.637177,0.000000,41.659730,44.965698,7000.190152,-0.370119,1.000000,1.000000,-1.000000
3.900000,5.609390,-0.165413,0.070657,1.589766,-0.275072,0.007765,483.308350,3.613525,0.000000,41.659731,44.965697,7000.162211,1.000000,-1.000000,-0.106119,0.888022
4.000000,5.656150,-0.177980,0.057779,1.774740,-0.848405,-0.009037,483.222809,3.527985,0.000000,41.659732,44.965696,7000.162211,-0.074893,0.761578,-0.998632,1.000000
4.100000,5.708560,-0.187151,0.040225,1.965404,-1.216394,-0.053249,483.079620,3.384796,0.000000,41.659733,44.965695,7000.133234,-1.000000,-0.814229,-1.000000,-0.750479
4.200000,5.756776,-0.191688,0.024309,2.147176,-0.844808,-0.114998,482.941986,3.247162,0.000000,41.659735,44.965694,7000.133234,0.157250,0.378517,-1.000000,0.181087
4.300000,5.799842,-0.192170,0.014087,2.354425,-0.382984,-0.141506,482.838593,3.143768,0.000000,41.659736,44.965693,7000.102681,-0.935767,-0.430221,0.663437,-1.000000
4.400000,5.831278,-0.189624,0.013478,2.585802,0.253542,-0.136759,482.777252,3.082428,0.000000,41.659738,44.965692,7000.102681,-1.000000,-0.498040,-0.667021,-0.714370
4.500000,5.847062,-0.186274,0.023381,2.841841,0.852648,-0.123728,482.791534,3.096710,0.000000,41.659741,44.965690,7000.073539,0.486795,-1.000000,-0.173203,1.000000
4.600000,5.861776,-0.182760,0.034838,3.071128,0.641997,-0.158054,482.816833,3.122009,0.000000,41.659743,44.965689,7000.073539,1.000000,-1.000000,0.222182,-0.001370
4.700000,5.882623,-0.178629,0.041282,3.262404,0.027879,-0.189451,482.791962,3.097137,0.000000,41.659746,44.965688,7000.046759,-0.863310,0.242600,1.000000,0.007607
4.800000,5.904133,-0.173630,0.044761,3.438139,-0.209724,-0.210653,482.723572,3.028748,0.000000,41.659749,44.965687,7000.046759,0.563961,1.000000,0.051723,0.809982
4.900000,5.930789,-0.167096,0.045109,3.615366,-0.365571,-0.291650,482.636688,2.941864,0.000000,41.659752,44.965686,7000.021803,-0.599749,1.000000,-1.000000,0.794598
5.000000,5.964711,-0.159302,0.039800,3.778799,-0.319061,-0.408653,482.534973,2.840149,0.000000,41.659755,44.965684,7000.021803,-1.000000,-1.000000,-1.000000,-0.980658
5.100000,5.995608,-0.150475,0.034363,3.937571,-0.074924,-0.458216,482.465240,2.770416,0.000000,41.659758,44.965683,6999.998546,0.540691,0.032825,0.716170,-0.469550
5.200000,6.014990,-0.139771,0.034472,4.096846,-0.214573,-0.422209,482.398468,2.703644,0.000000,41.659761,44.965682,6999.998546,1.000000,-0.294251,0.069788,0.736723
5.300000,6.028849,-0.128442,0.035870,4.230664,-0.729295,-0.425931,482.295044,2.600220,0.000000,41.659765,44.965681,6999.975580,-0.381509,0.182287,-0.847177,-0.367177
5.400000,6.043059,-0.117554,0.034958,4.336449,-1.164182,-0.441124,482.155029,2.460205,0.000000,41.659769,44.965680,6999.975580,1.000000,0.263389,0.771380,1.000000
5.500000,6.058234,-0.105646,0.032210,4.427336,-1.555884,-0.458058,481.968079,2.273254,0.000000,41.659772,44.965679,6999.952780,-0.427664,-0.792901,0.781423,0.790159
5.600000,6.076245,-0.093331,0.026816,4.497531,-1.683280,-0.549435,481.754089,2.059265,0.000000,41.659776,44.965678,6999.952780,0.141250,0.196546,-0.407216,0.857831
5.700000,6.100299,-0.081157,0.018828,4.544631,-1.735989,-0.685212,481.559967,1.865143,0.000000,41.659780,44.965677,6999.931472,0.662786,-0.560595,0.966200,0.845398
5.800000,6.132302,-0.064780,0.002459,3.779249,-1.253093,-0.855081,481.361053,1.666229,0.000000,41.659784,44.965676,6999.931472,0.853545,-1.000000,0.769893,-0.715138
5.900000,6.161626,-0.036524,-0.006181,2.070782,0.379503,-0.727457,481.319916,1.625092,0.000000,41.659786,44.965675,6999.910537,-0.195623,-1.000000,0.646006,-0.440423
6.000000,6.175834,-0.008311,0.001420,2.008036,-0.107361,-0.664368,481.332245,1.637421,0.000000,41.659788,44.965674,6999.910537,1.000000,0.279421,-0.559293,0.492042
6.100000,6.186830,0.018735,0.004735,1.852334,-0.662449,-0.639547,481.291992,1.597168,0.000000,41.659790,44.965673,6999.889893,1.000000,-1.000000,0.208701,0.747036
6.200000,6.199130,0.035740,-0.008692,0.956745,-0.124494,-0.464877,481.242462,1.547638,0.000000,41.659791,44.965673,6999.889893,-0.361005,-1.000000,1.000000,-0.102263
6.300000,6.204279,0.032977,-0.007287,0.473239,0.280772,-0.187283,481.261993,1.567169,0.000000,41.659791,44.965672,6999.870989,-1.000000,0.343510,0.252138,-1.000000
6.400000,6.196971,0.023462,0.001991,0.505549,0.388966,-0.089387,481.295685,1.600861,0.000000,41.659792,44.965672,6999.870989,0.325128,-0.565819,0.553942,-1.000000
6.500000,6.171419,0.011698,0.010429,0.513472,0.260893,0.032992,481.338379,1.643585,0.000000,41.659792,44.965672,6999.853288,1.000000,-0.042711,-0.399333,-0.135934
6.600000,6.137451,0.000064,0.016195,0.480941,-0.263891,0.162994,481.337830,1.643005,0.000000,41.659793,44.965672,6999.853288,0.239746,-0.625065,-0.157879,-1.000000
6.700000,6.098721,-0.006903,-0.000755,0.316452,-0.052876,0.175883,481.309204,1.614380,0.000000,41.659793,44.965673,6999.836209,-0.053651,0.095885,1.000000,0.682511
6.800000,6.071697,-0.000132,-0.003519,0.189580,-0.014827,0.290098,481.314911,1.620056,0.000000,41.659793,44.965673,6999.836209,0.745260,1.000000,0.111178,0.198580
6.900000,6.054187,0.010056,-0.000172,0.039821,-0.285545,0.334241,481.298950,1.604126,0.000000,41.659793,44.965673,6999.820580,0.644428,0.021652,-1.000000,-0.487183
7.000000,6.044286,0.022616,0.007980,-0.213491,-0.194168,0.155061,481.276489,1.581665,0.000000,41.659793,44.965674,6999.820580,0.750540,-0.703464,-1.000000,0.546802
7.100000,6.042118,0.035956,0.009692,-0.216780,0.006458,-0.042463,481.264557,1.569733,0.000000,41.659793,44.965674,6999.804578,-1.000000,-1.000000,-0.722143,-0.788033
7.200000,6.041588,0.045326,0.005979,-0.139518,0.350519,-0.091499,481.281067,1.586243,0.000000,41.659793,44.965674,6999.804578,0.097784,-0.433537,0.394360,0.437093
7.300000,6.040643,0.051391,0.003474,-0.115458,0.292209,-0.086175,481.320770,1.625946,0.000000,41.659793,44.965673,6999.786753,1.000000,1.000000,0.411040,0.871655
7.400000,6.045258,0.055674,0.001353,-0.142922,-0.334721,-0.084071,481.320892,1.626068,0.000000,41.659793,44.965673,6999.786753,1.000000,0.568723,-0.137103,-1.000000
7.500000,6.048773,0.058486,-0.002905,-0.068476,-0.648198,-0.031861,481.265137,1.570313,0.000000,41.659793,44.965673,6999.768388,1.000000,0.393052,0.165927,0.849579
7.600000,6.050188,0.060234,-0.000226,0.000090,0.252216,0.070598,481.249451,1.554626,0.000000,41.659793,44.965673,6999.768388,-0.668235,-0.186103,-0.638467,0.132774
7.700000,6.052156,0.058841,0.002753,0.066067,0.297195,0.041844,481.278870,1.584076,0.000000,41.659793,44.965673,6999.749485,-0.688052,0.145449,0.329280,-0.651489
7.800000,6.051351,0.055103,0.005400,0.074384,0.157221,0.057981,481.305450,1.610626,0.000000,41.659793,44.965673,6999.749485,0.950194,-0.207541,1.000000,0.681216
7.900000,6.051805,0.048807,0.008241,0.114860,0.023514,0.049638,481.312317,1.617493,0.000000,41.659793,44.965674,6999.728757,-1.000000,0.802109,-0.183095,0.246360
8.000000,6.056606,0.040459,0.007640,0.163301,0.063559,0.035004,481.312744,1.617920,0.000000,41.659793,44.965674,6999.728757,0.319922,0.523484,0.850280,0.040779
8.100000,6.062198,0.030769,0.009206,0.191082,-0.031197,0.072658,481.320801,1.625977,0.000000,41.659793,44.965674,6999.708568,0.879123,0.480494,-1.000000,-0.655765
8.200000,6.063847,0.019733,0.012081,0.178036,-0.228890,0.002866,481.297577,1.602753,0.000000,41.659793,44.965674,6999.708568,-1.000000,1.000000,-1.000000,1.000000
8.300000,6.064720,0.009087,0.000810,0.166126,0.279153,-0.221588,481.303009,1.608154,0.000000,41.659793,44.965673,6999.688670,-1.000000,0.808121,-0.281074,0.627678
8.400000,6.072105,-0.000180,-0.005965,0.228352,0.471864,-0.262466,481.344513,1.649689,0.000000,41.659794,44.965673,6999.688670,1.000000,1.000000,1.000000,1.000000
8.500000,6.088406,-0.010709,-0.011763,0.247077,0.132548,-0.289452,481.375275,1.680450,0.000000,41.659794,44.965673,6999.668233,-0.792040,-0.478828,0.656341,-0.294851
8.600000,6.108415,-0.019946,-0.005594,0.205060,0.069154,-0.280920,481.379242,1.684418,0.000000,41.659794,44.965672,6999.668233,0.237866,1.000000,0.152545,0.737426
8.700000,6.130390,-0.025863,0.003931,0.298662,0.019255,-0.291462,481.386963,1.692139,0.000000,41.659794,44.965672,6999.648251,1.000000,0.717551,0.530026,0.519485
8.800000,6.154413,-0.024105,0.006429,0.253895,-0.233372,-0.327499,481.373352,1.678558,0.000000,41.659794,44.965672,6999.648251,-0.852417,0.115406,-1.000000,-1.000000
8.900000,6.175660,-0.016626,0.011384,0.123784,-0.070102,-0.248601,481.354309,1.659515,0.000000,41.659795,44.965671,6999.628187,0.239089,-0.637443,-1.000000,0.153362
9.000000,6.188303,-0.007300,0.014289,0.170664,0.201532,-0.212786,481.361176,1.666351,0.000000,41.659795,44.965671,6999.628187,-1.000000,-0.576896,-0.924369,0.229117
9.100000,6.202095,0.000782,0.021078,0.243952,0.150225,-0.197581,481.385254,1.690430,0.000000,41.659795,44.965671,6999.606921,1.000000,0.167139,0.391736,-0.139731
9.200000,6.215250,0.007441,0.029067,0.281179,-0.251154,-0.135008,481.383575,1.688751,0.000000,41.659795,44.965671,6999.606921,1.000000,0.596320,-0.279572,-1.000000
9.300000,6.218571,0.013496,0.035973,0.178038,-0.775329,-0.000655,481.329529,1.634705,0.000000,41.659795,44.965671,6999.586152,0.536237,-0.127968,1.000000,-0.253537
9.400000,6.211530,0.019719,0.013090,-0.173397,-0.461028,-0.390451,481.261780,1.566986,0.000000,41.659795,44.965670,6999.586152,1.000000,-0.211539,-0.503905,0.279399
9.500000,6.209197,0.035716,-0.007250,-0.266214,0.108403,-0.172058,481.250153,1.555328,0.000000,41.659795,44.965670,6999.565714,0.480644,-0.219134,-1.000000,0.101732
9.600000,6.212311,0.048770,-0.010120,-0.197824,0.172003,0.026526,481.262878,1.568085,0.000000,41.659795,44.965670,6999.565714,0.417844,-0.649135,0.260562,1.000000
9.700000,6.218428,0.057439,-0.005043,-0.122544,0.201728,0.131761,481.279724,1.584869,0.000000,41.659795,44.965670,6999.544655,-1.000000,0.704619,-0.106740,-0.702346
9.800000,6.224162,0.062550,0.004224,-0.088932,0.183301,0.143358,481.304260,1.609436,0.000000,41.659795,44.965670,6999.544655,1.000000,1.000000,0.326334,0.738827
9.900000,6.229021,0.065179,0.011416,-0.058965,-0.005432,0.140866,481.312012,1.617188,0.000000,41.659795,44.965670,6999.524715,-0.969292,-1.000000,0.371743,0.964501
10.000000,6.237846,0.065795,0.012674,0.011191,0.111168,0.082373,481.311096,1.616272,0.000000,41.659795,44.965670,6999.524715,-0.231733,-0.553144,0.436113,-0.538736
10.100000,6.246753,0.062924,0.013179,0.059765,0.509902,0.109934,481.344635,1.649780,0.000000,41.659795,44.965671,6999.505895,-0.724971,0.011177,-1.000000,-0.245956
10.200000,6.248397,0.057154,0.016821,0.096326,0.747699,0.148541,481.406158,1.711334,0.000000,41.659795,44.965671,6999.505895,-0.239098,-1.000000,0.678702,-0.218482
10.300000,6.247064,0.048342,0.021823,0.109533,0.677477,0.163279,481.484009,1.789154,0.000000,41.659795,44.965671,6999.487447,0.065924,1.000000,-0.188809,1.000000
10.400000,6.250781,0.037844,0.025003,0.129146,0.588867,0.152098,481.543457,1.848633,0.000000,41.659795,44.965671,6999.487447,-1.000000,-1.000000,-0.807065,0.710692
10.500000,6.262455,0.026160,0.025703,0.163282,0.496941,0.142014,481.600372,1.905548,0.000000,41.659795,44.965671,6999.470036,1.000000,0.558525,-1.000000,-0.316552
10.600000,6.279232,0.012839,0.023899,0.187647,0.066016,0.186020,481.630371,1.935547,0.000000,41.659795,44.965672,6999.470036,-0.500651,0.178185,0.144722,-1.000000
10.700000,0.005601,-0.000420,0.023805,0.239221,-0.130417,0.307582,481.619690,1.924866,0.000000,41.659795,44.965672,6999.451920,-0.038889,0.723165,1.000000,-1.000000
10.800000,0.000805,-0.013208,0.029839,0.327653,0.206707,0.406418,481.619019,1.924194,0.000000,41.659795,44.965672,6999.451920,-1.000000,0.314357,-0.642781,-0.162301
10.900000,6.273241,-0.028102,0.040564,0.448923,0.672540,0.446588,481.662506,1.967682,0.000000,41.659796,44.965673,6999.430737,-0.163246,0.837815,-0.878152,0.341881
11.000000,6.268435,-0.045108,0.050737,0.568155,0.824792,0.458049,481.741119,2.046295,0.000000,41.659796,44.965674,6999.430737,1.000000,1.000000,-0.802484,1.000000
11.100000,6.275617,-0.061913,0.056222,0.648926,0.382802,0.457255,481.795685,2.100891,0.000000,41.659797,44.965674,6999.407854,-0.261477,-1.000000,-0.268345,1.000000
11.200000,0.015396,-0.079362,0.055455,0.756714,-0.074109,0.455981,481.799469,2.104614,0.000000,41.659797,44.965675,6999.407854,-0.580787,-0.545658,1.000000,0.622649
11.300000,0.050612,-0.096006,0.049032,0.921432,0.250369,0.425941,481.792450,2.097626,0.000000,41.659798,44.965676,6999.383105,-0.597897,-0.826043,0.415882,-0.022932
11.400000,0.090301,-0.111287,0.040648,1.125736,0.915956,0.410649,481.833649,2.138824,0.000000,41.659799,44.965676,6999.383105,-1.000000,0.272872,0.888044,-0.646445
11.500000,0.130397,-0.128274,0.034670,1.376632,1.694120,0.408009,481.949310,2.254486,0.000000,41.659800,44.965677,6999.355993,-0.666668,-0.594332,0.832770,0.782841
11.600000,0.172649,-0.146206,0.030597,1.608184,2.187738,0.356416,482.130402,2.435577,0.000000,41.659801,44.965678,6999.355993,-0.440744,0.616204,-0.574718,1.000000
11.700000,0.218868,-0.162816,0.024920,1.806308,2.206250,0.285166,482.314789,2.619965,0.000000,41.659803,44.965680,6999.328550,-0.245322,-0.445485,0.668097,-1.000000
11.800000,0.269104,-0.179123,0.018642,2.015371,1.974328,0.261444,482.495270,2.800446,0.000000,41.659805,44.965681,6999.328550,0.755458,-1.000000,0.973981,-1.000000
11.900000,0.310249,-0.193295,0.017315,2.233220,1.572293,0.270328,482.629272,2.934448,0.000000,41.659806,44.965683,6999.301563,-1.000000,1.000000,1.000000,0.230866
12.000000,0.343669,-0.205405,0.019965,2.475992,1.464497,0.237389,482.723022,3.028198,0.000000,41.659808,44.965684,6999.301563,0.089990,-0.570501,1.000000,0.215235
12.100000,0.383697,-0.218014,0.021605,2.758420,1.601306,0.146493,482.819153,3.124298,0.000000,41.659810,44.965686,6999.273539,-1.000000,-0.000635,-0.000130,-1.000000
12.200000,0.418318,-0.230100,0.026924,3.053219,1.802934,0.114176,482.920929,3.226105,0.000000,41.659813,44.965688,6999.273539,-0.106074,1.000000,0.058814,0.081765
12.300000,0.445378,-0.241232,0.034844,3.328781,1.802967,0.060436,483.021576,3.326752,0.000000,41.659815,44.965691,6999.245184,-0.113569,-0.522781,-0.316482,0.677246
12.400000,0.478591,-0.252428,0.038942,3.606767,1.515651,-0.042802,483.099426,3.404633,0.000000,41.659818,44.965693,6999.245184,0.021694,-0.345032,0.516429,0.379685
12.500000,0.517662,-0.262238,0.037141,3.888605,1.393157,-0.150878,483.142883,3.448059,0.000000,41.659821,44.965696,6999.216456,-0.508149,0.570768,0.311594,-0.660668
12.600000,0.552371,-0.269683,0.034730,4.171727,1.558116,-0.247313,483.174255,3.479431,0.000000,41.659824,44.965699,6999.216456,-0.856613,-1.000000,0.536142,0.851131
12.700000,0.589891,-0.276501,0.030400,4.494919,1.854645,-0.388316,483.227631,3.532806,0.000000,41.659827,44.965703,6999.187935,0.041166,0.054052,0.088152,-0.107283
12.800000,0.627814,-0.282470,0.023781,4.818189,2.030011,-0.529992,483.287384,3.592560,0.000000,41.659831,44.965706,6999.187935,-1.000000,-1.000000,1.000000,-0.743459
12.900000,0.659203,-0.287256,0.018091,5.107153,1.956513,-0.637009,483.342682,3.647858,0.000000,41.659835,44.965710,6999.161652,1.000000,1.000000,0.268787,1.000000
13.000000,0.692170,-0.290582,0.009561,5.389459,1.577897,-0.782630,483.363434,3.668610,0.000000,41.659838,44.965715,6999.161652,-0.980247,-0.662300,0.568681,0.352765
13.100000,0.728540,-0.291486,-0.003818,5.665746,1.487218,-0.979183,483.347321,3.652496,0.000000,41.659842,44.965719,6999.137111,0.417926,-0.179881,0.099449,-0.040633
13.200000,0.763685,-0.289713,-0.018789,5.923077,1.503888,-1.178555,483.325439,3.630615,0.000000,41.659846,44.965724,6999.137111,0.151552,-0.282521,-1.000000,1.000000
13.300000,0.802568,-0.285053,-0.036829,6.187933,1.496612,-1.441672,483.287964,3.593140,0.000000,41.659851,44.965729,6999.113482,-1.000000,-0.601725,0.652107,-0.568548
13.400000,0.844384,-0.277770,-0.056446,6.457184,1.890860,-1.729739,483.263428,3.568604,0.000000,41.659855,44.965734,6999.113482,-0.370233,0.713084,0.244498,0.389109
13.500000,0.881803,-0.269579,-0.072019,6.701695,2.057088,-2.031658,483.270081,3.575256,0.000000,41.659860,44.965739,6999.091469,0.802482,-1.000000,0.303762,0.237572
13.600000,0.922527,-0.259080,-0.089020,6.902745,1.497469,-2.330766,483.248444,3.553619,0.000000,41.659865,44.965745,6999.091469,0.209608,1.000000,0.253786,-0.882135
13.700000,0.953607,-0.247409,-0.100192,7.090361,0.797735,-2.524441,483.157013,3.462189,0.000000,41.659870,44.965751,6999.070368,-1.000000,0.458342,1.000000,-0.541306
13.800000,0.967909,-0.236113,-0.098211,7.284152,0.678217,-2.597853,483.029510,3.334686,0.000000,41.659875,44.965757,6999.070368,-0.703801,1.000000,-0.680797,-0.879636
13.900000,0.970123,-0.223657,-0.078690,7.542301,1.164070,-2.637372,482.925018,3.230194,0.000000,41.659880,44.965764,6999.049226,-0.504165,0.254482,-0.432184,1.000000
14.000000,0.971787,-0.211368,-0.053174,7.815050,1.349035,-2.738356,482.870728,3.175903,0.000000,41.659885,44.965770,6999.049226,1.000000,-0.327402,-0.155842,-0.001959
14.100000,0.978996,-0.200046,-0.034068,8.011985,0.810054,-2.857444,482.808746,3.113922,0.000000,41.659891,44.965777,6999.028167,1.000000,1.000000,0.731337,1.000000
14.200000,0.992626,-0.187881,-0.020796,8.168332,-0.159956,-2.975760,482.675964,2.981140,0.000000,41.659896,44.965784,6999.028167,1.000000,1.000000,0.775366,-1.000000
14.300000,1.004327,-0.175681,-0.010608,8.299511,-1.061753,-2.985259,482.453766,2.758942,0.000000,41.659901,44.965792,6999.006652,0.096186,-0.431477,-0.301280,-0.047678
14.400000,1.005782,-0.163610,0.001784,8.416882,-1.532443,-2.908298,482.189362,2.494537,0.000000,41.659907,44.965799,6999.006652,-0.563413,0.578546,0.643503,0.795965
14.500000,1.007516,-0.148645,0.015438,8.503920,-1.184431,-2.902695,481.912933,2.218109,0.000000,41.659912,44.965806,6998.983852,-0.012349,0.771592,-1.000000,0.449126
14.600000,1.016148,-0.131018,0.028264,8.581183,-0.643882,-2.974079,481.708191,2.013367,0.000000,41.659917,44.965814,6998.983852,-0.518908,0.866691,0.326611,0.072048
14.700000,1.031052,-0.113312,0.032333,8.474328,-0.483303,-3.042680,481.564270,1.869446,0.000000,41.659923,44.965822,6998.960512,1.000000,-1.000000,1.000000,0.315543
14.800000,1.052979,-0.090311,0.001898,7.846905,-0.197878,-3.038566,481.451538,1.756714,0.000000,41.659928,44.965829,6998.960512,0.258514,0.831584,1.000000,-0.787401
14.900000,1.068443,-0.061136,-0.017533,7.098176,0.029625,-2.837325,481.380859,1.686035,0.000000,41.659933,44.965836,6998.937961,0.826578,0.368551,1.000000,-0.077455
15.000000,1.073831,-0.028780,-0.012523,6.640909,-0.008800,-2.637104,481.349884,1.655060,0.000000,41.659937,44.965842,6998.937961,-1.000000,1.000000,-1.000000,0.244130
15.100000,1.076549,0.003852,0.000633,6.654434,-0.125487,-2.611256,481.328827,1.633972,0.000000,41.659942,44.965849,6998.915907,0.321203,-1.000000,0.879126,-0.361016
15.200000,1.074728,0.030452,0.015781,6.713706,-0.260992,-2.544323,481.329651,1.634827,0.000000,41.659946,44.965855,6998.915907,-0.184488,1.000000,0.160077,-0.309892
15.300000,1.066370,0.050075,0.024079,6.656022,-0.702371,-2.407866,481.313690,1.618866,0.000000,41.659950,44.965862,6998.895511,1.000000,-0.058876,1.000000,1.000000
15.400000,1.056104,0.060079,0.000915,6.322264,-0.781641,-2.228035,481.273285,1.578461,0.000000,41.659954,44.965868,6998.895511,0.638610,0.094404,0.660191,-0.816296
15.500000,1.039255,0.046899,-0.012106,5.575471,-0.016839,-1.791811,481.263672,1.568848,0.000000,41.659958,44.965873,6998.876317,-0.541351,-0.606030,0.079395,-0.349127
15.600000,1.011545,0.025239,-0.005903,5.477048,0.183721,-1.503096,481.285645,1.590820,0.000000,41.659961,44.965879,6998.876317,-1.000000,-0.790944,-0.496155,-1.000000
15.700000,0.971769,0.000568,-0.000141,5.548081,0.707872,-1.234079,481.340668,1.645844,0.000000,41.659964,44.965884,6998.857580,-0.071158,-0.919136,0.960495,0.064273
15.800000,0.926537,-0.025350,0.006434,5.665585,0.914226,-0.953930,481.422699,1.727875,0.000000,41.659967,44.965889,6998.857580,0.203329,1.000000,0.435971,-0.885766
15.900000,0.879680,-0.049318,0.014464,5.753730,0.654736,-0.606602,481.478271,1.783447,0.000000,41.659971,44.965895,6998.839671,-0.111109,0.122869,1.000000,-1.000000
16.000000,0.820660,-0.072733,0.025742,5.748475,0.741736,-0.130295,481.504913,1.810089,0.000000,41.659974,44.965900,6998.839671,-1.000000,1.000000,0.909697,-1.000000
16.100000,0.758344,-0.093585,0.024827,5.690233,1.011317,0.331741,481.552612,1.857788,0.000000,41.659977,44.965906,6998.822260,0.853007,-0.793136,0.987620,0.061334
16.200000,0.703845,-0.111201,0.021748,5.701727,0.864346,0.702394,481.585907,1.891083,0.000000,41.659980,44.965911,6998.822260,-0.677913,-0.586748,1.000000,-0.649970
16.300000,0.651814,-0.127293,0.014144,5.639475,1.026655,1.067397,481.604279,1.909454,0.000000,41.659982,44.965917,6998.803191,-0.581855,-1.000000,0.523076,-1.000000
16.400000,0.598987,-0.141371,0.011180,5.730245,1.351454,1.423575,481.652344,1.957520,0.000000,41.659985,44.965923,6998.803191,1.000000,-0.638136,0.488396,0.342897
16.500000,0.554809,-0.153307,0.014906,5.816488,1.121811,1.692627,481.687225,1.992401,0.000000,41.659988,44.965929,6998.782297,-1.000000,-0.793489,-1.000000,-0.502343
16.600000,0.516598,-0.164201,0.022520,5.897022,0.965629,1.943276,481.691010,1.996185,0.000000,41.659992,44.965935,6998.782297,0.805575,0.702212,-0.253018,-1.000000
16.700000,0.481930,-0.172760,0.027370,5.660318,0.898657,2.129289,481.682434,1.987610,0.000000,41.659995,44.965941,6998.759082,0.428791,-0.087574,0.549659,1.000000
16.800000,0.460361,-0.178840,0.015172,5.213852,0.815061,2.088982,481.663330,1.968506,0.000000,41.659998,44.965947,6998.759082,-0.797174,1.000000,0.648216,0.154091
16.900000,0.450775,-0.183326,0.006771,4.716474,1.321414,1.887884,481.678284,1.983490,0.000000,41.660000,44.965952,6998.733297,-0.932730,1.000000,-0.382971,0.642604
17.000000,0.452340,-0.187967,0.004388,4.991100,1.958899,1.845340,481.747162,2.052338,0.000000,41.660003,44.965957,6998.733297,-0.698303,0.966849,-0.989003,-0.689400
17.100000,0.460395,-0.194852,0.007622,5.305441,2.749113,1.764854,481.874329,2.179474,0.000000,41.660006,44.965963,7000.241058,-1.000000,1.000000,1.000000,1.000000
17.200000,0.476083,-0.205235,0.015694,5.650802,3.701182,1.624550,482.081696,2.386871,0.000000,41.660010,44.965969,7000.241058,-1.000000,-1.000000,-0.266052,-1.000000
17.300000,0.494830,-0.218520,0.028454,5.957052,4.284804,1.495812,482.361237,2.666412,0.000000,41.660014,44.965975,7000.213822,-0.065673,-0.129597,0.334599,-0.695801
17.400000,0.505337,-0.231674,0.046093,6.195384,4.305265,1.461496,482.630463,2.935638,0.000000,41.660018,44.965981,7000.213822,-0.456762,0.255798,-0.050041,-0.777872
17.500000,0.507781,-0.245296,0.068607,6.444902,4.259872,1.471846,482.890320,3.195465,0.000000,41.660022,44.965988,7000.186835,-0.696762,0.121326,0.270901,0.315448
17.600000,0.509582,-0.259281,0.090017,6.717332,4.374835,1.441603,483.138916,3.444061,0.000000,41.660026,44.965995,7000.186835,0.022431,0.078373,0.869445,0.259075
17.700000,0.520523,-0.273234,0.103916,6.990237,4.454058,1.343481,483.358612,3.663757,0.000000,41.660031,44.966002,7000.160594,-1.000000,0.133562,1.000000,1.000000
17.800000,0.546076,-0.288889,0.110428,7.300271,4.439066,1.159074,483.580109,3.885284,0.000000,41.660035,44.966010,7000.160594,0.734026,0.712881,0.186876,0.698409
17.900000,0.586941,-0.304317,0.107168,7.625122,4.152210,0.890202,483.763031,4.068207,0.000000,41.660040,44.966018,7000.133068,-1.000000,-0.098382,-0.606660,1.000000
18.000000,0.636970,-0.317718,0.095858,7.957919,3.919782,0.570387,483.892731,4.197906,0.000000,41.660045,44.966026,7000.133068,0.536330,-0.264437,-0.607123,-0.891806
18.100000,0.693120,-0.329525,0.080222,8.306154,3.497249,0.268893,483.986176,4.291351,0.000000,41.660050,44.966034,7000.103552,0.029455,1.000000,1.000000,-1.000000
18.200000,0.736714,-0.337103,0.070449,8.647471,3.003120,0.088435,484.009949,4.315125,0.000000,41.660055,44.966042,7000.103552,-1.000000,-0.574404,-1.000000,0.231850
18.300000,0.770870,-0.341457,0.064993,9.002656,3.214933,-0.137114,484.002777,4.307953,0.000000,41.660060,44.966051,7000.074036,-1.000000,1.000000,0.284042,1.000000
18.400000,0.813019,-0.345446,0.055966,9.426333,3.970959,-0.530335,484.040253,4.345428,0.000000,41.660065,44.966060,7000.074036,0.920347,0.945559,-0.017937,1.000000
18.500000,0.865541,-0.348857,0.039291,9.773154,3.745661,-0.974688,484.085510,4.390686,0.000000,41.660071,44.966070,7000.043732,0.373243,0.184030,1.000000,-1.000000
18.600000,0.914158,-0.349436,0.021995,10.061240,3.238890,-1.328162,484.074860,4.380035,0.000000,41.660077,44.966080,7000.043732,-1.000000,0.608228,0.400500,0.038831
18.700000,0.952959,-0.347037,0.010943,10.383463,3.087883,-1.600752,484.023651,4.328827,0.000000,41.660082,44.966091,7000.013139,0.548637,-1.000000,-0.215702,-0.976083
18.800000,0.979578,-0.342096,0.007569,10.714085,2.948119,-1.808857,483.951019,4.256165,0.000000,41.660088,44.966101,7000.013139,-1.000000,-0.055004,-0.030507,1.000000
18.900000,1.000741,-0.335454,0.006780,11.025664,2.900930,-2.009793,483.867249,4.172424,0.000000,41.660094,44.966113,6999.985571,-1.000000,-0.085169,-0.417589,-1.000000
19.000000,1.020057,-0.326569,0.008622,11.377553,3.222966,-2.205911,483.797546,4.102722,0.000000,41.660100,44.966124,6999.985571,0.297870,-0.516302,0.892891,0.725904
19.100000,1.035978,-0.316417,0.011844,11.706500,2.846125,-2.380490,483.727234,4.032410,0.000000,41.660106,44.966136,6999.959330,0.830497,-1.000000,-0.067827,0.666016
19.200000,1.054525,-0.305598,0.009803,11.976859,2.188751,-2.583323,483.609833,3.915009,0.000000,41.660112,44.966148,6999.959330,-0.651407,-0.589711,-0.014855,0.116929
19.300000,1.074783,-0.292423,0.004779,12.244112,1.943553,-2.783337,483.441254,3.746429,0.000000,41.660118,44.966161,6999.934291,-0.306167,0.126184,-0.988488,-1.000000
19.400000,1.086090,-0.277281,0.004173,12.530458,1.993343,-2.868610,483.284088,3.589233,0.000000,41.660124,44.966173,6999.934291,-0.157514,0.640961,1.000000,1.000000
19.500000,1.093164,-0.261981,0.004769,12.786413,1.539303,-2.940736,483.129547,3.434753,0.000000,41.660130,44.966186,6999.911740,0.956418,-0.318799,-0.246596,0.033196
19.600000,1.103280,-0.245071,0.002263,13.015579,0.864287,-3.045582,482.915771,3.220947,0.000000,41.660136,44.966200,6999.911740,-0.991523,-0.620768,-0.356154,0.366514
19.700000,1.113786,-0.227084,-0.000414,13.207272,0.618661,-3.150850,482.671173,2.976318,0.000000,41.660143,44.966213,6999.890142,-0.140996,-1.000000,1.000000,-0.832910
19.800000,1.117766,-0.208464,0.003565,13.391993,0.870792,-3.138293,482.468140,2.773315,0.000000,41.660149,44.966227,6999.890142,-0.478189,-1.000000,1.000000,-0.762481
19.900000,1.107767,-0.187556,0.017917,13.634594,1.054420,-2.939030,482.295044,2.600189,0.000000,41.660155,44.966241,6999.868917,-0.408315,0.917525,1.000000,1.000000
20.000000,1.094740,-0.166618,0.033541,13.883319,1.011739,-2.762205,482.165955,2.471100,0.000000,41.660162,44.966255,6999.868917,0.358871,-0.429172,-0.314518,0.288327
20.100000,1.088996,-0.148004,0.042239,14.066283,0.373604,-2.667206,482.034302,2.339478,0.000000,41.660168,44.966270,6999.848562,0.521087,-0.412849,-1.000000,1.000000
20.200000,1.089781,-0.129694,0.044045,14.204712,-0.309345,-2.626982,481.845520,2.150696,0.000000,41.660174,44.966284,6999.848562,-0.284288,0.453974,0.884904,-0.815266
20.300000,1.089237,-0.112230,0.042456,14.315182,-0.753204,-2.511106,481.627106,1.932312,0.000000,41.660181,44.966299,6999.828664,0.670426,-1.000000,0.860186,-1.000000
20.400000,1.079756,-0.095810,0.020736,13.562565,-0.146887,-2.177908,481.438751,1.743896,0.000000,41.660187,44.966314,6999.828664,-0.736426,0.987936,0.171191,-0.485448
20.500000,1.063128,-0.077935,-0.011944,12.421312,1.229658,-1.720312,481.376251,1.681427,0.000000,41.660192,44.966327,6999.807563,-1.000000,-0.731355,0.248752,1.000000
20.600000,1.046940,-0.061713,-0.017094,12.413399,1.641373,-1.529802,481.445099,1.750275,0.000000,41.660198,44.966340,6999.807563,0.134125,0.136147,-0.499393,-0.119243
20.700000,1.037276,-0.049501,-0.019584,12.548407,1.269123,-1.411772,481.520599,1.825775,0.000000,41.660203,44.966353,6999.785550,0.064512,0.433497,0.804239,-0.631631
20.800000,1.024410,-0.038733,-0.018646,12.657454,0.762718,-1.194948,481.559662,1.864838,0.000000,41.660209,44.966366,6999.785550,-0.658435,0.211368,-1.000000,-0.502509
20.900000,1.004450,-0.030700,-0.010436,12.789597,0.748229,-0.905217,481.586395,1.891571,0.000000,41.660214,44.966380,6999.763206,-1.000000,-0.504654,0.664020,-0.119621
21.000000,0.983533,-0.026856,0.002387,12.973607,1.521455,-0.644924,481.654358,1.959534,0.000000,41.660220,44.966393,6999.763206,-1.000000,1.000000,0.733967,-0.617459
21.100000,0.961605,-0.027753,0.019369,13.131110,2.119392,-0.382803,481.815826,2.121002,0.000000,41.660225,44.966407,6999.740282,1.000000,1.000000,-0.435563,0.884615
21.200000,0.946657,-0.031527,0.034791,13.200780,1.815480,-0.196815,481.983002,2.288177,0.000000,41.660231,44.966421,6999.740282,0.628333,0.544748,-0.556275,0.163470
21.300000,0.942484,-0.036390,0.044270,13.233399,1.126789,-0.127282,482.083191,2.388367,0.000000,41.660237,44.966435,6999.716942,1.000000,-0.594134,1.000000,0.820005
21.400000,0.948657,-0.042227,0.048427,13.261085,0.209107,-0.170790,482.099060,2.404236,0.000000,41.660242,44.966448,6999.716942,1.000000,-1.000000,-1.000000,0.422602
21.500000,0.965455,-0.048450,0.046041,13.294850,-0.735251,-0.343828,482.010864,2.316040,0.000000,41.660248,44.966462,6999.692857,1.000000,0.341828,1.000000,-0.992552
21.600000,0.985147,-0.054327,0.039760,13.336070,-1.515672,-0.527045,481.836639,2.141815,0.000000,41.660253,44.966476,6999.692857,0.626109,-0.332094,0.964834,1.000000
21.700000,1.006741,-0.060350,0.030841,13.390973,-1.963104,-0.783328,481.577148,1.882324,0.000000,41.660259,44.966490,6999.666409,-0.678312,1.000000,-1.000000,0.295024
21.800000,1.035249,-0.065500,0.010228,12.408129,-0.499823,-1.161531,481.335144,1.640320,0.000000,41.660264,44.966504,6999.666409,0.146048,1.000000,0.258659,-0.328074
21.900000,1.060106,-0.072848,-0.010162,10.390724,1.668453,-1.259920,481.347839,1.653015,0.000000,41.660269,44.966515,6999.639877,-0.262647,0.098981,-0.266431,-0.427724
22.000000,1.076104,-0.081308,-0.008336,10.253230,1.442971,-1.353851,481.433472,1.738647,0.000000,41.660273,44.966526,6999.639877,1.000000,0.981624,-1.000000,0.566786
22.100000,1.090743,-0.089974,-0.003795,10.259501,0.759121,-1.490094,481.454559,1.759735,0.000000,41.660278,44.966537,6999.614590,0.610732,0.370076,0.361182,0.615883
22.200000,1.109063,-0.097618,-0.004347,9.589966,0.787355,-1.577711,481.428833,1.734009,0.000000,41.660282,44.966548,6999.614590,-1.000000,0.622377,-1.000000,-0.095327
22.300000,1.131858,-0.105119,-0.003345,8.668131,1.418484,-1.654218,481.449585,1.754761,0.000000,41.660286,44.966558,6999.590131,-0.382865,0.110467,-0.996460,1.000000
22.400000,1.155502,-0.114004,-0.001656,8.541230,1.643315,-1.820838,481.509094,1.814270,0.000000,41.660289,44.966567,6999.590131,0.189257,-1.000000,0.306653,-0.336258
22.500000,1.174774,-0.123914,-0.002155,8.325961,1.511439,-1.904320,481.570892,1.876068,0.000000,41.660293,44.966576,6999.568036,0.493278,-1.000000,-1.000000,1.000000
22.600000,1.191227,-0.134068,0.001531,8.148865,1.110594,-1.956096,481.593475,1.898651,0.000000,41.660296,44.966585,6999.568036,0.909271,-0.726110,-0.029722,-0.969300
22.700000,1.204733,-0.141954,-0.004924,7.479305,1.104403,-1.860205,481.589478,1.894653,0.000000,41.660300,44.966594,6999.547847,-0.997171,0.701792,0.482634,0.195074
22.800000,1.209414,-0.147901,-0.007891,6.919031,1.348370,-1.703400,481.607697,1.912872,0.000000,41.660303,44.966602,6999.547847,0.976039,-1.000000,0.094925,1.000000
22.900000,1.212046,-0.153787,-0.003840,6.721925,1.159710,-1.662060,481.632629,1.937805,0.000000,41.660306,44.966609,6999.528902,1.000000,-1.000000,1.000000,0.435528
23.000000,1.219897,-0.158051,-0.005863,6.281843,0.973335,-1.593708,481.630035,1.935211,0.000000,41.660308,44.966617,6999.528902,-1.000000,0.849960,0.597152,-0.692296
23.100000,1.225600,-0.160399,-0.008850,5.877518,1.227776,-1.463533,481.640076,1.945251,0.000000,41.660311,44.966623,6999.511491,-0.870947,-1.000000,-0.423215,0.025001
23.200000,1.223124,-0.163089,-0.003080,6.070109,1.608989,-1.435011,481.684418,1.989594,0.000000,41.660313,44.966630,6999.511491,-0.330571,1.000000,0.265243,0.287810
23.300000,1.220680,-0.167844,0.003883,6.341245,2.030721,-1.470595,481.762909,2.068085,0.000000,41.660315,44.966637,6999.494909,-1.000000,-1.000000,-0.620506,0.706033
23.400000,1.222689,-0.174902,0.008963,6.612139,2.709509,-1.533037,481.876678,2.181854,0.000000,41.660318,44.966645,6999.494909,-1.000000,0.286206,-1.000000,0.042299
23.500000,1.227572,-0.185675,0.014555,6.875009,3.289477,-1.583716,482.066986,2.372162,0.000000,41.660321,44.966653,6999.478452,0.585017,-0.454059,1.000000,-1.000000
23.600000,1.226547,-0.197553,0.023051,7.087283,3.085503,-1.524142,482.255615,2.560791,0.000000,41.660323,44.966661,6999.478452,-0.862558,-0.550731,-1.000000,0.040316
23.700000,1.218194,-0.208684,0.033906,7.309475,2.886364,-1.421125,482.398071,2.703247,0.000000,41.660326,44.966670,6999.462574,-1.000000,0.959534,1.000000,0.072590
23.800000,1.208186,-0.221326,0.045987,7.598300,3.219750,-1.337651,482.542847,2.848022,0.000000,41.660329,44.966678,6999.462574,-0.363618,1.000000,-0.553114,-0.915104
23.900000,1.195544,-0.235078,0.060126,7.879824,3.333921,-1.193047,482.700928,3.006104,0.000000,41.660331,44.966688,6999.444583,-0.169724,-1.000000,-0.570971,0.081935
24.000000,1.180356,-0.248031,0.074826,8.130460,3.131705,-1.011414,482.826538,3.131714,0.000000,41.660334,44.966697,6999.444583,0.051331,0.894999,0.438342,-0.862652
24.100000,1.161919,-0.261157,0.091084,8.413715,2.974955,-0.783890,482.918396,3.223572,0.000000,41.660336,44.966707,6999.423358,-0.645067,-0.789004,-0.512811,0.064498
24.200000,1.141752,-0.273637,0.108194,8.697366,2.798430,-0.520545,482.980438,3.285614,0.000000,41.660339,44.966718,6999.423358,1.000000,-0.673823,0.419527,-1.000000
24.300000,1.119247,-0.283358,0.125550,8.945188,2.279421,-0.180000,482.985077,3.290253,0.000000,41.660341,44.966728,6999.400350,0.056462,-0.816996,-1.000000,-0.918358
24.400000,1.086227,-0.289935,0.147435,9.207438,1.763882,0.289534,482.914490,3.219666,0.000000,41.660344,44.966738,6999.400350,-0.651821,-0.129945,1.000000,-0.557469
24.500000,1.050209,-0.292345,0.167716,9.450819,1.948302,0.730427,482.804169,3.109344,0.000000,41.660346,44.966749,6999.375519,-0.347688,1.000000,-0.402898,0.880124
24.600000,1.024741,-0.291529,0.177975,9.685964,2.232855,1.035595,482.720734,3.025909,0.000000,41.660348,44.966760,6999.375519,0.924335,-0.945051,-0.484319,1.000000
24.700000,1.014993,-0.289993,0.176546,9.954172,1.769263,1.241390,482.609985,2.915161,0.000000,41.660351,44.966772,6999.348324,1.000000,-0.789603,0.487443,0.500363
24.800000,1.022938,-0.288408,0.164743,10.239512,1.008584,1.303907,482.426941,2.732117,0.000000,41.660353,44.966784,6999.348324,0.087983,0.800016,0.144193,1.000000
24.900000,1.045157,-0.285697,0.145218,10.491684,0.588828,1.180489,482.195160,2.500336,0.000000,41.660355,44.966795,6999.320757,-0.411524,0.785270,1.000000,0.403126
25.000000,1.081786,-0.277501,0.115111,10.583827,1.026406,0.827854,481.948822,2.254028,0.000000,41.660358,44.966807,6999.320757,-1.000000,-1.000000,-1.000000,0.015399
25.100000,1.133975,-0.265390,0.065199,10.047602,2.733544,0.181701,481.853546,2.158722,0.000000,41.660360,44.966819,6999.292070,-0.839778,-1.000000,-0.571983,0.723047
25.200000,1.192530,-0.254042,0.020512,10.435424,3.376537,-0.309216,481.889954,2.195129,0.000000,41.660363,44.966831,6999.292070,-0.740415,-0.556816,-0.269735,-0.371847
25.300000,1.256134,-0.242458,-0.015463,10.790841,3.632872,-0.886267,481.973663,2.278839,0.000000,41.660365,44.966844,6999.261891,-0.554964,-0.301543,0.780099,0.068193
25.400000,1.316067,-0.230912,-0.041995,11.069060,3.588549,-1.510767,482.071289,2.376465,0.000000,41.660368,44.966857,6999.261891,0.140976,-1.000000,1.000000,0.504664
25.500000,1.375525,-0.219300,-0.063854,11.235515,3.071134,-2.163917,482.135925,2.441101,0.000000,41.660370,44.966871,6999.232292,-0.104952,0.098688,-1.000000,-0.314687
25.600000,1.437332,-0.205787,-0.082108,11.349395,2.659522,-2.860698,482.153137,2.458313,0.000000,41.660373,44.966885,6999.232292,-1.000000,0.079444,0.372759,-0.284945
25.700000,1.491245,-0.192349,-0.088711,11.462126,2.781366,-3.498733,482.166199,2.471375,0.000000,41.660376,44.966899,6999.202817,-0.679818,1.000000,-0.031124,-0.611281
25.800000,1.534607,-0.181177,-0.084222,11.564213,2.835340,-4.054245,482.195740,2.500916,0.000000,41.660378,44.966913,6999.202817,1.000000,-0.092201,-0.310006,1.000000
25.900000,1.579256,-0.170648,-0.075627,11.597642,2.328190,-4.682006,482.217499,2.522675,0.000000,41.660381,44.966928,6999.171684,-0.630468,-1.000000,1.000000,1.000000
26.000000,1.630754,-0.159609,-0.070345,11.534986,1.789765,-5.379394,482.187286,2.492462,0.000000,41.660384,44.966942,6999.171684,-0.062977,-0.245158,0.562669,0.068241
26.100000,1.681035,-0.148805,-0.064787,11.432754,1.531743,-6.006707,482.141113,2.446289,0.000000,41.660387,44.966957,6999.141049,-0.112591,0.159595,-1.000000,0.289198
26.200000,1.729783,-0.137565,-0.056655,11.297705,1.015202,-6.570163,482.068604,2.373779,0.000000,41.660389,44.966972,6999.141049,0.721539,1.000000,1.000000,-0.841518
26.300000,1.767522,-0.126948,-0.045142,11.185633,0.326120,-6.965494,481.949097,2.254272,0.000000,41.660392,44.966987,6999.111740,-0.184727,-0.611748,-0.924755,1.000000
26.400000,1.797220,-0.117266,-0.033205,11.092235,-0.075597,-7.278867,481.799042,2.104218,0.000000,41.660395,44.967003,6999.111740,-0.782857,0.516219,-1.000000,-1.000000
26.500000,1.822561,-0.106969,-0.016595,11.033887,0.002130,-7.516912,481.651825,1.957001,0.000000,41.660397,44.967018,6999.083551,0.431722,0.217838,-1.000000,0.844315
26.600000,1.841715,-0.097125,0.001795,10.973359,-0.184327,-7.697739,481.526611,1.831787,0.000000,41.660399,44.967033,6999.083551,-0.038979,0.339532,1.000000,-0.359150
26.700000,1.865066,-0.082808,-0.003201,10.326410,0.137786,-7.592639,481.438873,1.744049,0.000000,41.660402,44.967049,6999.058719,1.000000,0.804461,0.556396,0.390888
26.800000,1.888775,-0.059713,-0.023227,9.579521,0.413081,-7.375757,481.384491,1.689667,0.000000,41.660404,44.967063,6999.058719,-0.098402,0.625939,1.000000,-0.515227
26.900000,1.905718,-0.029821,-0.018416,9.124998,0.284931,-7.165264,481.364685,1.669861,0.000000,41.660406,44.967077,6999.036582,0.011853,0.683377,1.000000,-1.000000
27.000000,1.904421,-0.003057,-0.005380,9.146691,-0.332525,-7.022099,481.343445,1.648621,0.000000,41.660408,44.967090,6999.036582,1.000000,1.000000,-0.726358,-0.263496
27.100000,1.887127,0.022629,0.000551,9.105189,-0.813676,-6.653872,481.284454,1.589600,0.000000,41.660410,44.967104,6999.016145,-0.314702,0.489126,-0.216221,-0.040921
27.200000,1.859831,0.038048,-0.016088,8.675404,-0.034018,-5.933185,481.254211,1.559387,0.000000,41.660411,44.967116,6999.016145,-1.000000,-0.994411,0.074445,-0.102264
27.300000,1.825332,0.038317,-0.024829,8.707596,0.538622,-5.458522,481.302704,1.607880,0.000000,41.660413,44.967128,6998.998112,-1.000000,0.410484,0.309844,-0.723734
27.400000,1.780194,0.031685,-0.033251,9.034055,1.267220,-5.039929,481.417419,1.722595,0.000000,41.660414,44.967140,6998.998112,-0.045214,-0.250061,1.000000,-0.987102
27.500000,1.725112,0.021247,-0.036861,9.325604,1.239241,-4.500442,481.559357,1.864532,0.000000,41.660416,44.967153,6998.981406,0.646901,-1.000000,0.338515,-0.223480
27.600000,1.669248,0.010151,-0.037339,9.563225,0.720751,-3.957736,481.653229,1.958405,0.000000,41.660417,44.967165,6998.981406,0.002576,-1.000000,-0.410582,0.327985
27.700000,1.614516,-0.001978,-0.037047,9.786226,0.216169,-3.443791,481.687958,1.993134,0.000000,41.660419,44.967177,6998.964948,-0.536415,0.401570,-1.000000,-1.000000
27.800000,1.563253,-0.014914,-0.033212,10.028875,0.407181,-2.948615,481.691681,1.996826,0.000000,41.660420,44.967189,6998.964948,-0.877620,-0.787256,1.000000,0.670683
27.900000,1.520463,-0.029202,-0.025075,10.293139,1.345067,-2.585471,481.743866,2.049042,0.000000,41.660422,44.967201,6998.948366,-1.000000,0.563436,-1.000000,-0.273821
28.000000,1.484195,-0.047680,-0.015674,10.534091,2.312249,-2.298623,481.888794,2.193939,0.000000,41.660423,44.967214,6998.948366,-0.608938,-1.000000,-1.000000,1.000000
28.100000,1.458323,-0.068445,-0.007171,10.709076,2.919263,-2.103325,482.095703,2.400848,0.000000,41.660425,44.967227,6998.929131,-0.187026,-0.742261,-0.624102,0.219329
28.200000,1.444874,-0.088629,-0.001910,10.823035,3.084677,-2.013175,482.300690,2.605865,0.000000,41.660426,44.967240,6998.929131,-0.829650,0.131076,-1.000000,0.889430
28.300000,1.440874,-0.110008,0.000694,10.920706,3.025863,-1.992906,482.506256,2.811432,0.000000,41.660428,44.967253,6998.906662,0.863877,0.404846,0.699614,-0.186129
28.400000,1.444884,-0.130200,0.000789,11.009594,2.693313,-2.024328,482.660461,2.965637,0.000000,41.660430,44.967267,6998.906662,-1.000000,-1.000000,1.000000,0.172006
28.500000,1.453297,-0.148131,0.000441,11.128686,2.684641,-2.106337,482.763702,3.068848,0.000000,41.660431,44.967280,6998.882784,-1.000000,0.587457,0.983870,-0.014621
28.600000,1.467536,-0.167169,0.001645,11.314959,3.490412,-2.283149,482.890656,3.195801,0.000000,41.660433,44.967294,6998.882784,-0.906188,1.000000,0.539993,0.000144
28.700000,1.485220,-0.186914,0.006521,11.477595,4.053899,-2.489610,483.072571,3.377716,0.000000,41.660435,44.967308,6998.857248,-0.313455,-1.000000,0.756464,-0.468495
28.800000,1.503178,-0.205171,0.013800,11.620206,4.338614,-2.716484,483.253479,3.558655,0.000000,41.660436,44.967323,6998.857248,-1.000000,1.000000,-1.000000,1.000000
28.900000,1.529531,-0.224133,0.020284,11.751671,4.496802,-3.078963,483.447510,3.752686,0.000000,41.660438,44.967338,6998.829390,0.110593,-0.975199,1.000000,1.000000
29.000000,1.570547,-0.242064,0.019926,11.829411,4.426847,-3.613828,483.621704,3.926880,0.000000,41.660439,44.967353,6998.829390,-0.517091,0.354869,0.876628,0.881665
29.100000,1.620776,-0.256938,0.012678,11.838709,4.024000,-4.208919,483.742371,4.047516,0.000000,41.660441,44.967368,6998.801201,0.945729,1.000000,-0.519714,0.698349
29.200000,1.682144,-0.269431,-0.001372,11.801844,3.471376,-4.895704,483.799011,4.104187,0.000000,41.660442,44.967384,6998.801201,-0.593693,0.980019,-0.035694,-1.000000
29.300000,1.743505,-0.278046,-0.016956,11.751510,3.011546,-5.529491,483.784668,4.089813,0.000000,41.660444,44.967399,6998.771975,0.166136,1.000000,1.000000,0.366227
29.400000,1.794936,-0.282824,-0.026772,11.734979,2.984621,-6.080546,483.733551,4.038727,0.000000,41.660445,44.967415,6998.771975,-1.000000,0.850012,-1.000000,-0.500847
29.500000,1.847194,-0.284916,-0.031457,11.747207,3.481254,-6.681175,483.687378,3.992584,0.000000,41.660446,44.967431,6998.741050,-1.000000,-0.466365,-0.541638,0.204511
29.600000,1.896711,-0.286180,-0.029294,11.800263,4.125759,-7.292078,483.710510,4.015686,0.000000,41.660448,44.967448,6998.741050,0.532056,-0.113458,0.513609,-0.532209
29.700000,1.938642,-0.286954,-0.024066,11.805162,3.883867,-7.772925,483.742767,4.047943,0.000000,41.660448,44.967466,6998.710373,-0.970436,-0.646532,1.000000,-0.506061
29.800000,1.972659,-0.286304,-0.014124,11.869759,3.593628,-8.135265,483.749695,4.054871,0.000000,41.660449,44.967483,6998.710373,0.221655,-1.000000,-0.405911,-1.000000
29.900000,1.995219,-0.284077,0.000573,12.012169,3.153945,-8.363300,483.735107,4.040283,0.000000,41.660449,44.967501,6998.679157,-0.311683,1.000000,1.000000,0.008285
30.000000,2.010120,-0.280144,0.015848,12.188262,2.805956,-8.503802,483.687592,3.992767,0.000000,41.660450,44.967519,6998.679157,-1.000000,1.000000,-0.494107,-0.559211
30.100000,2.024171,-0.274091,0.032189,12.433803,3.363733,-8.672128,483.658295,3.963470,0.000000,41.660450,44.967537,6998.646532,-1.000000,0.929574,-0.675155,0.316018
30.200000,2.040650,-0.268480,0.047268,12.709612,3.905770,-8.902803,483.716949,4.022125,0.000000,41.660449,44.967555,6998.646532,1.000000,1.000000,-0.081390,0.211870
30.300000,2.062212,-0.263912,0.056507,12.852077,3.508272,-9.132193,483.785217,4.090393,0.000000,41.660449,44.967575,6998.614446,-0.878733,0.356491,-1.000000,-0.301240
30.400000,2.085735,-0.258252,0.062993,12.968177,2.948338,-9.321847,483.811737,4.116943,0.000000,41.660448,44.967594,6998.614446,-0.327116,-0.015349,-0.523057,-0.821814
30.500000,2.100788,-0.251781,0.071433,13.184061,2.903611,-9.369159,483.826660,4.131836,0.000000,41.660447,44.967613,6998.582069,0.242855,-1.000000,-0.020054,-1.000000
30.600000,2.101409,-0.244510,0.083233,13.463405,2.305767,-9.195148,483.824554,4.129761,0.000000,41.660446,44.967633,6998.582069,0.786744,-1.000000,0.236733,-1.000000
30.700000,2.086489,-0.234385,0.098138,13.858746,1.300621,-8.781430,483.753754,4.058929,0.000000,41.660444,44.967652,6998.549196,0.671795,-0.672813,-0.730475,-0.225138
30.800000,2.061059,-0.221976,0.111352,14.314531,0.385267,-8.227055,483.596283,3.901459,0.000000,41.660443,44.967671,6998.549196,0.013025,-0.371562,1.000000,-0.190868
30.900000,2.032070,-0.208618,0.119129,14.752743,-0.208972,-7.618252,483.390961,3.696136,0.000000,41.660441,44.967691,6998.517234,0.717371,0.335719,-0.957439,-1.000000
31.000000,1.992654,-0.192122,0.123917,15.233290,-0.888793,-6.830270,483.122101,3.427277,0.000000,41.660439,44.967710,6998.517234,1.000000,1.000000,-1.000000,1.000000
31.100000,1.954103,-0.175006,0.121182,15.648709,-1.864609,-6.100749,482.777313,3.082520,0.000000,41.660437,44.967729,6998.486889,1.000000,1.000000,-0.222977,-0.030337
31.200000,1.923515,-0.159668,0.110926,15.951328,-2.603766,-5.523383,482.373627,2.678802,0.000000,41.660435,44.967749,6998.486889,-1.000000,-0.673480,-1.000000,-0.387158
31.300000,1.890252,-0.142581,0.095608,16.213375,-2.611615,-4.954237,481.911987,2.217163,0.000000,41.660433,44.967768,6998.458409,-0.310472,0.681537,0.068356,1.000000
31.400000,1.860742,-0.123356,0.064623,15.948122,-1.584575,-4.443807,481.516754,1.821930,0.000000,41.660431,44.967788,6998.458409,0.953800,-0.095185,0.330820,-1.000000
31.500000,1.847898,-0.106983,-0.009074,13.324075,1.212471,-3.792076,481.334320,1.639496,0.000000,41.660429,44.967805,6998.433951,-1.000000,-0.224185,0.089853,0.201989
31.600000,1.831168,-0.098283,-0.039665,12.025404,2.500059,-3.151881,481.416779,1.721954,0.000000,41.660428,44.967821,6998.433951,-0.321232,0.957663,-0.331415,0.312390
31.700000,1.814429,-0.093231,-0.048937,12.206465,2.379779,-2.994912,481.539246,1.844421,0.000000,41.660426,44.967835,6998.412353,0.173041,0.025555,0.525620,1.000000
31.800000,1.805496,-0.089913,-0.054621,12.358886,1.857612,-2.935512,481.621490,1.927551,0.000000,41.660425,44.967851,6998.412353,1.000000,-0.151715,1.000000,-0.861996
31.900000,1.795659,-0.087502,-0.054552,12.493165,1.114039,-2.818594,481.642822,1.951050,0.000000,41.660423,44.967866,6998.392579,-0.164058,-0.951078,-1.000000,0.274355
32.000000,1.779684,-0.086247,-0.045112,12.634816,0.436808,-2.613144,481.595245,1.905670,0.000000,41.660421,44.967881,6998.392579,1.000000,0.900118,1.000000,-1.000000
32.100000,1.757380,-0.085680,-0.024860,12.553561,-0.108815,-2.238958,481.495239,1.807861,0.000000,41.660420,44.967896,6998.375002,1.000000,-0.328708,-0.472665,-0.069191
32.200000,1.724395,-0.085537,0.002807,11.551055,0.116266,-1.569605,481.378723,1.693420,0.000000,41.660418,44.967910,6998.375002,-1.000000,-1.000000,-0.805584,0.522045
32.300000,1.700406,-0.084423,-0.011564,9.983726,1.339057,-1.137835,481.364471,1.681030,0.000000,41.660417,44.967923,6998.357798,1.000000,-0.323101,1.000000,0.623538
32.400000,1.684445,-0.084571,-0.013904,9.685716,1.233393,-0.966797,481.419952,1.738159,0.000000,41.660415,44.967934,6998.357798,0.426563,-1.000000,-1.000000,0.393618
32.500000,1.674237,-0.086030,-0.021205,9.498336,0.991040,-0.850631,481.437408,1.757263,0.000000,41.660414,44.967946,6998.339433,-0.591157,-1.000000,0.023047,-0.576904
32.600000,1.666317,-0.088661,-0.034023,9.407444,1.178988,-0.767671,481.459869,1.781311,0.000000,41.660413,44.967957,6998.339433,-0.436179,-1.000000,1.000000,0.559891
32.700000,1.660787,-0.093216,-0.037475,9.531225,1.699365,-0.780603,481.507904,1.830963,0.000000,41.660411,44.967968,6998.321110,-1.000000,-1.000000,-0.024857,0.967297
32.800000,1.663308,-0.101006,-0.034726,9.697605,2.117599,-0.904042,481.608826,1.933533,0.000000,41.660410,44.967980,6998.321110,-0.040895,-1.000000,0.143526,-0.047892
32.900000,1.674100,-0.110918,-0.031455,9.849831,2.232775,-1.077491,481.723816,2.050293,0.000000,41.660409,44.967991,6998.302289,0.652590,0.673563,-0.524010,0.174472
33.000000,1.688264,-0.121209,-0.027457,9.953293,1.813864,-1.239057,481.806000,2.134186,0.000000,41.660408,44.968003,6998.302289,-0.045977,0.383973,-0.111735,-0.040271
33.100000,1.707334,-0.132131,-0.023168,10.064794,1.363046,-1.461747,481.831482,2.161438,0.000000,41.660407,44.968015,6998.281894,0.101798,-0.599106,-0.848589,1.000000
33.200000,1.734379,-0.142689,-0.020576,10.166658,0.953593,-1.768583,481.805237,2.136963,0.000000,41.660405,44.968028,6998.281894,0.832299,0.389838,-0.989846,0.005700
33.300000,1.765793,-0.151699,-0.019988,10.241677,0.344261,-2.080653,481.719879,2.053314,0.000000,41.660404,44.968040,6998.260461,0.482476,-1.000000,0.838663,-0.246092
33.400000,1.798517,-0.159957,-0.015006,9.803959,0.254660,-2.301601,481.565277,1.900482,0.000000,41.660403,44.968052,6998.260461,-0.180567,0.437720,0.440610,0.527254
33.500000,1.834254,-0.169126,-0.013575,8.446105,1.294302,-2.369860,481.490173,1.827026,0.000000,41.660402,44.968063,6998.236915,0.175469,1.000000,-0.867217,-0.230281
33.600000,1.871176,-0.179809,-0.021627,7.427405,2.024531,-2.429883,481.521118,1.859344,0.000000,41.660401,44.968073,6998.236915,-0.365053,1.000000,-0.601138,-0.820626
33.700000,1.898011,-0.192725,-0.011698,7.401540,1.849628,-2.521274,481.575500,1.915039,0.000000,41.660400,44.968082,6998.210798,0.324866,0.001553,-0.303930,-0.816062
33.800000,1.910942,-0.205871,-0.002147,7.441248,1.773735,-2.519557,481.600800,1.941681,0.000000,41.660399,44.968092,6998.210798,-0.621436,0.536501,-0.477558,0.474883
33.900000,1.919310,-0.219920,0.010278,7.071324,2.425221,-2.474108,481.648499,1.990753,0.000000,41.660398,44.968101,6998.184433,-0.872142,-0.932058,1.000000,1.000000
34.000000,1.937715,-0.238890,0.004899,7.091092,3.268676,-2.588796,481.778137,2.121674,0.000000,41.660397,44.968110,6998.184433,-0.513861,1.000000,0.320560,-0.629890
34.100000,1.960158,-0.258718,-0.006893,7.317667,3.748104,-2.708050,481.945984,2.290833,0.000000,41.660395,44.968120,6998.158316,-0.695938,-1.000000,0.648404,-0.153772
34.200000,1.977101,-0.277169,-0.015995,7.532303,3.974573,-2.798167,482.114960,2.461212,0.000000,41.660393,44.968130,6998.158316,0.075192,-0.771169,-0.291299,0.979128
34.300000,2.000186,-0.295696,-0.028639,7.747609,4.073326,-2.998533,482.281097,2.628815,0.000000,41.660392,44.968140,6998.132821,-0.836392,1.000000,0.621499,1.000000
34.400000,2.037215,-0.312268,-0.049161,7.922674,4.028880,-3.322149,482.428162,2.777344,0.000000,41.660390,44.968151,6998.132821,1.000000,-0.716644,1.000000,1.000000
34.500000,2.083203,-0.324734,-0.075037,8.037311,3.664839,-3.678659,482.517761,2.868439,0.000000,41.660388,44.968162,6998.109399,-0.785993,-0.453172,-0.138044,-1.000000
34.600000,2.132011,-0.334528,-0.100861,8.163894,3.464810,-4.028491,482.554779,2.906982,0.000000,41.660386,44.968173,6998.109399,-1.000000,0.935121,-0.521209,-0.959445
34.700000,2.166997,-0.342462,-0.112102,8.378836,3.944366,-4.276605,482.583130,2.936890,0.000000,41.660384,44.968184,6998.085480,-0.314664,0.884214,0.446340,-0.974203
34.800000,2.183490,-0.350452,-0.105686,8.664494,4.201259,-4.438759,482.633270,2.988708,0.000000,41.660381,44.968196,6998.085480,0.492641,1.000000,1.000000,-1.000000
34.900000,2.186251,-0.359271,-0.087237,8.993084,3.744417,-4.526986,482.661041,3.018280,0.000000,41.660379,44.968209,6998.059156,0.629216,-0.304789,-1.000000,1.000000
35.000000,2.187330,-0.366150,-0.068425,9.322850,3.027471,-4.633439,482.616211,2.975250,0.000000,41.660376,44.968221,6998.059156,0.228497,-1.000000,0.900901,-1.000000
35.100000,2.189748,-0.369950,-0.051861,9.624333,2.602645,-4.699341,482.510956,2.871765,0.000000,41.660373,44.968233,6998.033039,-1.000000,0.202855,0.110344,0.347750
35.200000,2.188844,-0.369473,-0.029787,9.941820,2.823799,-4.735269,482.387482,2.750122,0.000000,41.660370,44.968246,6998.033039,0.274111,-0.809997,-0.031811,-0.965573
35.300000,2.184009,-0.363739,-0.004894,10.301150,2.642049,-4.722944,482.276978,2.641541,0.000000,41.660367,44.968259,6998.007420,1.000000,0.234648,1.000000,0.378057
35.400000,2.176382,-0.354795,0.016575,10.652799,2.108411,-4.657708,482.136688,2.503204,0.000000,41.660364,44.968272,6998.007420,-0.961788,0.575652,0.159962,0.821986
35.500000,2.172283,-0.340481,0.033375,10.958274,2.177156,-4.645030,481.968079,2.336548,0.000000,41.660360,44.968285,6997.980930,-0.749013,1.000000,-0.195824,-0.174925
35.600000,2.178515,-0.320766,0.030851,10.851979,2.952136,-4.602551,481.875031,2.245514,0.000000,41.660356,44.968298,6997.980930,1.000000,0.587036,0.387786,1.000000
35.700000,2.200398,-0.302448,-0.004660,10.860622,2.742497,-4.693948,481.828491,2.200867,0.000000,41.660352,44.968312,6997.956430,0.104274,0.502360,0.050679,0.537496
35.800000,2.230081,-0.284493,-0.038038,10.202994,2.647084,-4.701882,481.763733,2.137939,0.000000,41.660348,44.968325,6997.956430,-0.575742,0.765019,0.668119,-0.538354
35.900000,2.248843,-0.272828,-0.043753,9.411746,3.088609,-4.506185,481.754272,2.130219,0.000000,41.660345,44.968337,6997.933506,0.257421,1.000000,0.080554,-0.328591
36.000000,2.254237,-0.266494,-0.032271,9.446721,2.914763,-4.498668,481.780640,2.158325,0.000000,41.660341,44.968349,6997.933506,-0.423645,-0.406789,-0.250196,0.653104
