t,yaw,pitch,roll,speed.x,speed.y,speed.z,altBar,altRad,egt,myloclat,myloclon,weightlb,collective,bank,pitch,rudder
0.100000,5.374733,0.031623,0.000911,-0.097372,0.517341,0.031029,481.239288,1.544464,0.000000,41.659724,44.965707,7004.964901,0.070984,-0.511099,-0.654407,0.512310
0.200000,5.372962,0.037347,0.003838,-0.064234,0.122159,0.054056,481.265381,1.570557,0.000000,41.659724,44.965707,7004.964901,0.285074,-0.550609,-0.382156,-0.667960
0.300000,5.371156,0.041171,0.006863,-0.050075,0.116793,0.015501,481.274384,1.579559,0.000000,41.659724,44.965707,7000.556034,-0.092140,-0.896698,-0.692118,0.127014
0.400000,5.367769,0.043975,0.004638,-0.040400,0.187831,-0.043491,481.288116,1.593292,0.000000,41.659724,44.965707,7000.556034,-1.000000,0.008968,-1.000000,0.484448
0.500000,5.366412,0.043940,0.003222,0.051328,0.833444,-0.077251,481.333313,1.638489,0.000000,41.659724,44.965707,7000.556034,-1.000000,-1.000000,0.072547,-0.558603
0.600000,5.365431,0.039587,0.003099,0.147456,1.546657,-0.119270,481.455994,1.761169,0.000000,41.659724,44.965707,7000.556034,0.703558,0.312335,0.714170,1.000000
0.700000,5.368349,0.032139,0.001639,0.167791,1.415094,-0.160047,481.612061,1.917236,0.000000,41.659724,44.965707,7000.541649,-1.000000,-0.868811,0.215998,1.000000
0.800000,5.381805,0.023747,-0.004530,0.171961,1.017924,-0.218626,481.738281,2.043457,0.000000,41.659724,44.965706,7000.541649,1.000000,1.000000,-0.403986,1.000000
0.900000,5.404435,0.015651,-0.013978,0.181375,0.563566,-0.248977,481.813599,2.118774,0.000000,41.659724,44.965706,7000.526974,-1.000000,-0.391345,-0.025138,-1.000000
1.000000,5.430950,0.006812,-0.022978,0.213409,0.248416,-0.237792,481.851288,2.156494,0.000000,41.659724,44.965706,7000.526974,0.649531,0.465475,1.000000,0.540747
1.100000,5.455019,-0.002719,-0.027223,0.266607,0.114697,-0.240200,481.868744,2.173920,0.000000,41.659724,44.965705,7000.510226,-1.000000,0.479111,-0.460696,0.287595
1.200000,5.481083,-0.012278,-0.027882,0.336654,0.201196,-0.289713,481.878296,2.183472,0.000000,41.659724,44.965705,7000.510226,-1.000000,0.419261,0.195939,0.544350
1.300000,5.515125,-0.023626,-0.024904,0.430960,0.388905,-0.334879,481.913910,2.219086,0.000000,41.659724,44.965704,7000.489954,0.580047,0.800996,-1.000000,-0.328590
1.400000,5.552590,-0.035735,-0.019042,0.497203,0.092350,-0.363266,481.940430,2.245605,0.000000,41.659725,44.965703,7000.489954,-0.115374,-1.000000,1.000000,0.674626
1.500000,5.591956,-0.046762,-0.013394,0.550747,-0.328702,-0.396649,481.924835,2.230011,0.000000,41.659725,44.965703,7000.467776,0.288366,1.000000,0.071122,0.463866
1.600000,5.640428,-0.057429,-0.008545,0.611171,-0.783508,-0.431009,481.866669,2.171844,0.000000,41.659725,44.965702,7000.467776,0.901557,-0.608029,-1.000000,-0.275434
1.700000,5.691384,-0.066495,-0.004831,0.668247,-1.543816,-0.425022,481.744385,2.049561,0.000000,41.659725,44.965701,7000.443608,0.668659,1.000000,1.000000,0.417784
1.800000,5.738216,-0.073305,-0.001868,0.730259,-2.223687,-0.392874,481.557373,1.862549,0.000000,41.659726,44.965701,7000.443608,0.744486,0.976606,0.516233,-1.000000
1.900000,5.777170,-0.071823,0.006219,0.098477,-1.287181,-0.277769,481.340912,1.646088,0.000000,41.659726,44.965700,7000.417035,-0.728175,-0.026475,0.704524,-0.121715
2.000000,5.789562,-0.037728,-0.002508,-0.622262,0.477092,-0.149344,481.342316,1.647491,0.000000,41.659725,44.965700,7000.417035,-1.000000,-0.536415,1.000000,1.000000
2.100000,5.801562,-0.003326,-0.003558,-0.478629,0.978142,-0.187369,481.409760,1.714935,0.000000,41.659725,44.965700,7000.389799,-0.536920,0.158744,0.483794,0.659997
2.200000,5.825660,0.027648,-0.001057,-0.352089,1.402190,-0.240505,481.537811,1.842987,0.000000,41.659724,44.965700,7000.389799,-0.229760,-0.179208,1.000000,0.670686
2.300000,5.858451,0.054290,0.004437,-0.286063,1.478999,-0.250954,481.682953,1.988129,0.000000,41.659724,44.965700,7000.362356,-0.675655,1.000000,0.438906,0.161268
2.400000,5.894634,0.075930,0.013142,-0.256862,1.459258,-0.256116,481.824585,2.129761,0.000000,41.659724,44.965700,7000.362356,0.162057,0.978309,0.810834,0.923928
2.500000,5.939016,0.095501,0.023964,-0.254544,1.372913,-0.247887,481.965546,2.270721,0.000000,41.659723,44.965699,7000.335369,-0.838901,0.578527,-0.790420,0.011239
2.600000,5.987853,0.111248,0.036162,-0.256098,1.491503,-0.216177,482.104401,2.409576,0.000000,41.659723,44.965699,7000.335369,-0.514255,-0.344709,1.000000,-1.000000
2.700000,6.031641,0.122296,0.049339,-0.269681,1.631586,-0.152792,482.254364,2.559540,0.000000,41.659722,44.965699,7000.310537,-0.265874,0.341279,-0.653125,1.000000
2.800000,6.076157,0.130620,0.063070,-0.295084,1.776345,-0.089375,482.420441,2.725616,0.000000,41.659722,44.965699,7000.310537,-1.000000,-0.387788,0.319720,1.000000
2.900000,6.125156,0.134448,0.075007,-0.289153,2.540162,-0.076137,482.628143,2.933319,0.000000,41.659721,44.965699,7000.285747,-1.000000,0.554040,0.347110,1.000000
3.000000,6.179283,0.133183,0.084235,-0.292413,3.204643,-0.043208,482.905609,3.210785,0.000000,41.659721,44.965700,7000.285747,1.000000,1.000000,-0.078946,0.779663
3.100000,6.242180,0.128519,0.088813,-0.357323,2.979124,0.055693,483.218872,3.524048,0.000000,41.659720,44.965700,7000.260086,-0.215566,-0.423100,-1.000000,-1.000000
3.200000,0.019572,0.122849,0.087678,-0.443475,2.339633,0.272931,483.479706,3.784882,0.000000,41.659720,44.965700,7000.260086,0.519911,0.470571,-0.904213,-0.031967
3.300000,0.063920,0.117896,0.085021,-0.509105,1.790669,0.487220,483.666199,3.971375,0.000000,41.659719,44.965701,7000.235213,-0.331846,-1.000000,-1.000000,-1.000000
3.400000,0.100422,0.112564,0.081389,-0.556745,1.382515,0.671921,483.810760,4.115936,0.000000,41.659718,44.965701,7000.235213,-0.268765,0.696360,-1.000000,0.619613
3.500000,0.135064,0.105507,0.076887,-0.564746,1.325451,0.790581,483.934479,4.239655,0.000000,41.659717,44.965702,7000.209635,-0.418630,1.000000,0.883214,0.728542
3.600000,0.173745,0.096332,0.071603,-0.560072,1.254349,0.890470,484.046906,4.352081,0.000000,41.659716,44.965703,7000.209635,-0.113546,0.619903,-0.294404,-0.122823
3.700000,0.211249,0.085168,0.067286,-0.566503,0.932679,1.046903,484.148834,4.454010,0.000000,41.659716,44.965704,7000.181778,0.115115,0.030901,0.612088,0.334939
3.800000,0.249608,0.073126,0.062921,-0.569633,0.411291,1.174679,484.206635,4.511810,0.000000,41.659715,44.965705,7000.181778,0.530578,-0.141746,-1.000000,-0.486601
3.900000,0.281683,0.061606,0.059708,-0.545004,0.027026,1.320730,484.212036,4.517212,0.000000,41.659714,44.965706,7000.153878,-0.950173,1.000000,0.588183,-0.536370
4.000000,0.305835,0.048355,0.060815,-0.467211,0.170598,1.453258,484.204956,4.510132,0.000000,41.659713,44.965707,7000.153878,-1.000000,1.000000,-1.000000,-0.130043
4.100000,0.323656,0.031864,0.068543,-0.312528,1.237889,1.550638,484.260895,4.566071,0.000000,41.659712,44.965709,7000.126477,-1.000000,0.717910,-0.226435,-0.467431
4.200000,0.337554,0.012266,0.083103,-0.193183,2.040737,1.610822,484.414642,4.719818,0.000000,41.659711,44.965710,7000.126477,0.559443,-1.000000,1.000000,1.000000
4.300000,0.356499,-0.010777,0.097883,-0.134697,1.919284,1.655052,484.606720,4.911896,0.000000,41.659710,44.965712,7000.099987,-0.592439,-1.000000,1.000000,0.367055
4.400000,0.383801,-0.034260,0.107616,-0.041381,1.670817,1.730462,484.765717,5.070892,0.000000,41.659709,44.965714,7000.099987,-1.000000,0.573629,1.000000,-0.248849
4.500000,0.411763,-0.056722,0.115471,0.113768,1.901593,1.838702,484.915680,5.220856,0.000000,41.659708,44.965716,7000.076440,-0.233412,0.882496,1.000000,0.019508
4.600000,0.440379,-0.080926,0.125428,0.290224,2.030447,1.973658,485.094421,5.399597,0.000000,41.659708,44.965718,7000.076440,1.000000,-0.660508,-0.229452,-1.000000
4.700000,0.460978,-0.103254,0.137451,0.431197,1.531975,2.180341,485.245972,5.551147,0.000000,41.659707,44.965721,7000.053889,1.000000,-1.000000,0.532345,-1.000000
4.800000,0.467929,-0.120673,0.151392,0.558316,0.906750,2.392962,485.321838,5.627014,0.000000,41.659706,44.965724,7000.053889,-1.000000,0.683923,0.103377,1.000000
4.900000,0.473441,-0.137281,0.164647,0.738759,0.532080,2.544368,485.343903,5.649078,0.000000,41.659705,44.965727,7000.028892,1.000000,1.000000,-0.458269,1.000000
5.000000,0.489834,-0.154337,0.171226,0.967199,0.134493,2.654367,485.322235,5.627380,0.000000,41.659705,44.965730,7000.028892,-0.387199,0.673945,0.263394,0.574212
5.100000,0.516281,-0.170599,0.169790,1.234915,-0.148012,2.756867,485.256348,5.561523,0.000000,41.659704,44.965733,7000.002858,-0.760948,-0.716740,-0.266194,-1.000000
5.200000,0.546656,-0.186937,0.163549,1.583389,0.252808,2.873371,485.185944,5.491119,0.000000,41.659703,44.965737,7000.002858,0.841478,-0.723480,0.898865,0.250346
5.300000,0.576007,-0.202163,0.153853,1.927366,0.396679,2.960651,485.144104,5.449280,0.000000,41.659703,44.965741,6999.975580,0.219457,-0.769749,-0.662591,-0.128740
5.400000,0.605308,-0.214898,0.139923,2.239880,0.032687,3.038067,485.080841,5.386047,0.000000,41.659702,44.965745,6999.975580,-0.121943,-0.049791,-0.148357,0.179389
5.500000,0.638323,-0.226365,0.120855,2.609315,0.021459,3.058413,484.982239,5.287445,0.000000,41.659702,44.965749,6999.947142,-1.000000,1.000000,-0.179500,0.536112
5.600000,0.675402,-0.236755,0.098550,3.043697,0.789176,3.012192,484.915009,5.220184,0.000000,41.659702,44.965754,6999.947142,-1.000000,-0.550233,0.227222,-0.168846
5.700000,0.712192,-0.247023,0.078307,3.513717,1.940707,2.946622,484.945129,5.250305,0.000000,41.659702,44.965760,6999.920984,-0.856222,-0.756489,-1.000000,-1.000000
5.800000,0.747407,-0.259338,0.062368,3.981635,2.635758,2.915000,485.062653,5.367828,0.000000,41.659702,44.965766,6999.920984,-0.167065,0.745588,-1.000000,0.885925
5.900000,0.781149,-0.272089,0.049798,4.404212,2.822809,2.840256,485.202332,5.507538,0.000000,41.659702,44.965773,6999.896401,-1.000000,0.152152,0.533820,-0.765626
6.000000,0.815204,-0.284376,0.038999,4.824176,3.168503,2.718862,485.342865,5.648041,0.000000,41.659703,44.965780,6999.896401,-0.467075,-0.583458,-1.000000,0.966992
6.100000,0.855290,-0.298171,0.028354,5.288992,3.692918,2.524466,485.521423,5.826599,0.000000,41.659704,44.965787,6999.873021,-1.000000,1.000000,-1.000000,0.614811
6.200000,0.903551,-0.312423,0.015449,5.750034,4.033286,2.242819,485.726776,6.031952,0.000000,41.659705,44.965795,6999.873021,-0.073673,0.229798,-0.983315,-0.255548
6.300000,0.954433,-0.325230,0.001110,6.182296,4.175440,1.942714,485.919678,6.224854,0.000000,41.659706,44.965804,6999.849930,-1.000000,1.000000,0.183019,1.000000
6.400000,1.012748,-0.338134,-0.016220,6.661024,4.566065,1.547343,486.122803,6.427948,0.000000,41.659708,44.965813,6999.849930,-1.000000,-1.000000,-0.154908,0.120438
6.500000,1.076925,-0.351163,-0.037067,7.161289,5.412874,1.059883,486.368195,6.673370,0.000000,41.659710,44.965822,6999.825016,-0.809995,-0.504301,-0.321427,0.012192
6.600000,1.137265,-0.363357,-0.058302,7.569809,5.914908,0.616939,486.638153,6.943329,0.000000,41.659712,44.965832,6999.825016,-0.450579,1.000000,-0.346731,-1.000000
6.700000,1.191768,-0.375209,-0.075536,7.935690,5.941990,0.246259,486.921143,7.226318,0.000000,41.659714,44.965843,6999.797780,-0.173990,-1.000000,-0.669142,-0.742083
6.800000,1.232603,-0.385993,-0.082912,8.300215,5.955720,-0.090161,487.172302,7.477478,0.000000,41.659716,44.965854,6999.797780,-1.000000,1.000000,-0.987499,0.858676
6.900000,1.270112,-0.395088,-0.087046,8.638712,5.910768,-0.498459,487.388336,7.693512,0.000000,41.659718,44.965866,6999.770088,0.631330,0.080342,1.000000,0.688432
7.000000,1.320199,-0.401922,-0.096502,8.964582,5.514213,-1.045274,487.570587,7.875763,0.000000,41.659721,44.965878,6999.770088,-0.072064,0.170860,-0.782936,-0.941346
7.100000,1.376372,-0.405219,-0.109794,9.281543,5.080486,-1.618063,487.681885,7.987061,0.000000,41.659723,44.965890,6999.741277,-1.000000,-1.000000,-0.013954,1.000000
7.200000,1.430042,-0.406428,-0.122876,9.608791,5.236499,-2.203272,487.752991,8.058167,0.000000,41.659726,44.965903,6999.741277,-0.312942,-0.051761,0.287138,-1.000000
7.300000,1.485105,-0.406758,-0.134794,9.921290,5.335682,-2.794251,487.823029,8.128204,0.000000,41.659728,44.965916,6999.710683,-0.431103,1.000000,0.044177,-0.832164
7.400000,1.527431,-0.407096,-0.136530,10.248833,5.449541,-3.279712,487.873627,8.178802,0.000000,41.659731,44.965929,6999.710683,-1.000000,-0.905404,0.639837,0.293081
7.500000,1.563644,-0.407945,-0.133592,10.604006,6.195742,-3.833006,487.939331,8.244507,0.000000,41.659733,44.965944,6999.680338,-1.000000,0.602271,0.285230,0.709404
7.600000,1.611141,-0.408953,-0.135029,10.910506,6.920634,-4.561968,488.065277,8.370453,0.000000,41.659736,44.965959,6999.680338,-0.473049,-1.000000,0.578758,0.562045
7.700000,1.667210,-0.408633,-0.142788,11.113758,7.305520,-5.349338,488.214111,8.519257,0.000000,41.659739,44.965975,6999.649329,-1.000000,-0.585914,-0.907241,0.047662
7.800000,1.723155,-0.406877,-0.153280,11.230651,7.409640,-6.112198,488.360291,8.665466,0.000000,41.659742,44.965992,6999.649329,1.000000,0.709926,-0.409569,0.659873
7.900000,1.783766,-0.402131,-0.167645,11.261130,6.836306,-6.891870,488.473846,8.779022,0.000000,41.659745,44.966009,6999.616829,0.479613,0.219137,-0.429322,-0.772422
8.000000,1.841310,-0.393949,-0.183036,11.263756,6.042260,-7.623194,488.502747,8.807922,0.000000,41.659747,44.966026,6999.616829,-1.000000,-1.000000,-0.776672,1.000000
8.100000,1.894012,-0.383294,-0.198596,11.256392,5.495008,-8.325575,488.460815,8.765991,0.000000,41.659750,44.966044,6999.584950,1.000000,-0.095544,0.881449,0.003635
8.200000,1.950528,-0.368719,-0.217604,11.196339,4.947569,-9.078858,488.353088,8.658264,0.000000,41.659753,44.966061,6999.584950,-1.000000,-0.566002,-0.111524,0.448255
8.300000,2.002558,-0.352061,-0.235847,11.127398,4.531310,-9.785417,488.185822,8.490997,0.000000,41.659755,44.966079,6999.552656,0.180381,-0.487349,1.000000,-1.000000
8.400000,2.043633,-0.336336,-0.248482,11.102434,4.329291,-10.378036,487.998932,8.304108,0.000000,41.659758,44.966097,6999.552656,1.000000,0.801568,0.319917,0.937695
8.500000,2.080809,-0.319440,-0.259557,11.061476,3.593045,-10.974608,487.748108,8.053284,0.000000,41.659760,44.966115,6999.519285,1.000000,0.484622,1.000000,0.213519
8.600000,2.114881,-0.301422,-0.273068,10.992902,2.719908,-11.540444,487.408997,7.714172,0.000000,41.659762,44.966134,6999.519285,-1.000000,-0.965256,-0.552111,-0.570796
8.700000,2.135915,-0.286335,-0.281650,11.039660,2.310482,-11.903065,487.025421,7.330597,0.000000,41.659765,44.966152,6999.488525,-0.460637,0.187459,0.058004,-0.872245
8.800000,2.136239,-0.276490,-0.275574,11.352015,2.208020,-12.044391,486.602173,6.907349,0.000000,41.659767,44.966171,6999.488525,1.000000,-0.323135,0.863502,-0.592076
8.900000,2.115643,-0.272421,-0.257572,11.870045,1.460487,-11.981453,486.146393,6.451569,0.000000,41.659769,44.966190,6999.461165,0.087588,-0.032532,0.430144,0.726207
9.000000,2.089598,-0.269914,-0.240169,12.420271,0.786401,-11.876084,485.659515,5.964691,0.000000,41.659771,44.966209,6999.461165,-0.668564,-0.576746,-0.753009,1.000000
9.100000,2.064972,-0.265932,-0.221724,12.970318,0.658875,-11.785692,485.114319,5.419495,0.000000,41.659773,44.966229,6999.436375,0.184416,1.000000,-0.032015,0.474040
9.200000,2.045099,-0.260222,-0.198515,13.455343,0.658938,-11.716308,484.585938,4.891113,0.000000,41.659775,44.966249,6999.436375,-0.651219,0.047430,-0.265402,0.803627
9.300000,2.028180,-0.253565,-0.170428,13.877926,0.983424,-11.608200,484.121399,4.426575,0.000000,41.659777,44.966269,6999.415274,-1.000000,0.370805,0.268553,-0.908132
9.400000,2.006218,-0.245275,-0.126537,14.383606,2.066395,-11.410794,483.743073,4.048248,0.000000,41.659779,44.966290,6999.415274,-1.000000,-1.000000,-1.000000,1.000000
9.500000,1.979925,-0.236362,-0.078588,14.987743,3.097380,-11.189708,483.529846,3.835052,0.000000,41.659781,44.966312,6999.396371,-1.000000,0.261925,1.000000,-1.000000
9.600000,1.950850,-0.229073,-0.038682,15.638313,3.858500,-10.895738,483.457642,3.762817,0.000000,41.659782,44.966335,6999.396371,-1.000000,-0.647249,-0.443133,1.000000
9.700000,1.916555,-0.223640,-0.003537,16.372980,4.549903,-10.473239,483.489044,3.794220,0.000000,41.659784,44.966358,6999.378421,-1.000000,-1.000000,0.754239,-0.934110
9.800000,1.880199,-0.220722,0.025224,17.077151,4.929637,-9.931924,483.604980,3.910156,0.000000,41.659785,44.966382,6999.378421,0.099546,1.000000,0.870991,0.652688
9.900000,1.844783,-0.218542,0.046132,17.661614,4.547677,-9.325550,483.721558,4.026733,0.000000,41.659786,44.966406,6999.360844,0.302234,0.029538,-0.435200,1.000000
10.000000,1.814034,-0.215745,0.057850,18.177563,3.960233,-8.749323,483.793823,4.098969,0.000000,41.659786,44.966431,6999.360844,-1.000000,-0.602013,1.000000,-1.000000
10.100000,1.787549,-0.212755,0.062327,18.668381,3.911880,-8.160781,483.832977,4.138153,0.000000,41.659787,44.966455,6999.340779,-1.000000,0.445046,0.123545,0.604920
10.200000,1.761626,-0.210112,0.065294,19.140503,4.208686,-7.574485,483.884064,4.189240,0.000000,41.659788,44.966480,6999.340779,0.352407,-0.630242,1.000000,-0.675114
10.300000,1.733516,-0.207015,0.066502,19.587368,3.900357,-6.881202,483.930328,4.235504,0.000000,41.659788,44.966505,6999.317730,-0.321876,-0.646019,-0.218592,-1.000000
10.400000,1.697255,-0.202202,0.069324,20.051865,3.444451,-5.977634,483.927063,4.232239,0.000000,41.659788,44.966530,6999.317730,0.157362,1.000000,-1.000000,-0.610490
10.500000,1.657289,-0.196068,0.074200,20.481231,2.894796,-5.020698,483.878754,4.183929,0.000000,41.659788,44.966555,6999.293313,0.545117,1.000000,-1.000000,-0.134026
10.600000,1.616348,-0.188335,0.078848,20.880045,2.253830,-4.047601,483.764496,4.069672,0.000000,41.659788,44.966580,6999.293313,-0.420005,-0.623921,-1.000000,1.000000
10.700000,1.585054,-0.180561,0.079568,21.214292,1.884657,-3.309837,483.604126,3.909302,0.000000,41.659788,44.966606,6999.267280,0.196946,1.000000,1.000000,-0.243653
10.800000,1.565938,-0.173731,0.076356,21.467684,1.502253,-2.806025,483.427490,3.732635,0.000000,41.659788,44.966631,6999.267280,0.109258,-0.222512,-1.000000,-0.808504
10.900000,1.549492,-0.166349,0.072316,21.694119,0.846103,-2.316000,483.193512,3.498688,0.000000,41.659788,44.966657,6999.239090,0.819255,-1.000000,-0.574907,0.475916
11.000000,1.536603,-0.158910,0.067366,21.893536,0.199873,-1.931508,482.898254,3.203400,0.000000,41.659787,44.966683,6999.239090,-0.331890,-0.739446,1.000000,0.224105
11.100000,1.534280,-0.152556,0.059234,22.049330,-0.307142,-1.837200,482.577057,2.882233,0.000000,41.659787,44.966709,6999.210611,1.000000,-1.000000,0.513852,1.000000
11.200000,1.545393,-0.146519,0.047049,22.181214,-0.718679,-2.036764,482.196442,2.501617,0.000000,41.659787,44.966735,6999.210611,-1.000000,1.000000,-1.000000,-0.544387
11.300000,1.564762,-0.140901,0.036312,22.305128,-0.569932,-2.413912,481.809113,2.114288,0.000000,41.659786,44.966761,6999.181136,0.033186,0.255564,-1.000000,0.864546
11.400000,1.589460,-0.136373,0.023796,21.620185,0.432180,-2.865314,481.496460,1.801636,0.000000,41.659786,44.966787,6999.181136,-0.007760,0.329605,1.000000,-0.753409
11.500000,1.620994,-0.138314,-0.004519,18.901782,3.119752,-3.100324,481.392914,1.698090,0.000000,41.659785,44.966811,6999.150128,-0.694482,-0.159385,-0.240237,-0.135798
11.600000,1.647114,-0.143786,-0.010373,18.169028,4.135262,-3.393873,481.502258,1.807434,0.000000,41.659785,44.966834,6999.150128,-1.000000,-1.000000,1.000000,0.255453
11.700000,1.671651,-0.150582,-0.000570,18.282537,5.092440,-3.879953,481.679443,1.984619,0.000000,41.659784,44.966856,6999.119327,-1.000000,0.848221,0.374615,-0.718772
11.800000,1.698203,-0.159136,0.015664,18.374120,5.859932,-4.443645,481.956024,2.261200,0.000000,41.659783,44.966880,6999.119327,0.984600,-0.746880,-0.670875,1.000000
11.900000,1.729991,-0.167901,0.030629,18.377254,5.612251,-5.100875,482.244751,2.549927,0.000000,41.659783,44.966903,6999.087987,-1.000000,0.449713,-0.493950,0.123742
12.000000,1.767327,-0.175316,0.039685,18.321355,5.093161,-5.799390,482.467804,2.772980,0.000000,41.659782,44.966926,6999.087987,1.000000,-0.807495,1.000000,0.361754
12.100000,1.808925,-0.181885,0.046548,18.240609,4.520657,-6.499649,482.644867,2.950043,0.000000,41.659781,44.966950,6999.055279,-0.927547,0.994370,0.462814,-0.907437
12.200000,1.844177,-0.186757,0.054811,18.204843,4.085909,-7.032081,482.765137,3.070313,0.000000,41.659780,44.966973,6999.055279,0.464850,0.290468,0.442943,-0.997507
12.300000,1.864970,-0.190002,0.067323,18.267668,3.887254,-7.303505,482.852936,3.158112,0.000000,41.659778,44.966997,6999.023110,-1.000000,-1.000000,1.000000,0.290811
12.400000,1.879469,-0.192441,0.082359,18.386765,3.590593,-7.486096,482.928894,3.234070,0.000000,41.659777,44.967021,6999.023110,0.864904,-0.551970,-0.521435,1.000000
12.500000,1.895391,-0.194164,0.093167,18.477836,2.989156,-7.711092,482.964630,3.269806,0.000000,41.659775,44.967045,6998.990692,-0.269219,0.556571,-0.438916,0.173397
12.600000,1.915535,-0.195080,0.096709,18.524921,2.487943,-7.991998,482.944214,3.249359,0.000000,41.659774,44.967069,6998.990692,-0.247670,0.157676,-0.015616,1.000000
12.700000,1.939649,-0.195472,0.095183,18.574546,2.553645,-8.332196,482.903687,3.208832,0.000000,41.659772,44.967093,6998.957652,-0.467193,-0.256723,1.000000,-0.070305
12.800000,1.962536,-0.195158,0.090929,18.644328,2.893482,-8.631493,482.881287,3.186462,0.000000,41.659770,44.967117,6998.957652,-0.895888,-0.706704,-0.350982,0.137729
12.900000,1.979182,-0.194608,0.087881,18.777203,3.533136,-8.838157,482.908295,3.213501,0.000000,41.659768,44.967142,6998.928012,-0.578116,1.000000,1.000000,1.000000
13.000000,1.996895,-0.194839,0.084058,18.906300,3.965070,-9.084706,482.993408,3.298584,0.000000,41.659765,44.967166,6998.928012,-0.364865,-0.705251,1.000000,0.481446
13.100000,2.017674,-0.195568,0.077077,18.986636,4.152365,-9.380569,483.097809,3.402985,0.000000,41.659762,44.967192,6998.901315,-0.621358,0.846099,0.877487,1.000000
13.200000,2.039395,-0.196564,0.068893,19.048419,4.544673,-9.683604,483.211243,3.516418,0.000000,41.659759,44.967217,6998.901315,-1.000000,-0.327526,1.000000,-0.801067
13.300000,2.058523,-0.197960,0.064458,19.150023,5.199010,-9.923187,483.382629,3.687836,0.000000,41.659756,44.967243,6998.877022,-0.523310,0.938343,0.471563,0.991753
13.400000,2.072841,-0.199283,0.066093,19.287869,5.719728,-10.099235,483.606750,3.911896,0.000000,41.659752,44.967269,6998.877022,-1.000000,-1.000000,-0.936674,-1.000000
13.500000,2.080457,-0.200158,0.073183,19.453094,5.733767,-10.144062,483.848175,4.153351,0.000000,41.659748,44.967295,6998.855341,0.754612,0.052662,1.000000,-0.239518
13.600000,2.076325,-0.199271,0.085766,19.726639,5.225146,-9.941460,484.077667,4.382843,0.000000,41.659744,44.967321,6998.855341,-1.000000,0.314979,1.000000,0.032009
13.700000,2.068376,-0.197183,0.099356,20.056278,4.937042,-9.711942,484.271118,4.576294,0.000000,41.659739,44.967347,6998.833287,0.220456,0.043589,1.000000,0.957427
13.800000,2.065250,-0.195390,0.111026,20.331203,4.790365,-9.567786,484.443634,4.748810,0.000000,41.659735,44.967374,6998.833287,-1.000000,-0.351026,0.576971,-0.755105
13.900000,2.061526,-0.193397,0.124974,20.647911,5.019920,-9.370044,484.629791,4.934998,0.000000,41.659730,44.967400,6998.808538,-1.000000,0.045088,1.000000,-0.156307
14.000000,2.050186,-0.191215,0.144727,21.047603,5.622415,-9.016700,484.882935,5.188110,0.000000,41.659725,44.967427,6998.808538,-0.267713,0.637627,0.302095,-1.000000
14.100000,2.029846,-0.187628,0.167407,21.462443,5.466650,-8.427177,485.146851,5.452026,0.000000,41.659719,44.967454,6998.782836,-0.277114,1.000000,-1.000000,-1.000000
14.200000,1.995677,-0.180607,0.194942,21.957735,4.930493,-7.489528,485.401428,5.706604,0.000000,41.659713,44.967481,6998.782836,1.000000,1.000000,-0.317395,1.000000
14.300000,1.960060,-0.171102,0.218849,22.387924,3.924047,-6.509691,485.587128,5.892303,0.000000,41.659707,44.967507,6998.755766,0.636965,0.975699,-0.053208,-0.478536
14.400000,1.934934,-0.161588,0.233340,22.702163,2.922040,-5.716224,485.671082,5.976257,0.000000,41.659701,44.967534,6998.755766,0.320503,-0.255128,0.367637,1.000000
14.500000,1.915843,-0.151669,0.242255,22.997426,2.231459,-4.992624,485.682037,5.987213,0.000000,41.659695,44.967561,6998.726665,-0.843253,-1.000000,-0.965110,-1.000000
14.600000,1.900870,-0.142600,0.247026,23.301155,2.309016,-4.361171,485.664948,5.970123,0.000000,41.659688,44.967588,6998.726665,-1.000000,-0.739614,0.546006,0.859517
14.700000,1.890181,-0.135839,0.250118,23.590429,3.362314,-3.879137,485.705627,6.010803,0.000000,41.659682,44.967615,6998.697439,-1.000000,0.861009,1.000000,-0.767030
14.800000,1.884597,-0.130549,0.254415,23.851716,4.291319,-3.508722,485.862732,6.167908,0.000000,41.659674,44.967642,6998.697439,-0.019313,0.736920,1.000000,1.000000
14.900000,1.886181,-0.126313,0.257996,24.039693,4.181954,-3.274706,486.056366,6.361542,0.000000,41.659666,44.967669,6998.667840,-0.251935,-0.458795,1.000000,-0.690041
15.000000,1.894518,-0.122910,0.259996,24.193761,4.015171,-3.208176,486.220825,6.526001,0.000000,41.659658,44.967696,6998.667840,-0.892085,0.430416,0.776224,1.000000
15.100000,1.911980,-0.121063,0.261887,24.368995,4.574175,-3.399884,486.418060,6.723236,0.000000,41.659650,44.967723,6998.637039,-0.951276,1.000000,1.000000,1.000000
15.200000,1.946258,-0.123656,0.263061,24.490704,5.411090,-4.055199,486.702545,7.007721,0.000000,41.659641,44.967751,6998.637039,-0.810914,-1.000000,1.000000,0.146105
15.300000,1.987448,-0.127917,0.264685,24.547719,6.080035,-4.844088,487.046967,7.352142,0.000000,41.659632,44.967778,6998.606694,-0.990722,1.000000,1.000000,-0.211895
15.400000,2.030038,-0.131171,0.270068,24.579463,6.382441,-5.613381,487.480103,7.785278,0.000000,41.659622,44.967805,6998.606694,1.000000,-0.402128,-0.791405,-1.000000
15.500000,2.063423,-0.130138,0.279599,24.605951,5.732413,-6.074110,487.907715,8.212891,0.000000,41.659612,44.967833,6998.575768,-1.000000,0.360856,0.020125,-1.000000
15.600000,2.082310,-0.123862,0.292216,24.706458,5.077873,-6.154079,488.260773,8.565948,0.000000,41.659602,44.967860,6998.575768,-1.000000,0.507260,-0.472293,-0.816015
15.700000,2.089221,-0.112718,0.309862,24.935553,5.159719,-5.917864,488.632599,8.937775,0.000000,41.659591,44.967887,6998.543392,-0.551593,0.620742,1.000000,-1.000000
15.800000,2.084291,-0.097779,0.330749,25.221502,5.166711,-5.379453,489.049225,9.357910,0.000000,41.659579,44.967914,6998.543392,0.910544,-0.130223,0.184464,-0.226799
15.900000,2.073577,-0.080681,0.348916,25.457856,4.410724,-4.662017,489.428162,9.740967,0.000000,41.659568,44.967940,6998.511596,0.918199,-0.145141,-0.584852,-0.021007
16.000000,2.062858,-0.061031,0.362576,25.649279,3.318617,-3.875408,489.760620,10.077576,0.000000,41.659556,44.967967,6998.511596,-0.534753,1.000000,0.225166,-0.324305
16.100000,2.056633,-0.041954,0.369759,25.790931,2.402606,-3.194237,490.025391,10.346466,0.000000,41.659544,44.967993,6998.479344,1.000000,-1.000000,0.629392,0.973350
16.200000,2.059961,-0.026936,0.369087,25.856199,1.488339,-2.809639,490.219635,10.544830,0.000000,41.659532,44.968020,6998.479344,0.268283,0.694048,-0.334564,0.214276
16.300000,2.075380,-0.015208,0.359680,25.865748,0.583485,-2.735607,490.358307,10.687622,0.000000,41.659520,44.968046,6998.445931,-1.000000,-1.000000,-0.026053,1.000000
16.400000,2.099912,-0.007710,0.344681,25.870808,0.430579,-2.941767,490.470123,10.803528,0.000000,41.659508,44.968072,6998.445931,0.026742,0.215279,-0.310019,-0.444443
16.500000,2.123457,-0.002307,0.330275,25.875820,0.577087,-3.137610,490.601166,10.938690,0.000000,41.659495,44.968098,6998.413679,-0.830110,0.900678,-0.854421,-0.017575
16.600000,2.139803,0.004819,0.318001,25.908751,0.933016,-3.105964,490.773163,11.114746,0.000000,41.659482,44.968123,6998.413679,-1.000000,0.932276,-0.225398,-1.000000
16.700000,2.141899,0.014747,0.311366,26.002603,1.854913,-2.713559,491.029327,11.374939,0.000000,41.659469,44.968149,6998.383956,-0.602438,-0.777285,0.345754,-0.274683
16.800000,2.131672,0.026723,0.310291,26.095785,2.297319,-2.043993,491.348480,11.698090,0.000000,41.659455,44.968173,6998.383956,0.068001,0.185780,-1.000000,-0.222498
16.900000,2.117076,0.040013,0.310506,26.149479,2.074228,-1.264466,491.703400,12.057037,0.000000,41.659440,44.968198,6998.356927,-0.382844,-0.088159,-1.000000,0.159963
17.000000,2.104894,0.051878,0.309730,26.180460,1.994096,-0.588928,492.046265,12.403870,0.000000,41.659426,44.968222,6998.356927,-1.000000,1.000000,-0.458485,0.448095
17.100000,2.100749,0.059639,0.307204,26.198417,2.053958,-0.186283,492.388519,12.750092,0.000000,41.659411,44.968246,6999.867963,1.000000,-0.006545,-0.986690,0.284398
17.200000,2.104975,0.064598,0.302117,26.169972,1.586064,0.041470,492.734436,13.100098,0.000000,41.659397,44.968270,6999.867963,-0.944599,-1.000000,-0.928834,-0.316267
17.300000,2.112830,0.068104,0.296216,26.147921,1.315711,0.178883,493.045624,13.415436,0.000000,41.659382,44.968293,6999.845909,0.534253,-0.336395,0.662581,0.115076
17.400000,2.122035,0.070195,0.290126,26.121551,1.064115,0.245038,493.324921,13.698853,0.000000,41.659367,44.968317,6999.845909,-0.492691,-0.241125,0.020653,-0.164150
17.500000,2.134613,0.071185,0.283853,26.095996,0.925772,0.236775,493.598114,13.976196,0.000000,41.659352,44.968340,6999.821326,-0.139992,0.714035,0.049523,-0.110914
17.600000,2.148286,0.071023,0.280371,26.087674,1.160347,0.189008,493.879761,14.261963,0.000000,41.659336,44.968363,6999.821326,-1.000000,-0.340729,-0.144778,-0.537960
17.700000,2.161555,0.069946,0.280631,26.078119,1.565826,0.092959,494.178009,14.564301,0.000000,41.659320,44.968386,6999.795790,-0.138523,0.528983,1.000000,1.000000
17.800000,2.183850,0.066199,0.283259,26.058385,1.861407,-0.271574,494.532135,14.922516,0.000000,41.659305,44.968408,6999.795790,-0.584608,0.862926,-0.407074,0.729403
17.900000,2.221143,0.058219,0.284807,26.020215,2.028768,-1.058877,494.905029,15.299500,0.000000,41.659289,44.968430,6999.768803,-0.494565,-1.000000,-1.000000,0.173086
18.000000,2.264304,0.048594,0.285151,25.949699,2.121994,-1.956441,495.274445,15.672943,0.000000,41.659272,44.968452,6999.768803,1.000000,0.047139,0.250420,0.374621
18.100000,2.310723,0.039025,0.285040,25.814531,1.725360,-2.853825,495.647522,16.050018,0.000000,41.659256,44.968473,6999.740323,-1.000000,-0.352157,0.098909,-0.839780
18.200000,2.350789,0.032317,0.286176,25.672695,1.307257,-3.554300,495.980865,16.387512,0.000000,41.659240,44.968495,6999.740323,1.000000,-1.000000,-0.919635,0.660674
18.300000,2.385527,0.027535,0.287713,25.522481,0.746905,-4.159502,496.255829,16.666626,0.000000,41.659223,44.968516,6999.712838,-0.110966,0.162485,1.000000,0.511531
18.400000,2.425838,0.022183,0.286199,25.323797,0.125095,-4.888860,496.489746,16.904724,0.000000,41.659207,44.968537,6999.712838,-0.228092,-1.000000,0.587029,-1.000000
18.500000,2.460112,0.018570,0.284517,25.159664,-0.120572,-5.388510,496.691437,17.110565,0.000000,41.659190,44.968558,6999.685519,1.000000,-0.149187,-0.359978,-0.198038
18.600000,2.478774,0.018890,0.286056,25.057840,-0.593557,-5.489875,496.849091,17.272308,0.000000,41.659173,44.968578,6999.685519,-0.716244,-0.217756,0.790099,0.663497
18.700000,2.494046,0.019959,0.288074,24.976389,-0.937495,-5.570893,496.981964,17.409760,0.000000,41.659156,44.968599,6999.658408,0.832527,0.005708,0.799670,0.379629
18.800000,2.513316,0.019179,0.287076,24.861244,-1.323726,-5.786286,497.088501,17.520935,0.000000,41.659139,44.968619,6999.658408,0.566842,-1.000000,0.271169,1.000000
18.900000,2.535380,0.016945,0.281978,24.721689,-1.708924,-6.086324,497.147797,17.584869,0.000000,41.659122,44.968639,6999.633991,-0.682568,0.103232,-0.167761,-0.033616
19.000000,2.559552,0.013422,0.273803,24.596505,-1.533153,-6.451279,497.196350,17.637970,0.000000,41.659105,44.968658,6999.633991,-0.945378,-0.016521,0.627898,1.000000
19.100000,2.582155,0.008893,0.265170,24.500853,-0.423061,-6.791517,497.301727,17.747894,0.000000,41.659088,44.968678,6999.611895,-0.833057,-0.439558,0.871240,-1.000000
19.200000,2.596476,0.005926,0.259219,24.454570,0.511033,-6.901406,497.502838,17.953461,0.000000,41.659070,44.968697,6999.611895,0.624706,0.617407,1.000000,0.603657
19.300000,2.603964,0.004894,0.255615,24.426205,0.511320,-6.803349,497.751648,18.205811,0.000000,41.659052,44.968715,6999.591334,1.000000,0.579853,-0.110224,-0.394006
19.400000,2.607707,0.005654,0.253232,24.406887,0.092093,-6.583758,497.964142,18.421875,0.000000,41.659034,44.968733,6999.591334,-1.000000,0.317882,-0.870503,-0.933542
19.500000,2.602815,0.008881,0.254751,24.471831,0.130928,-6.165073,498.139374,18.600647,0.000000,41.659016,44.968751,6999.573176,-1.000000,0.695416,0.810386,0.586505
19.600000,2.593741,0.012804,0.260811,24.590562,1.151887,-5.703163,498.375671,18.840454,0.000000,41.658998,44.968769,6999.573176,-1.000000,-1.000000,0.628723,0.131992
19.700000,2.590672,0.015246,0.269602,24.643474,1.898841,-5.438163,498.721832,19.190094,0.000000,41.658980,44.968785,6999.555599,0.268198,-0.125569,0.085145,1.000000
19.800000,2.596857,0.016129,0.278067,24.623854,1.795879,-5.360418,499.074463,19.546143,0.000000,41.658962,44.968802,6999.555599,-0.312819,-0.001161,0.056937,-0.896681
19.900000,2.605383,0.017727,0.288514,24.592702,1.408029,-5.242059,499.423920,19.899017,0.000000,41.658943,44.968819,6999.534996,0.110306,1.000000,-0.462581,0.277907
20.000000,2.610816,0.020876,0.301086,24.587740,1.096265,-5.035758,499.745148,20.218719,0.000000,41.658924,44.968835,6999.534996,-0.464422,0.105598,-0.577590,-0.416377
20.100000,2.614658,0.024450,0.313738,24.580535,0.637724,-4.759372,500.023132,20.499847,0.000000,41.658906,44.968851,6999.512611,0.785111,0.522316,-0.070669,-1.000000
20.200000,2.611052,0.030945,0.329169,24.601438,0.116348,-4.239011,500.271118,20.751221,0.000000,41.658887,44.968866,6999.512611,-0.842194,-0.219971,0.629584,1.000000
20.300000,2.608488,0.036775,0.343190,24.612865,-0.265723,-3.801455,500.484497,20.968018,0.000000,41.658868,44.968881,6999.488318,1.000000,-0.527767,-0.115284,0.085841
20.400000,2.615686,0.038615,0.352377,24.566231,-0.757246,-3.662478,500.651489,21.138153,0.000000,41.658849,44.968897,6999.488318,0.416201,1.000000,-0.304717,1.000000
20.500000,2.634857,0.036501,0.357346,24.464595,-1.309373,-3.781424,500.773987,21.263977,0.000000,41.658830,44.968912,6999.461621,-1.000000,-0.488624,0.026107,-0.415752
20.600000,2.661422,0.031203,0.358981,24.356808,-1.437646,-4.097295,500.868896,21.362213,0.000000,41.658811,44.968926,6999.461621,1.000000,1.000000,0.200477,1.000000
20.700000,2.693186,0.023355,0.356613,24.203919,-1.814606,-4.595729,500.935211,21.431610,0.000000,41.658792,44.968941,6999.434302,0.581702,0.697519,-0.977237,1.000000
20.800000,2.739288,0.010748,0.346132,23.941274,-2.421285,-5.457647,500.947632,21.448669,0.000000,41.658773,44.968955,6999.434302,-1.000000,0.809600,-0.655817,-0.800616
20.900000,2.786543,-0.002398,0.331751,23.683184,-2.426535,-6.288002,500.917694,21.423859,0.000000,41.658753,44.968969,6999.405905,0.237210,0.051528,-0.910803,-1.000000
21.000000,2.818910,-0.011585,0.321122,23.520164,-2.175056,-6.710750,500.896881,21.407959,0.000000,41.658734,44.968982,6999.405905,0.163698,1.000000,-0.522797,-0.325492
21.100000,2.835905,-0.016567,0.315238,23.469930,-2.024601,-6.720353,500.867401,21.386475,0.000000,41.658715,44.968995,6999.376389,-1.000000,-0.531475,-0.623917,-1.000000
21.200000,2.837039,-0.018509,0.316522,23.570415,-1.262201,-6.389054,500.867767,21.402527,0.000000,41.658695,44.969008,6999.376389,-0.611441,-0.454894,0.879520,0.234763
21.300000,2.829779,-0.019843,0.322932,23.730106,-0.104259,-5.939210,500.948853,21.498566,0.000000,41.658675,44.969020,6999.349278,-1.000000,0.941375,-0.191042,-0.583546
21.400000,2.817719,-0.021328,0.332778,23.892711,0.757111,-5.357808,501.124786,21.690369,0.000000,41.658655,44.969031,6999.349278,1.000000,-0.275298,1.000000,0.034670
21.500000,2.803630,-0.022096,0.342725,24.004710,0.762970,-4.731268,501.319000,21.900452,0.000000,41.658635,44.969041,6999.324736,-1.000000,-1.000000,-0.050358,0.936626
21.600000,2.797152,-0.024135,0.347864,24.064486,0.611682,-4.314152,501.474518,22.070953,0.000000,41.658614,44.969052,6999.324736,1.000000,0.155227,1.000000,-0.456375
21.700000,2.796434,-0.027132,0.350137,24.091856,0.245122,-3.981021,501.600708,22.212952,0.000000,41.658594,44.969062,6999.301853,0.153733,0.138828,-0.421380,0.674245
21.800000,2.800866,-0.030154,0.350260,24.098734,-0.256118,-3.757373,501.661133,22.289276,0.000000,41.658574,44.969072,6999.301853,-1.000000,1.000000,0.009373,-0.312640
21.900000,2.810132,-0.033809,0.349220,24.125498,-0.178898,-3.683337,501.684235,22.327362,0.000000,41.658553,44.969082,6999.280255,-0.568569,0.018255,-0.088039,-0.219595
22.000000,2.820826,-0.037719,0.349819,24.179121,0.328848,-3.623357,501.735077,22.392853,0.000000,41.658533,44.969091,6999.280255,0.805564,0.197713,0.367980,0.602035
22.100000,2.834147,-0.041807,0.350834,24.186774,0.087922,-3.601579,501.787445,22.447540,0.000000,41.658512,44.969100,6999.256709,-0.306792,-0.820382,0.085510,-1.000000
22.200000,2.844987,-0.043708,0.352428,24.201616,-0.226520,-3.489440,501.796509,22.458832,0.000000,41.658491,44.969108,6999.256709,0.255398,-1.000000,-0.148157,-0.057067
22.300000,2.849452,-0.042149,0.356949,24.245761,-0.553561,-3.161914,501.772461,22.437134,0.000000,41.658470,44.969117,6999.231007,0.171436,-0.366434,1.000000,-1.000000
22.400000,2.847404,-0.037226,0.363914,24.314241,-0.793703,-2.679117,501.709473,22.376495,0.000000,41.658449,44.969124,6999.231007,-1.000000,1.000000,0.607979,0.603427
22.500000,2.846054,-0.032651,0.370130,24.387503,-0.847931,-2.296290,501.643097,22.312317,0.000000,41.658428,44.969132,6999.205968,1.000000,-1.000000,-1.000000,0.358494
22.600000,2.854510,-0.031649,0.372153,24.422942,-1.164446,-2.183894,501.553223,22.224823,0.000000,41.658407,44.969139,6999.205968,1.000000,-0.436994,-0.533907,1.000000
22.700000,2.874166,-0.034507,0.368016,24.394472,-1.948876,-2.323455,501.408539,22.082489,0.000000,41.658386,44.969146,6999.181136,0.785064,1.000000,0.296931,-0.373330
22.800000,2.896310,-0.037962,0.360626,24.354987,-2.680309,-2.522744,501.195831,21.872040,0.000000,41.658365,44.969153,6999.181136,0.388664,-0.406219,-0.630923,-0.975797
22.900000,2.911725,-0.038827,0.354476,24.347924,-3.260807,-2.447309,500.904938,21.583435,0.000000,41.658344,44.969160,6999.156802,0.834980,0.167959,-0.422252,-1.000000
23.000000,2.907989,-0.033349,0.354105,24.384913,-3.851994,-1.866332,500.551910,21.232819,0.000000,41.658322,44.969166,6999.156802,0.706460,0.427504,1.000000,-0.276524
23.100000,2.893597,-0.025172,0.356304,24.436491,-4.209267,-1.100459,500.165863,20.848969,0.000000,41.658301,44.969173,6999.134582,-0.143744,-0.326910,1.000000,-0.382312
23.200000,2.874719,-0.016701,0.358958,24.498350,-4.183723,-0.256817,499.733276,20.418762,0.000000,41.658280,44.969178,6999.134582,-0.152848,-1.000000,0.887509,0.722004
23.300000,2.860398,-0.011885,0.358981,24.568436,-3.468661,0.365743,499.325134,20.012787,0.000000,41.658258,44.969184,6999.114269,-1.000000,1.000000,0.950591,-0.213727
23.400000,2.853865,-0.011386,0.355319,24.639069,-2.617925,0.728968,499.007965,19.700439,0.000000,41.658237,44.969189,6999.114269,0.053752,-0.746998,-1.000000,1.000000
23.500000,2.854456,-0.014681,0.347315,24.714042,-2.052258,0.926519,498.726929,19.421509,0.000000,41.658215,44.969193,6999.095241,-0.492617,-1.000000,1.000000,-0.769457
23.600000,2.858590,-0.019846,0.336425,24.790961,-1.681617,1.054985,498.471375,19.168091,0.000000,41.658193,44.969197,6999.095241,0.133882,-0.224995,0.620310,0.081423
23.700000,2.860844,-0.024520,0.326444,24.871938,-1.253745,1.227521,498.248291,18.947144,0.000000,41.658171,44.969200,6999.078286,-0.799445,-0.152327,-0.655201,-0.550567
23.800000,2.862454,-0.029611,0.316817,24.954335,-0.932233,1.430436,498.036224,18.737183,0.000000,41.658149,44.969203,6999.078286,1.000000,-1.000000,0.982971,0.000992
23.900000,2.864079,-0.034394,0.308896,25.006318,-1.147953,1.652788,497.807739,18.510803,0.000000,41.658127,44.969206,6999.061994,-0.102006,0.309578,0.843496,-0.494013
24.000000,2.866030,-0.038269,0.303656,25.060381,-1.353289,1.869435,497.552032,18.257233,0.000000,41.658105,44.969209,6999.061994,0.008091,0.441922,1.000000,-0.621586
24.100000,2.866879,-0.041801,0.302409,25.147132,-0.951492,2.086271,497.270569,17.977905,0.000000,41.658083,44.969211,6999.043837,-1.000000,1.000000,0.263254,1.000000
24.200000,2.878219,-0.048666,0.303391,25.273354,-0.188847,1.946195,497.036774,17.746246,0.000000,41.658061,44.969213,6999.043837,-0.220423,-0.753982,0.616434,0.980703
24.300000,2.905616,-0.060058,0.302452,25.416165,0.513758,1.362842,496.873413,17.585052,0.000000,41.658038,44.969214,6999.023731,-0.953364,-0.438650,0.029264,-0.920270
24.400000,2.942418,-0.073305,0.301946,25.570339,1.447800,0.619021,496.759033,17.472839,0.000000,41.658015,44.969215,6999.023731,-1.000000,0.204941,0.242946,-0.892057
24.500000,2.975571,-0.083878,0.305939,25.712621,2.268699,-0.000156,496.734985,17.450989,0.000000,41.657992,44.969215,6999.001263,0.025868,0.345583,0.904653,0.460949
24.600000,3.007838,-0.092504,0.312294,25.823209,2.426254,-0.610311,496.742798,17.460999,0.000000,41.657969,44.969215,6999.001263,-0.575629,0.975561,0.949705,-0.152258
24.700000,3.049084,-0.102018,0.319738,25.921436,2.708266,-1.459953,496.759827,17.480255,0.000000,41.657946,44.969214,6998.976100,-1.000000,0.334454,0.568613,0.744824
24.800000,3.097471,-0.111659,0.326991,25.987832,3.076262,-2.473971,496.826721,17.549347,0.000000,41.657923,44.969213,6998.976100,0.230793,-1.000000,0.071074,-0.956610
24.900000,3.143016,-0.118363,0.334747,26.009144,2.965397,-3.357462,496.903351,17.628143,0.000000,41.657900,44.969211,6998.950066,-1.000000,1.000000,0.848809,0.652107
25.000000,3.189435,-0.122225,0.344261,26.017385,2.860529,-4.210430,496.988525,17.715515,0.000000,41.657876,44.969209,6998.950066,-0.154359,0.279090,0.841701,-0.936212
25.100000,3.232050,-0.122441,0.355880,26.011822,2.494266,-4.880827,497.083405,17.812592,0.000000,41.657853,44.969207,6998.922705,0.195680,0.595936,0.114437,-0.118406
25.200000,3.264541,-0.117780,0.370029,26.004024,1.574121,-5.230351,497.139404,17.870789,0.000000,41.657829,44.969204,6998.922705,1.000000,1.000000,-1.000000,-0.958952
25.300000,3.292454,-0.108588,0.385674,26.001544,0.424905,-5.381543,497.129395,17.862915,0.000000,41.657805,44.969200,6998.893355,-0.457796,-0.366140,0.931146,0.402006
25.400000,3.317873,-0.097874,0.399468,26.004987,-0.418215,-5.462057,497.061249,17.796936,0.000000,41.657782,44.969197,6998.893355,-0.610633,1.000000,-0.719752,0.129197
25.500000,3.345227,-0.089995,0.408578,26.003848,-0.460962,-5.681235,496.993958,17.731812,0.000000,41.657759,44.969193,6998.863964,-0.606283,-0.571577,1.000000,0.329126
25.600000,3.377823,-0.084291,0.414447,25.968854,-0.416754,-6.014571,496.965179,17.705170,0.000000,41.657735,44.969188,6998.863964,0.381273,1.000000,1.000000,0.185893
25.700000,3.412899,-0.080338,0.415944,25.865433,-0.916913,-6.389374,496.942047,17.684143,0.000000,41.657712,44.969183,6998.833826,-0.332902,1.000000,0.085144,0.387642
25.800000,3.446190,-0.077099,0.414312,25.738842,-1.431745,-6.725430,496.897797,17.641998,0.000000,41.657688,44.969177,6998.833826,0.520213,0.259348,0.097236,-0.482822
25.900000,3.473990,-0.071324,0.411971,25.661264,-1.687560,-6.841008,496.830597,17.576904,0.000000,41.657665,44.969171,6998.803398,-1.000000,-1.000000,-1.000000,-1.000000
26.000000,3.484643,-0.060163,0.411760,25.713554,-1.681067,-6.502965,496.773254,17.521606,0.000000,41.657642,44.969164,6998.803398,0.579263,-0.405399,0.150466,1.000000
26.100000,3.487205,-0.048351,0.409651,25.795037,-1.726937,-6.072385,496.733002,17.483459,0.000000,41.657619,44.969156,6998.776038,0.414348,1.000000,1.000000,0.299484
26.200000,3.493105,-0.038654,0.400712,25.820795,-2.101206,-5.775439,496.676056,17.428558,0.000000,41.657596,44.969148,6998.776038,-0.206242,-0.044309,0.967511,0.522041
26.300000,3.503226,-0.032253,0.386264,25.817506,-2.267519,-5.636713,496.598175,17.352722,0.000000,41.657573,44.969140,6998.751082,0.113293,-0.833010,-1.000000,0.509814
26.400000,3.516233,-0.029148,0.369913,25.786040,-2.391390,-5.623747,496.517303,17.273834,0.000000,41.657551,44.969132,6998.751082,1.000000,0.715415,1.000000,-0.485370
26.500000,3.525262,-0.025293,0.353853,25.766328,-2.586482,-5.441539,496.403595,17.162140,0.000000,41.657528,44.969123,6998.727950,-1.000000,-0.668455,-0.034869,-0.157293
26.600000,3.524549,-0.019422,0.341562,25.821168,-2.287714,-5.050234,496.286987,17.047516,0.000000,41.657506,44.969113,6998.727950,-1.000000,0.041993,1.000000,0.327518
26.700000,3.522907,-0.015140,0.331211,25.897905,-1.217392,-4.760352,496.236389,16.998871,0.000000,41.657484,44.969103,6998.707347,-0.636694,-0.091047,-0.369374,0.468406
26.800000,3.525698,-0.013105,0.320476,25.958784,0.103951,-4.585615,496.300232,17.064697,0.000000,41.657462,44.969093,6998.707347,-1.000000,0.866501,-0.929077,-0.058753
26.900000,3.529152,-0.011368,0.312007,26.004096,0.800822,-4.353463,496.462189,17.228546,0.000000,41.657440,44.969081,6998.688360,0.210051,0.334005,0.280518,-1.000000
27.000000,3.525523,-0.007152,0.308660,26.067665,1.092975,-3.914597,496.647217,17.415436,0.000000,41.657418,44.969070,6998.688360,-1.000000,0.542512,0.459659,0.359828
27.100000,3.517475,-0.000892,0.309159,26.142968,1.312906,-3.362329,496.867523,17.637634,0.000000,41.657396,44.969057,6998.669996,0.397951,0.057917,-0.077845,1.000000
27.200000,3.514485,0.004296,0.311022,26.188798,1.406731,-3.002446,497.103516,17.875488,0.000000,41.657375,44.969045,6998.669996,-1.000000,0.207899,-0.663584,-0.368076
27.300000,3.520608,0.006843,0.312832,26.203141,1.544518,-2.895236,497.337036,18.110840,0.000000,41.657354,44.969032,6998.652046,-0.795582,0.390768,1.000000,0.338612
27.400000,3.533181,0.008142,0.316243,26.220903,2.429950,-2.970910,497.638336,18.413971,0.000000,41.657333,44.969019,6998.652046,-1.000000,1.000000,0.121098,0.226667
27.500000,3.552666,0.008245,0.320883,26.212237,2.993899,-3.191497,498.028351,18.805725,0.000000,41.657312,44.969005,6998.631650,-0.310623,-0.892645,1.000000,-0.624429
27.600000,3.572729,0.009220,0.327786,26.187315,3.038155,-3.415557,498.430908,19.210052,0.000000,41.657291,44.968990,6998.631650,1.000000,-0.365599,1.000000,1.000000
27.700000,3.601446,0.009697,0.335015,26.093303,2.318349,-3.836762,498.839447,19.620270,0.000000,41.657270,44.968976,6998.608269,1.000000,0.379817,0.125631,-0.109431
27.800000,3.639493,0.009443,0.340020,25.919010,1.170860,-4.431854,499.172089,19.954651,0.000000,41.657250,44.968961,6998.608269,0.121962,0.127908,0.529968,-0.364744
27.900000,3.674257,0.011197,0.345519,25.747735,0.295040,-4.881811,499.410492,20.192108,0.000000,41.657229,44.968946,6998.583686,0.335191,0.090195,0.340677,-0.222768
28.000000,3.707073,0.015102,0.353771,25.566561,-0.583455,-5.244141,499.610016,20.393433,0.000000,41.657209,44.968931,6998.583686,1.000000,-0.809785,-0.692384,0.584418
28.100000,3.743916,0.017532,0.360955,25.332944,-1.457166,-5.759091,499.747589,20.532745,0.000000,41.657189,44.968916,6998.557528,-0.298056,1.000000,1.000000,0.767650
28.200000,3.787055,0.016030,0.364439,25.044680,-1.976593,-6.458437,499.838654,20.625427,0.000000,41.657169,44.968901,6998.557528,-1.000000,-0.074886,1.000000,-1.000000
28.300000,3.830135,0.014206,0.368899,24.744209,-2.111134,-7.030252,499.929688,20.718140,0.000000,41.657149,44.968885,6998.529339,0.834732,0.754903,0.400389,-0.044670
28.400000,3.861189,0.015604,0.378848,24.510240,-2.438334,-7.242213,500.021667,20.811798,0.000000,41.657129,44.968869,6998.529339,0.437079,-0.240390,1.000000,-0.735926
28.500000,3.880792,0.019489,0.391362,24.348205,-2.855950,-7.163680,500.083618,20.875275,0.000000,41.657110,44.968853,6998.501066,-0.405250,1.000000,-0.046973,-0.244705
28.600000,3.890588,0.026554,0.408127,24.262053,-3.187019,-6.769382,500.135712,20.929169,0.000000,41.657091,44.968837,6998.501066,1.000000,-0.048888,1.000000,-1.000000
28.700000,3.885712,0.038310,0.426150,24.257844,-3.673042,-5.949509,500.159363,20.954773,0.000000,41.657073,44.968820,6998.472172,-0.074014,1.000000,-0.350465,-0.739410
28.800000,3.865525,0.055035,0.442623,24.331817,-3.936808,-4.767319,500.149445,20.946564,0.000000,41.657054,44.968802,6998.472172,-0.981015,-0.506890,-0.088216,-0.877891
28.900000,3.832506,0.076254,0.457804,24.449576,-3.384697,-3.304968,500.148132,20.947083,0.000000,41.657037,44.968785,6998.442366,-1.000000,0.417367,-0.741754,0.998468
29.000000,3.801465,0.094419,0.466954,24.512058,-2.298795,-2.035898,500.230713,21.031433,0.000000,41.657019,44.968767,6998.442366,0.975020,-0.010739,-0.101725,-1.000000
29.100000,3.775267,0.108813,0.469755,24.490328,-2.113231,-0.879594,500.350342,21.152618,0.000000,41.657002,44.968748,6998.415379,0.801671,-0.325915,-1.000000,-1.000000
29.200000,3.740025,0.127226,0.468650,24.386495,-2.321415,0.595294,500.447693,21.251587,0.000000,41.656986,44.968729,6998.415379,-0.355399,0.433231,-1.000000,1.000000
29.300000,3.705441,0.144343,0.462243,24.240028,-2.085052,1.896327,500.521698,21.327179,0.000000,41.656970,44.968710,6998.390962,-1.000000,-1.000000,-1.000000,-1.000000
29.400000,3.680915,0.154985,0.449809,24.106594,-1.022032,2.807369,500.631165,21.438110,0.000000,41.656954,44.968690,6998.390962,-0.784537,-0.040546,0.356870,0.941499
29.500000,3.664130,0.160903,0.430436,23.961759,0.048433,3.489577,500.847015,21.655426,0.000000,41.656939,44.968670,6998.368286,-0.295726,0.634247,-0.858861,-0.474344
29.600000,3.660452,0.161044,0.408999,23.833327,0.474479,3.867581,501.117432,21.927246,0.000000,41.656924,44.968649,6998.368286,0.246078,-1.000000,1.000000,0.569124
29.700000,3.665754,0.158327,0.390753,23.731846,0.621991,4.041881,501.379608,22.190704,0.000000,41.656909,44.968628,6998.347475,-0.868313,-0.360929,0.544056,-1.000000
29.800000,3.677146,0.154407,0.375168,23.650518,0.753354,4.091046,501.670135,22.482483,0.000000,41.656895,44.968607,6998.347475,0.627645,-0.166740,-0.537160,0.519594
29.900000,3.696246,0.148850,0.363035,23.610422,0.755923,3.908844,501.958618,22.772308,0.000000,41.656881,44.968586,6998.327328,-1.000000,-0.283392,-0.402220,0.462261
30.000000,3.728420,0.139039,0.352266,23.638960,0.947604,3.342079,502.234863,23.049683,0.000000,41.656867,44.968564,6998.327328,-1.000000,0.993973,1.000000,0.422980
30.100000,3.774691,0.124909,0.340663,23.705913,2.078511,2.428807,502.590393,23.406433,0.000000,41.656854,44.968543,6998.305233,-1.000000,0.327924,0.952542,-0.198469
30.200000,3.827721,0.110317,0.329429,23.746442,3.034244,1.388670,503.067230,23.884399,0.000000,41.656841,44.968521,6998.305233,1.000000,0.110910,1.000000,1.000000
30.300000,3.883894,0.096945,0.320834,23.722888,2.905517,0.346246,503.550415,24.368591,0.000000,41.656829,44.968498,6998.281645,-0.065834,0.661551,0.685833,-1.000000
30.400000,3.943209,0.085980,0.315501,23.632980,2.332708,-0.688861,504.025208,24.844452,0.000000,41.656817,44.968476,6998.281645,-1.000000,-0.711057,-1.000000,0.049897
30.500000,3.997020,0.078993,0.316131,23.537983,2.405908,-1.617769,504.485077,25.305328,0.000000,41.656805,44.968453,6998.256357,-0.077335,-0.803616,-0.679422,1.000000
30.600000,4.052535,0.072027,0.319903,23.397673,2.369480,-2.682180,504.941101,25.762268,0.000000,41.656793,44.968431,6998.256357,0.566845,-0.572391,0.880601,1.000000
30.700000,4.124426,0.061914,0.322255,23.104135,1.636074,-4.081426,505.405792,26.227966,0.000000,41.656781,44.968408,6998.228748,0.322120,0.052971,-0.297754,0.803688
30.800000,4.203903,0.051234,0.320641,22.660620,0.687727,-5.573070,505.805176,26.628265,0.000000,41.656770,44.968385,6998.228748,0.702096,-0.159072,1.000000,0.455721
30.900000,4.276961,0.042916,0.317190,22.162118,-0.005688,-6.852928,506.121094,26.945068,0.000000,41.656759,44.968363,6998.200683,-0.253345,-0.114523,0.388771,0.102164
31.000000,4.345782,0.037213,0.315068,21.626462,-0.439130,-7.941991,506.418671,27.243591,0.000000,41.656748,44.968340,6998.200683,-1.000000,-1.000000,-0.397063,-1.000000
31.100000,4.397706,0.036105,0.319925,21.217238,-0.058394,-8.598319,506.731049,27.556824,0.000000,41.656737,44.968317,6998.171789,-0.516431,-0.591957,1.000000,0.396278
31.200000,4.432653,0.038204,0.332976,20.951333,0.444015,-8.933262,507.098419,27.924957,0.000000,41.656727,44.968294,6998.171789,-0.598227,-1.000000,0.960203,1.000000
31.300000,4.466872,0.039753,0.350248,20.688097,0.974174,-9.306798,507.557190,28.384460,0.000000,41.656717,44.968271,6998.141568,-0.921448,1.000000,1.000000,1.000000
31.400000,4.507950,0.037304,0.366876,20.348580,1.645544,-9.827198,508.106354,28.934265,0.000000,41.656708,44.968247,6998.141568,-0.642952,0.268314,-0.003302,0.258243
31.500000,4.546053,0.034105,0.382818,20.024602,1.919685,-10.212688,508.692017,29.520508,0.000000,41.656700,44.968224,6998.114208,-0.467012,1.000000,-0.561448,-1.000000
31.600000,4.573699,0.034496,0.401951,19.815791,2.183841,-10.252134,509.350586,30.179565,0.000000,41.656692,44.968201,6998.114208,-1.000000,-0.665252,0.195482,-1.000000
31.700000,4.582340,0.041797,0.424120,19.792218,2.219619,-9.871419,510.051666,30.881134,0.000000,41.656684,44.968178,6998.089418,0.670471,1.000000,1.000000,-0.051187
31.800000,4.578115,0.054216,0.443483,19.864137,1.730300,-9.238335,510.703125,31.532928,0.000000,41.656677,44.968154,6998.089418,-0.434456,0.297284,-1.000000,-0.294868
31.900000,4.569164,0.069805,0.459299,19.971245,1.337934,-8.492378,511.358215,32.188354,0.000000,41.656671,44.968131,6998.065540,0.023112,1.000000,0.511065,1.000000
32.000000,4.565053,0.082594,0.469220,20.011554,1.083697,-7.887480,511.999359,32.829834,0.000000,41.656665,44.968108,6998.065540,0.023833,-0.651728,1.000000,0.952614
32.100000,4.573556,0.088249,0.471529,19.918095,0.894782,-7.622579,512.581360,33.412109,0.000000,41.656659,44.968085,6998.041537,-0.246109,0.630884,0.442842,1.000000
32.200000,4.596400,0.087309,0.467474,19.709897,1.025689,-7.618276,513.191528,34.022491,0.000000,41.656654,44.968062,6998.041537,-0.886602,0.062403,1.000000,0.232004
32.300000,4.626724,0.082694,0.460979,19.457827,2.021484,-7.764744,513.842346,34.673462,0.000000,41.656649,44.968039,6998.015960,-1.000000,-1.000000,-0.385337,1.000000
32.400000,4.660470,0.076656,0.456180,19.195881,3.216330,-7.997339,514.551147,35.382324,0.000000,41.656645,44.968016,6998.015960,-0.816664,1.000000,-1.000000,0.177388
32.500000,4.700708,0.069048,0.453752,18.907762,4.175150,-8.298419,515.397949,36.229095,0.000000,41.656642,44.967994,6997.988268,-0.885586,0.458196,-0.623226,1.000000
32.600000,4.744360,0.060214,0.455134,18.585286,4.622131,-8.642854,516.310852,37.141907,0.000000,41.656639,44.967971,6997.988268,0.006105,0.347266,-0.112877,0.016013
32.700000,4.786699,0.052139,0.457040,18.235884,4.290514,-8.950554,517.169861,38.000793,0.000000,41.656637,44.967949,6997.961405,0.863107,1.000000,-1.000000,1.000000
32.800000,4.831640,0.045126,0.456960,17.826287,3.373746,-9.204345,518.019287,38.849976,0.000000,41.656635,44.967927,6997.961405,0.128810,-0.621687,1.000000,-0.522684
32.900000,4.873049,0.041213,0.455296,17.459528,2.610629,-9.351511,518.782593,39.613098,0.000000,41.656633,44.967905,6997.935247,-0.051433,0.764451,-1.000000,1.000000
33.000000,4.908332,0.039339,0.453794,17.170085,2.270138,-9.416129,519.451355,40.281677,0.000000,41.656632,44.967883,6997.935247,-0.335634,0.508090,0.532087,-0.719445
33.100000,4.939266,0.039630,0.454568,16.935673,2.102706,-9.337934,520.139709,40.969757,0.000000,41.656631,44.967861,6997.907265,0.000089,-0.161862,-1.000000,-0.208225
33.200000,4.957495,0.044985,0.460086,16.814135,1.728257,-9.014923,520.804871,41.634583,0.000000,41.656630,44.967840,6997.907265,0.845370,-0.671902,-1.000000,-0.414925
33.300000,4.966032,0.053650,0.466994,16.739193,0.874752,-8.574133,521.375427,42.204834,0.000000,41.656630,44.967818,6997.878951,1.000000,1.000000,-0.438020,0.795111
33.400000,4.972761,0.063707,0.471939,16.640879,-0.230289,-8.093365,521.886658,42.715698,0.000000,41.656629,44.967797,6997.878951,0.775996,1.000000,-0.952790,1.000000
33.500000,4.982524,0.071113,0.472070,16.519070,-0.995027,-7.699416,522.306702,43.135376,0.000000,41.656629,44.967776,6997.850388,0.293592,-0.894924,0.228522,-0.520557
33.600000,4.987903,0.077807,0.469999,16.444811,-1.366530,-7.242823,522.645142,43.473480,0.000000,41.656629,44.967755,6997.850388,-0.008880,-1.000000,-1.000000,-0.638008
33.700000,4.981636,0.088046,0.466800,16.448863,-1.650878,-6.554142,522.966003,43.793945,0.000000,41.656629,44.967734,6997.822696,1.000000,-0.943509,-0.689542,0.427952
33.800000,4.965365,0.100437,0.460593,16.498726,-1.850416,-5.739171,523.240295,44.067810,0.000000,41.656630,44.967713,6997.822696,-1.000000,-0.964195,0.668068,-0.608109
33.900000,4.942729,0.112713,0.452410,16.571438,-1.680637,-4.889045,523.480957,44.308014,0.000000,41.656631,44.967692,6997.798321,1.000000,0.814774,-0.107562,0.387852
34.000000,4.913471,0.125571,0.442030,16.623782,-1.597037,-3.944259,523.729431,44.555969,0.000000,41.656632,44.967672,6997.798321,0.421659,1.000000,1.000000,0.912228
34.100000,4.886549,0.135259,0.429114,16.617681,-1.583788,-3.089896,523.950378,44.776367,0.000000,41.656633,44.967652,6997.776806,-0.814652,1.000000,-0.476710,-0.957384
34.200000,4.860174,0.143000,0.417115,16.607058,-1.111758,-2.287469,524.158508,44.983917,0.000000,41.656635,44.967633,6997.776806,0.349959,0.400272,0.549219,1.000000
34.300000,4.832963,0.149109,0.405063,16.552487,-0.879223,-1.485774,524.394531,45.219360,0.000000,41.656637,44.967613,6997.757031,0.130032,1.000000,1.000000,-0.483571
34.400000,4.809610,0.152525,0.392974,16.446764,-1.043543,-0.749806,524.604736,45.428894,0.000000,41.656640,44.967594,6997.757031,1.000000,0.039276,-0.152150,0.245666
34.500000,4.788965,0.154630,0.382028,16.323151,-1.337866,-0.112706,524.755371,45.578949,0.000000,41.656642,44.967575,6997.739620,0.068194,-0.952415,1.000000,1.000000
34.600000,4.775762,0.152744,0.369214,16.193833,-1.513347,0.360235,524.867676,45.690552,0.000000,41.656645,44.967556,6997.739620,-0.198627,1.000000,0.484402,-1.000000
34.700000,4.766042,0.148422,0.357211,16.086683,-1.386162,0.790858,524.957214,45.779419,0.000000,41.656648,44.967537,6997.723204,0.253932,-1.000000,1.000000,1.000000
34.800000,4.758878,0.142587,0.347434,16.000720,-1.078631,1.119939,525.035156,45.856659,0.000000,41.656651,44.967518,6997.723204,-1.000000,-1.000000,0.686021,0.239545
34.900000,4.760345,0.131990,0.337714,15.936007,-0.541021,1.270043,525.142639,45.963440,0.000000,41.656654,44.967500,6997.706373,0.501363,-0.720774,1.000000,0.639986
35.000000,4.770365,0.117843,0.329321,15.876003,-0.285637,1.316477,525.267639,46.087646,0.000000,41.656658,44.967482,6997.706373,-0.303578,1.000000,0.087768,-0.710666
35.100000,4.782171,0.103803,0.324278,15.836936,-0.020365,1.353389,525.376038,46.195313,0.000000,41.656662,44.967464,6997.689543,-1.000000,0.959752,1.000000,0.678188
35.200000,4.796227,0.088012,0.324335,15.843616,1.106102,1.339805,525.531616,46.350037,0.000000,41.656666,44.967446,6997.689543,-1.000000,0.920749,1.000000,-1.000000
35.300000,4.811491,0.071593,0.330820,15.841894,2.141335,1.301771,525.785095,46.602631,0.000000,41.656671,44.967428,6997.671924,0.141449,0.646443,-0.647784,0.977576
35.400000,4.829970,0.055617,0.342072,15.825018,2.400158,1.200583,526.051636,46.868286,0.000000,41.656676,44.967411,6997.671924,-0.287635,-0.841365,-0.953028,0.512829
35.500000,4.861117,0.035862,0.353928,15.839735,2.605264,0.858782,526.324524,47.140198,0.000000,41.656681,44.967393,6997.652026,-0.755232,-1.000000,-0.196722,1.000000
35.600000,4.904445,0.012590,0.362053,15.883010,3.016536,0.347875,526.611145,47.425842,0.000000,41.656687,44.967376,6997.652026,-0.307920,0.030493,0.195604,-1.000000
35.700000,4.945937,-0.008194,0.368964,15.908808,3.087893,-0.032679,526.888123,47.701874,0.000000,41.656693,44.967359,6997.630345,0.909235,0.486893,-0.245599,0.034018
35.800000,4.982636,-0.025136,0.379260,15.922195,2.698697,-0.268074,527.139099,47.951813,0.000000,41.656699,44.967342,6997.630345,-1.000000,-0.171431,0.274998,-0.586145
