t,yaw,pitch,roll,speed.x,speed.y,speed.z,altBar,altRad,egt,myloclat,myloclon,weightlb,collective,bank,pitch,rudder
0.100000,5.374699,0.031624,0.000931,-0.097073,0.517387,0.032737,481.239288,1.544464,0.000000,41.659724,44.965707,7004.964901,1.000000,1.000000,-1.000000,0.392943
0.200000,5.372781,0.037391,0.004061,-0.065782,0.127071,0.046284,481.265533,1.570709,0.000000,41.659724,44.965707,7004.964901,-0.094942,0.565720,0.131446,1.000000
0.300000,5.373638,0.041608,0.005341,-0.061647,0.135965,-0.033322,481.275696,1.580872,0.000000,41.659724,44.965707,7000.556034,0.180909,-0.063546,-0.129497,-0.041357
0.400000,5.375963,0.044947,0.001852,-0.035298,0.023986,-0.040584,481.284210,1.589386,0.000000,41.659724,44.965707,7000.556034,0.225377,-0.352477,-0.260467,-0.642964
0.500000,5.374837,0.046052,0.000895,0.000460,0.014629,0.002457,481.282349,1.587524,0.000000,41.659724,44.965707,7000.556034,-0.403475,1.000000,-1.000000,0.585012
0.600000,5.373539,0.044654,0.001570,0.046309,0.140211,0.004881,481.290436,1.595642,0.000000,41.659724,44.965707,7000.556034,-0.092521,0.142370,0.771226,0.821143
0.700000,5.376959,0.041163,0.002235,0.068934,-0.066750,-0.006838,481.299805,1.604980,0.000000,41.659724,44.965707,7000.541649,0.784308,-1.000000,-1.000000,-1.000000
0.800000,5.378960,0.036673,0.001227,0.049885,-0.260566,-0.009046,481.276978,1.582153,0.000000,41.659724,44.965707,7000.541649,0.205378,1.000000,0.989160,0.656788
0.900000,5.378830,0.036292,0.003392,-0.035117,0.003130,0.070793,481.268280,1.573456,0.000000,41.659724,44.965707,7000.527057,1.000000,-1.000000,0.430243,0.735313
1.000000,5.381330,0.038732,0.006510,-0.049210,0.006983,0.017322,481.269043,1.574219,0.000000,41.659724,44.965707,7000.527057,0.125838,-1.000000,-0.487134,1.000000
1.100000,5.386591,0.040533,0.006191,-0.031418,-0.001065,-0.017119,481.269012,1.574188,0.000000,41.659724,44.965707,7000.511096,1.000000,-1.000000,-0.374362,-0.420498
1.200000,5.388986,0.041474,0.004821,-0.024337,0.131894,-0.048568,481.272675,1.577850,0.000000,41.659724,44.965707,7000.511096,-1.000000,1.000000,0.334172,-0.032982
1.300000,5.388224,0.042818,0.001381,0.000644,0.282271,-0.063690,481.290924,1.596100,0.000000,41.659724,44.965707,7000.492442,-1.000000,-1.000000,1.000000,0.474862
1.400000,5.391071,0.041797,0.000665,0.054028,0.613823,-0.077507,481.343536,1.648712,0.000000,41.659724,44.965707,7000.492442,1.000000,-0.704077,-1.000000,-1.000000
1.500000,5.392670,0.039325,0.002784,0.062527,0.314974,-0.037842,481.390656,1.695831,0.000000,41.659724,44.965707,7000.472751,-0.787845,0.231732,-0.252417,-0.156087
1.600000,5.388788,0.035865,0.008559,0.081161,0.100335,0.006946,481.405914,1.711090,0.000000,41.659724,44.965707,7000.472751,-0.706540,0.420946,0.936965,0.605050
1.700000,5.387784,0.030235,0.016829,0.164708,0.669998,-0.025599,481.441528,1.746704,0.000000,41.659724,44.965707,7000.452438,-0.814502,-1.000000,-1.000000,-0.007431
1.800000,5.393613,0.021846,0.025286,0.237590,1.016971,-0.044933,481.529907,1.835083,0.000000,41.659724,44.965706,7000.452438,0.820144,-0.723387,-1.000000,0.149628
1.900000,5.405037,0.011217,0.033372,0.264192,0.666522,-0.032062,481.620178,1.925354,0.000000,41.659725,44.965706,7000.431088,-0.699074,1.000000,1.000000,1.000000
2.000000,5.424990,0.000019,0.038287,0.293742,0.215921,-0.023457,481.664154,1.969330,0.000000,41.659725,44.965706,7000.431088,0.761120,1.000000,1.000000,-0.287693
2.100000,5.449904,-0.010608,0.040389,0.327863,-0.253884,0.023398,481.663361,1.968536,0.000000,41.659725,44.965706,7000.409034,0.019394,0.085915,-0.766758,-0.340137
2.200000,5.475635,-0.021166,0.042291,0.379628,-0.665653,0.088764,481.611115,1.916290,0.000000,41.659725,44.965706,7000.409034,-1.000000,0.674016,-0.017949,0.279584
2.300000,5.503100,-0.031389,0.043856,0.485724,-0.204247,0.101313,481.557709,1.862885,0.000000,41.659726,44.965705,7000.385571,-1.000000,0.376776,0.018872,0.395844
2.400000,5.532689,-0.041943,0.045246,0.625242,0.525110,0.097567,481.579987,1.885162,0.000000,41.659726,44.965705,7000.385571,0.459649,-1.000000,-1.000000,-1.000000
2.500000,5.563285,-0.053739,0.047234,0.732657,0.360757,0.144543,481.626129,1.931274,0.000000,41.659727,44.965705,7000.359537,-0.439560,1.000000,-0.563364,1.000000
2.600000,5.595097,-0.065123,0.047413,0.831701,-0.052884,0.170195,481.637299,1.942474,0.000000,41.659727,44.965704,7000.359537,0.897666,-0.926516,0.343563,0.285451
2.700000,5.630279,-0.075046,0.043378,0.933003,-0.375637,0.166138,481.608063,1.913239,0.000000,41.659728,44.965704,7000.333379,-0.825482,0.364306,0.976674,0.552670
2.800000,5.671750,-0.084265,0.035093,1.057496,-0.377834,0.140853,481.554504,1.859680,0.000000,41.659729,44.965704,7000.333379,0.083791,-0.161195,0.625423,-0.079805
2.900000,5.711991,-0.089041,0.022671,1.124236,0.253109,0.012054,481.541107,1.846283,0.000000,41.659730,44.965703,7000.307801,-1.000000,0.278035,1.000000,-0.435884
3.000000,5.743792,-0.091181,0.013689,1.290302,0.796032,-0.003333,481.575958,1.881134,0.000000,41.659731,44.965703,7000.307801,-1.000000,0.175871,-0.058053,1.000000
3.100000,5.779034,-0.094877,0.006991,1.497270,1.340638,-0.080920,481.682495,1.987671,0.000000,41.659732,44.965702,7000.281809,0.862069,1.000000,0.634320,0.719609
3.200000,5.821878,-0.099093,-0.002232,1.633176,0.971472,-0.159924,481.789795,2.094971,0.000000,41.659733,44.965701,7000.281809,0.652162,-1.000000,0.169679,0.039946
3.300000,5.863507,-0.101906,-0.012048,1.731127,0.267691,-0.195159,481.833344,2.138519,0.000000,41.659735,44.965700,7000.257723,0.579455,-0.067486,0.794068,-0.160870
3.400000,5.903528,-0.103096,-0.020671,1.830461,-0.523766,-0.219807,481.800690,2.105835,0.000000,41.659736,44.965699,7000.257723,0.804337,1.000000,1.000000,-0.200171
3.500000,5.939513,-0.102411,-0.026023,1.927078,-1.052667,-0.275016,481.694824,2.000000,0.000000,41.659738,44.965699,7000.235255,-1.000000,-1.000000,1.000000,0.477689
3.600000,5.974449,-0.099560,-0.025687,2.016869,-0.757243,-0.350148,481.580292,1.885468,0.000000,41.659739,44.965698,7000.235255,-1.000000,-0.648378,-0.557273,-0.119111
3.700000,6.010476,-0.093166,-0.004938,1.956883,-0.173098,-0.384093,481.526031,1.831238,0.000000,41.659741,44.965697,7000.211708,1.000000,-1.000000,-0.144379,-0.524560
3.800000,6.038890,-0.083448,0.010399,1.735282,-0.139821,-0.380110,481.495850,1.801025,0.000000,41.659743,44.965696,7000.211708,0.294649,-0.821725,-0.775026,1.000000
3.900000,6.068442,-0.069208,0.002018,1.462330,-0.144723,-0.493418,481.469696,1.774872,0.000000,41.659744,44.965696,7000.188328,-0.147417,-0.085340,0.695502,-0.159178
4.000000,6.101206,-0.050248,-0.001741,1.418859,-0.101405,-0.550939,481.445557,1.750732,0.000000,41.659745,44.965695,7000.188328,-0.842881,0.373984,-0.514713,-0.212141
4.100000,6.129185,-0.032338,0.001243,1.526697,0.265358,-0.575540,481.450531,1.755707,0.000000,41.659746,44.965694,7000.165859,0.207876,-0.023345,0.252849,0.808979
4.200000,6.154436,-0.017667,0.005276,1.601918,0.247137,-0.628026,481.475006,1.780182,0.000000,41.659748,44.965694,7000.165859,-0.409276,1.000000,0.330053,1.000000
4.300000,6.186210,-0.004121,0.007818,1.665260,0.405015,-0.698697,481.499817,1.804993,0.000000,41.659749,44.965693,7000.143846,-1.000000,0.329961,0.435137,-0.173249
4.400000,6.220064,0.007050,0.012287,1.721971,0.699821,-0.748796,481.564941,1.870117,0.000000,41.659751,44.965692,7000.143846,1.000000,0.423926,-1.000000,-1.000000
4.500000,6.248223,0.016023,0.017928,1.736979,0.329771,-0.749712,481.619568,1.924744,0.000000,41.659752,44.965691,7000.123450,-0.865003,-1.000000,-1.000000,1.000000
4.600000,6.275475,0.024294,0.022909,1.740626,-0.090974,-0.756295,481.635834,1.941010,0.000000,41.659754,44.965691,7000.123450,1.000000,-0.368908,-0.378200,1.000000
4.700000,0.023882,0.031106,0.024238,1.721131,-0.625053,-0.814405,481.609009,1.914185,0.000000,41.659756,44.965690,7000.103884,0.557643,1.000000,-0.755465,1.000000
4.800000,0.061180,0.036604,0.020025,1.666940,-1.350057,-0.872979,481.520996,1.826172,0.000000,41.659757,44.965690,7000.103884,0.928269,-0.714314,-0.560223,0.471476
4.900000,0.104842,0.041734,0.011303,1.613669,-1.820957,-0.942725,481.360870,1.666046,0.000000,41.659759,44.965689,7000.083363,-0.787001,0.519153,0.438396,-1.000000
5.000000,0.139470,0.040132,-0.005898,0.741982,-0.335580,-0.631369,481.222809,1.527985,0.000000,41.659760,44.965688,7000.083363,0.957938,-1.000000,-0.370643,-1.000000
5.100000,0.144987,0.023705,-0.017682,0.227137,0.561909,0.056120,481.260223,1.565399,0.000000,41.659761,44.965688,7000.061890,0.414508,0.422050,-0.274734,-1.000000
5.200000,0.137108,0.013541,-0.008083,0.191195,0.140325,0.310156,481.292969,1.598145,0.000000,41.659761,44.965689,7000.061890,-0.594462,-1.000000,0.298395,1.000000
5.300000,0.126343,0.008126,0.002146,0.151561,0.275165,0.269330,481.309509,1.614685,0.000000,41.659761,44.965689,7000.039836,-0.622665,-0.891075,0.315201,0.474393
5.400000,0.122151,0.002178,0.009467,0.237644,0.637414,0.217824,481.355194,1.660370,0.000000,41.659761,44.965689,7000.039836,-0.333424,0.367846,1.000000,0.802111
5.500000,0.124815,-0.006861,0.014317,0.307762,0.595201,0.191233,481.423615,1.728790,0.000000,41.659761,44.965690,7000.018113,0.242749,0.236045,-0.057716,0.546085
5.600000,0.134214,-0.017063,0.016269,0.357060,0.185001,0.193535,481.465179,1.770355,0.000000,41.659762,44.965690,7000.018113,0.442046,-1.000000,-0.535487,0.084905
5.700000,0.145499,-0.026871,0.016318,0.415877,-0.188023,0.210594,481.461273,1.766449,0.000000,41.659762,44.965690,6999.998215,-0.336569,-0.074673,-1.000000,0.266983
5.800000,0.158394,-0.037328,0.014755,0.483374,-0.438599,0.216238,481.425903,1.731079,0.000000,41.659762,44.965691,6999.998215,0.632226,-0.797508,-0.966614,-1.000000
5.900000,0.162038,-0.043216,0.013251,0.241921,-0.297118,0.148086,481.382019,1.687195,0.000000,41.659762,44.965691,6999.979104,0.210332,1.000000,-0.384152,-0.505011
6.000000,0.153332,-0.040019,0.010522,-0.084188,0.009696,0.087308,481.365753,1.670929,0.000000,41.659762,44.965691,6999.979104,-0.446447,1.000000,0.489949,-0.521425
6.100000,0.136278,-0.028711,0.005541,-0.051867,0.299107,0.157398,481.381866,1.687042,0.000000,41.659762,44.965691,6999.959123,-0.343014,0.159773,0.234229,-1.000000
6.200000,0.106848,-0.018331,0.010098,0.036668,0.338482,0.260737,481.421173,1.726379,0.000000,41.659762,44.965692,6999.959123,1.000000,0.222139,0.117354,-1.000000
6.300000,0.066383,-0.009022,0.022737,0.069385,-0.094596,0.381449,481.432281,1.737457,0.000000,41.659762,44.965692,6999.939017,-0.517889,1.000000,-0.653159,-0.795100
6.400000,0.014468,0.000885,0.041299,0.084239,-0.467081,0.493817,481.400818,1.705994,0.000000,41.659762,44.965692,6999.939017,0.947638,0.081406,0.986037,-0.000877
6.500000,6.248865,0.011189,0.047540,-0.131265,-0.487166,0.504298,481.342560,1.647736,0.000000,41.659762,44.965693,6999.918663,-0.187139,-1.000000,1.000000,0.956345
6.600000,6.216394,0.019972,0.023334,-0.316718,-0.379055,0.223195,481.304230,1.609406,0.000000,41.659762,44.965693,6999.918663,0.548385,-1.000000,0.670241,1.000000
6.700000,6.198627,0.031586,0.001469,-0.276230,-0.358618,-0.068262,481.261719,1.566895,0.000000,41.659762,44.965693,6999.897603,1.000000,-0.061778,0.472588,0.805766
6.800000,6.200293,0.046962,-0.001820,-0.183508,0.091658,-0.053478,481.247192,1.552368,0.000000,41.659762,44.965693,6999.897603,-0.125574,-0.586852,-0.558839,-0.018937
6.900000,6.204954,0.056421,-0.000974,-0.114140,0.313815,0.033478,481.271057,1.576233,0.000000,41.659761,44.965693,6999.876171,0.141134,-0.878196,-0.897071,-1.000000
7.000000,6.204524,0.063662,0.002605,-0.124918,0.065622,0.070610,481.294159,1.599335,0.000000,41.659761,44.965693,6999.876171,1.000000,0.738965,-0.875676,1.000000
7.100000,6.204426,0.068331,0.004673,-0.056855,-0.084871,0.008592,481.286621,1.591797,0.000000,41.659761,44.965693,6999.854159,-0.728072,0.078097,-0.490115,1.000000
7.200000,6.210174,0.068938,0.001860,0.018456,0.159820,-0.057973,481.287720,1.592926,0.000000,41.659761,44.965693,6999.854159,-0.140898,-0.589438,-0.825678,1.000000
7.300000,6.224392,0.064807,-0.001776,0.055877,0.464240,-0.100516,481.321106,1.626282,0.000000,41.659761,44.965693,6999.832146,-0.593097,1.000000,0.171585,-0.472773
7.400000,6.242478,0.057252,-0.004257,0.074036,0.483925,-0.089680,481.373352,1.678497,0.000000,41.659761,44.965693,6999.832146,0.277293,0.598300,-1.000000,-0.869494
7.500000,6.253613,0.048011,-0.003503,0.082681,0.267120,-0.043024,481.410706,1.715881,0.000000,41.659761,44.965693,6999.812040,-0.355492,0.470157,-0.317020,0.293177
7.600000,6.258397,0.036293,0.000654,0.105919,0.078384,0.006568,481.426880,1.732056,0.000000,41.659761,44.965693,6999.812040,0.137427,-1.000000,-0.469934,-1.000000
7.700000,6.255566,0.022706,0.008719,0.154070,0.106853,0.068767,481.432526,1.737701,0.000000,41.659761,44.965693,6999.793095,-1.000000,0.037535,0.343882,-0.372187
7.800000,6.243284,0.008171,0.020580,0.214823,0.234211,0.127813,481.453522,1.758698,0.000000,41.659762,44.965693,6999.793095,0.794676,-1.000000,-1.000000,0.570374
7.900000,6.230000,-0.008189,0.032532,0.255230,-0.132852,0.142235,481.462677,1.767853,0.000000,41.659762,44.965694,6999.774316,0.751606,0.281471,-1.000000,1.000000
8.000000,6.225348,-0.024075,0.039005,0.259838,-0.795979,0.124404,481.411713,1.716888,0.000000,41.659762,44.965694,6999.774316,0.871573,0.594869,-1.000000,-1.000000
8.100000,6.220542,-0.030029,0.027518,-0.070242,-0.525998,-0.257522,481.333740,1.638885,0.000000,41.659762,44.965694,6999.755537,1.000000,-1.000000,-1.000000,-1.000000
8.200000,6.212861,-0.011637,0.003447,-0.402655,-0.165177,-0.334257,481.311157,1.616333,0.000000,41.659762,44.965693,6999.755537,1.000000,-0.255353,-0.338093,0.587224
8.300000,6.209537,0.019477,-0.007327,-0.520775,-0.339665,-0.072488,481.283234,1.588409,0.000000,41.659762,44.965693,6999.735556,0.506975,0.393086,-0.325225,0.205394
8.400000,6.212588,0.048617,-0.006441,-0.445216,-0.153942,0.066063,481.250336,1.555481,0.000000,41.659761,44.965693,6999.735556,-0.261171,0.161773,-0.402070,-0.051597
8.500000,6.217500,0.073396,0.001439,-0.290271,0.590494,0.105426,481.275665,1.580841,0.000000,41.659761,44.965693,6999.713294,-0.530950,-0.083867,-0.111511,1.000000
8.600000,6.225220,0.093251,0.008781,-0.241761,0.849692,0.084332,481.345856,1.651031,0.000000,41.659760,44.965693,6999.713294,-0.585821,-0.080056,-0.396926,-1.000000
8.700000,6.231305,0.107009,0.018822,-0.191699,1.396180,0.114251,481.447174,1.752350,0.000000,41.659760,44.965693,6999.691986,-1.000000,0.610136,0.485857,-0.892585
8.800000,6.224922,0.116457,0.034415,-0.166206,1.849211,0.180741,481.617004,1.922180,0.000000,41.659760,44.965693,6999.691986,0.374955,0.098707,0.697172,0.866306
8.900000,6.212912,0.122341,0.049419,-0.220688,1.521167,0.197092,481.789795,2.094971,0.000000,41.659759,44.965694,6999.671632,1.000000,-1.000000,-1.000000,0.116862
9.000000,6.207653,0.125765,0.059250,-0.315917,0.803035,0.222858,481.897552,2.202728,0.000000,41.659759,44.965694,6999.671632,0.440456,1.000000,-1.000000,1.000000
9.100000,6.209687,0.127737,0.065268,-0.415694,0.090922,0.290569,481.932861,2.238007,0.000000,41.659759,44.965694,6999.651651,0.300250,0.613194,-1.000000,-1.000000
9.200000,6.214766,0.127683,0.068850,-0.485934,-0.314878,0.374533,481.908356,2.213531,0.000000,41.659758,44.965695,6999.651651,-0.755924,0.431155,-0.738321,1.000000
9.300000,6.221967,0.124506,0.070391,-0.499633,-0.183193,0.434654,481.874298,2.179474,0.000000,41.659758,44.965695,6999.631421,0.243750,0.758029,-1.000000,-0.906392
9.400000,6.232037,0.117298,0.070053,-0.518610,-0.140563,0.522721,481.852600,2.157776,0.000000,41.659757,44.965695,6999.631421,-0.298412,-0.598052,0.341219,-0.793093
9.500000,6.238025,0.107505,0.068687,-0.522011,0.109025,0.608706,481.833466,2.138641,0.000000,41.659757,44.965696,6999.608952,-1.000000,-0.166721,0.847967,1.000000
9.600000,6.246770,0.094800,0.065026,-0.477015,0.958324,0.620595,481.871185,2.176361,0.000000,41.659756,44.965697,6999.608952,-1.000000,-1.000000,-0.817914,-0.106282
9.700000,6.263640,0.077335,0.059766,-0.446927,1.572155,0.673663,482.003052,2.308228,0.000000,41.659756,44.965698,6999.584203,0.822444,-1.000000,0.767287,-1.000000
9.800000,6.278362,0.058927,0.054581,-0.473177,1.255114,0.809679,482.144745,2.449921,0.000000,41.659755,44.965698,6999.584203,-0.375681,-1.000000,-0.052582,0.154728
9.900000,0.006759,0.042158,0.050253,-0.485037,0.807977,0.897577,482.234344,2.539520,0.000000,41.659755,44.965699,6999.558750,0.256570,-1.000000,-0.043194,0.230610
10.000000,0.025329,0.024386,0.044738,-0.465547,0.363577,0.959577,482.289764,2.594940,0.000000,41.659754,44.965700,6999.558750,0.218788,-1.000000,0.684660,0.120840
10.100000,0.051109,0.007001,0.038366,-0.407045,0.057915,1.009953,482.301270,2.606445,0.000000,41.659753,44.965702,6999.533006,-0.566529,0.943823,-0.619721,0.259090
10.200000,0.081871,-0.009263,0.032204,-0.315773,-0.033312,1.038094,482.299957,2.605164,0.000000,41.659753,44.965703,6999.533006,0.393652,-0.297057,0.113446,0.975048
10.300000,0.120880,-0.025919,0.025045,-0.216812,-0.417091,1.085402,482.278625,2.583801,0.000000,41.659753,44.965704,6999.505273,1.000000,-0.287440,0.976487,-0.790899
10.400000,0.159943,-0.040705,0.018153,-0.112496,-1.048894,1.159375,482.199463,2.504639,0.000000,41.659752,44.965705,6999.505273,-0.177536,0.105127,-0.914488,-0.851127
10.500000,0.187144,-0.052599,0.016013,0.000593,-1.441823,1.272200,482.076843,2.382050,0.000000,41.659752,44.965706,6999.477374,0.877096,0.188265,-0.089451,-0.418890
10.600000,0.203450,-0.063372,0.020653,0.116130,-1.813217,1.371038,481.908936,2.214111,0.000000,41.659751,44.965708,6999.477374,0.099985,1.000000,1.000000,1.000000
10.700000,0.216333,-0.072381,0.028409,0.229905,-1.956704,1.424502,481.708099,2.013275,0.000000,41.659751,44.965709,6999.449931,0.212646,0.090734,-0.264924,-1.000000
10.800000,0.226328,-0.078522,0.037824,0.321324,-1.899350,1.422005,481.514648,1.819824,0.000000,41.659751,44.965711,6999.449931,0.530730,-0.796916,0.933286,-1.000000
10.900000,0.215129,-0.066745,0.050644,-0.357183,-0.433764,0.700479,481.369446,1.674622,0.000000,41.659750,44.965712,6999.423690,-0.243186,0.756813,0.905909,0.580368
11.000000,0.189539,-0.034550,0.041665,-0.743306,0.293569,0.220896,481.385345,1.690521,0.000000,41.659750,44.965712,6999.423690,0.116044,-0.026601,-0.933938,0.251964
11.100000,0.168495,-0.004673,0.028809,-0.642691,0.444007,0.191238,481.417358,1.722534,0.000000,41.659749,44.965712,6999.400806,-0.906589,-0.523215,-0.815597,1.000000
11.200000,0.153426,0.022610,0.016993,-0.553824,0.524248,0.169392,481.471741,1.776917,0.000000,41.659748,44.965712,6999.400806,1.000000,-0.718584,1.000000,-0.455325
11.300000,0.141976,0.046461,0.007440,-0.534529,0.140000,0.169946,481.504883,1.810089,0.000000,41.659748,44.965712,6999.380410,0.496783,1.000000,-0.013422,0.979411
11.400000,0.134099,0.066648,0.000105,-0.571387,-0.518640,0.160240,481.484985,1.790131,0.000000,41.659747,44.965712,6999.380410,1.000000,-0.888662,-1.000000,0.713227
11.500000,0.131989,0.086012,-0.006741,-0.625614,-1.036744,0.136449,481.395111,1.700287,0.000000,41.659747,44.965712,6999.361466,-1.000000,-1.000000,-0.246926,-1.000000
11.600000,0.132051,0.102810,-0.003077,-0.328574,-0.623186,0.157341,481.294769,1.599945,0.000000,41.659746,44.965712,6999.361466,1.000000,0.336927,-1.000000,0.875596
11.700000,0.132743,0.115286,0.006595,-0.094729,0.212997,0.128569,481.276672,1.581848,0.000000,41.659746,44.965712,6999.344303,-0.454340,0.316956,0.102861,0.125516
11.800000,0.134431,0.121310,0.008743,-0.030054,0.356171,-0.015480,481.308868,1.614044,0.000000,41.659746,44.965712,6999.344303,-0.211496,-0.500320,-1.000000,-0.555129
11.900000,0.131366,0.124033,0.012266,0.012821,0.253550,0.090963,481.342834,1.647980,0.000000,41.659746,44.965712,6999.327141,0.446346,-0.671540,-1.000000,-0.997528
12.000000,0.116788,0.124138,0.022436,-0.054536,0.063417,0.167772,481.354767,1.659912,0.000000,41.659746,44.965713,6999.327141,-0.551220,0.844648,-0.635996,-0.121846
12.100000,0.095016,0.118982,0.033533,-0.125228,-0.055681,0.146809,481.356262,1.661438,0.000000,41.659746,44.965713,6999.309398,1.000000,1.000000,-0.466869,-0.168274
12.200000,0.072212,0.108675,0.039748,-0.144230,-0.240799,0.000726,481.340454,1.645630,0.000000,41.659746,44.965713,6999.309398,0.306998,-0.740732,1.000000,-1.000000
12.300000,0.043989,0.094986,0.037529,-0.142287,-0.283129,-0.232238,481.311432,1.616608,0.000000,41.659746,44.965713,6999.291614,0.606507,1.000000,0.703854,-0.272189
12.400000,0.007922,0.075249,0.023803,-0.046814,-0.198231,-0.453601,481.288269,1.593445,0.000000,41.659746,44.965712,6999.291614,0.951488,1.000000,-1.000000,1.000000
12.500000,6.263327,0.053818,0.000913,0.122057,-0.105542,-0.462113,481.272949,1.578125,0.000000,41.659746,44.965712,6999.272918,-1.000000,0.489913,-0.821253,-0.216692
12.600000,6.252846,0.038057,-0.009967,0.293242,0.422029,-0.172740,481.286469,1.591644,0.000000,41.659746,44.965711,6999.272918,-0.355081,1.000000,-1.000000,-0.493549
12.700000,6.244971,0.023316,-0.018196,0.364095,0.938221,-0.139373,481.356659,1.661865,0.000000,41.659746,44.965711,6999.252190,-1.000000,0.206948,-1.000000,-0.085607
12.800000,6.234681,0.006241,-0.020533,0.436975,1.204746,-0.148835,481.472626,1.777802,0.000000,41.659747,44.965711,6999.252190,0.507232,-1.000000,-0.602126,0.580900
12.900000,6.229100,-0.010620,-0.020302,0.482204,1.003304,-0.172476,481.580933,1.886078,0.000000,41.659747,44.965711,6999.231338,0.200567,-1.000000,1.000000,-0.382131
13.000000,6.227109,-0.028145,-0.017743,0.527978,0.518696,-0.161300,481.654327,1.959503,0.000000,41.659748,44.965711,6999.231338,-0.291515,-0.280405,1.000000,-0.430999
13.100000,6.223809,-0.045073,-0.009978,0.603801,0.288728,-0.134382,481.691711,1.996857,0.000000,41.659748,44.965710,6999.210486,0.121780,-0.710466,0.624592,-0.048940
13.200000,6.220950,-0.060184,0.001103,0.683433,-0.008977,-0.119163,481.704651,2.009827,0.000000,41.659749,44.965710,6999.210486,0.642630,0.149145,-1.000000,0.593075
13.300000,6.223955,-0.074825,0.012983,0.768221,-0.692595,-0.101793,481.666595,1.971771,0.000000,41.659749,44.965710,6999.188225,1.000000,0.256134,0.422569,0.022454
13.400000,6.232753,-0.087775,0.023518,0.865620,-1.560063,-0.043499,481.546021,1.851196,0.000000,41.659750,44.965710,6999.188225,1.000000,-0.056133,0.998574,-0.938001
13.500000,6.236573,-0.093044,0.020228,0.027445,-0.999533,-0.099658,481.405182,1.710358,0.000000,41.659750,44.965710,6999.164596,-1.000000,1.000000,-1.000000,-1.000000
13.600000,6.230530,-0.071246,0.010863,-0.552889,0.373096,-0.153042,481.391174,1.696381,0.000000,41.659750,44.965710,6999.164596,0.441220,-1.000000,0.641423,1.000000
13.700000,6.223452,-0.040522,0.001833,-0.445167,0.199399,-0.141858,481.426697,1.731873,0.000000,41.659750,44.965710,6999.139432,-0.401352,-0.210540,0.552940,1.000000
13.800000,6.223237,-0.013667,-0.002959,-0.382192,-0.061763,-0.169505,481.434143,1.739319,0.000000,41.659749,44.965710,6999.139432,0.516427,-0.958648,1.000000,0.127654
13.900000,6.230005,0.012828,-0.005332,-0.360480,-0.501719,-0.184521,481.408936,1.714111,0.000000,41.659749,44.965709,6999.113896,1.000000,1.000000,0.775136,0.759807
14.000000,6.241168,0.037555,-0.005164,-0.385025,-1.077625,-0.173972,481.322510,1.627686,0.000000,41.659749,44.965709,6999.113896,-0.866143,1.000000,-0.709327,-0.490709
14.100000,6.248398,0.058753,-0.003725,-0.335945,0.063448,0.049373,481.251160,1.556366,0.000000,41.659748,44.965709,6999.091054,0.505086,-0.364909,-1.000000,0.543312
14.200000,6.250478,0.077618,0.000370,-0.231513,0.441601,0.062867,481.292206,1.597351,0.000000,41.659748,44.965709,6999.091054,0.338616,-0.814676,1.000000,1.000000
14.300000,6.256097,0.093813,0.001041,-0.248438,-0.085933,0.021565,481.306763,1.611938,0.000000,41.659748,44.965709,6999.069871,1.000000,-0.824106,-1.000000,0.888362
14.400000,6.263431,0.105183,-0.000583,-0.205066,-0.240433,-0.016602,481.285675,1.590851,0.000000,41.659748,44.965709,6999.069871,0.894595,1.000000,-0.362688,-0.328416
14.500000,6.264402,0.111557,-0.000253,-0.024736,0.146931,0.011714,481.275970,1.581146,0.000000,41.659748,44.965709,6999.049682,-0.781286,-1.000000,-0.490504,-0.037339
14.600000,6.259285,0.111037,0.001056,0.049708,0.275294,0.006229,481.303314,1.608459,0.000000,41.659748,44.965709,6999.049682,0.851053,1.000000,1.000000,0.993248
14.700000,6.255552,0.107903,0.000558,0.053525,-0.062534,-0.006494,481.315857,1.621033,0.000000,41.659748,44.965709,6999.031525,0.751243,-0.745497,-0.428002,-1.000000
14.800000,6.250735,0.102235,0.000934,0.087672,-0.250473,0.023034,481.292969,1.598145,0.000000,41.659748,44.965709,6999.031525,-1.000000,0.866694,1.000000,-1.000000
14.900000,6.239798,0.091009,0.004510,0.143463,0.165876,0.061816,481.291809,1.597015,0.000000,41.659748,44.965709,6999.014363,0.822815,-0.039553,1.000000,-0.485329
15.000000,6.219267,0.075401,0.008634,0.101710,0.180558,0.095373,481.311096,1.616272,0.000000,41.659748,44.965709,6999.014363,-1.000000,0.631573,-0.168867,-0.536843
15.100000,6.188105,0.056736,0.018209,0.120367,0.502222,0.155713,481.338470,1.643646,0.000000,41.659748,44.965709,6998.997822,-1.000000,0.295028,0.288187,-0.861746
15.200000,6.146416,0.035422,0.034009,0.180153,1.195283,0.227824,481.430878,1.736053,0.000000,41.659748,44.965710,6998.997822,-0.264796,1.000000,-0.890747,-0.976504
15.300000,6.096383,0.014404,0.052356,0.211109,1.480616,0.305664,481.561920,1.867096,0.000000,41.659748,44.965710,6998.982235,0.366907,-1.000000,-0.686596,0.666655
15.400000,6.042217,-0.007657,0.071485,0.224426,1.336148,0.345475,481.702087,2.007263,0.000000,41.659748,44.965710,6998.982235,-1.000000,0.410389,1.000000,0.976494
15.500000,5.999621,-0.029824,0.085988,0.275552,1.315860,0.347302,481.832245,2.137390,0.000000,41.659749,44.965711,6998.966689,0.116406,0.336729,0.443379,1.000000
15.600000,5.974165,-0.051445,0.093820,0.355652,1.324008,0.369528,481.955444,2.260590,0.000000,41.659749,44.965711,6998.966689,-0.774346,-1.000000,-1.000000,-1.000000
15.700000,5.955301,-0.074459,0.098284,0.446100,1.001642,0.476972,482.071442,2.376617,0.000000,41.659750,44.965712,6998.948905,1.000000,0.762035,-0.448865,-0.163447
15.800000,5.934629,-0.095490,0.102262,0.535874,0.407617,0.632126,482.134399,2.439575,0.000000,41.659750,44.965713,6998.948905,1.000000,0.428519,0.584168,-0.130805
15.900000,5.916610,-0.113011,0.104288,0.629480,-0.356013,0.757261,482.123169,2.428345,0.000000,41.659751,44.965713,6998.928965,-0.737477,-1.000000,0.324385,0.847347
16.000000,5.904844,-0.129546,0.101684,0.766064,-0.758385,0.829136,482.045502,2.350677,0.000000,41.659751,44.965714,6998.928965,0.714400,-0.048046,-0.541432,0.114148
16.100000,5.902428,-0.143797,0.093166,0.929625,-0.712537,0.884104,481.948547,2.253723,0.000000,41.659752,44.965715,6998.906538,-1.000000,0.997580,-0.332300,-1.000000
16.200000,5.900047,-0.154092,0.085050,1.093793,-0.345028,0.987660,481.870697,2.175873,0.000000,41.659753,44.965715,6998.906538,-1.000000,0.142516,1.000000,-1.000000
16.300000,5.888678,-0.161342,0.082284,1.312364,0.908547,1.077986,481.866943,2.172119,0.000000,41.659755,44.965716,6998.881458,-0.976453,-1.000000,1.000000,1.000000
16.400000,5.880631,-0.169228,0.085016,1.592529,1.750143,1.127852,481.975647,2.280823,0.000000,41.659756,44.965717,6998.881458,-0.415750,-0.114676,1.000000,-0.837710
16.500000,5.880164,-0.178318,0.091855,1.835351,2.169903,1.200077,482.122467,2.427643,0.000000,41.659758,44.965718,6998.856087,-1.000000,-0.824664,0.903790,-0.305750
16.600000,5.878873,-0.188307,0.106485,2.078865,2.390501,1.312375,482.307068,2.612244,0.000000,41.659761,44.965719,6998.856087,0.923616,-0.102772,-1.000000,-1.000000
16.700000,5.873658,-0.197244,0.126669,2.283220,1.979513,1.475936,482.468872,2.774078,0.000000,41.659763,44.965720,6998.829307,-0.061414,1.000000,0.459503,-1.000000
16.800000,5.861062,-0.203171,0.149781,2.462441,1.437157,1.694056,482.559601,2.864777,0.000000,41.659766,44.965721,6998.829307,-0.374188,-0.630308,0.230530,-0.786537
16.900000,5.842206,-0.207203,0.175607,2.677623,1.436540,1.900552,482.613495,2.918640,0.000000,41.659769,44.965723,6998.800537,-0.464530,-0.794638,-1.000000,0.894271
17.000000,5.830665,-0.211556,0.195786,2.915400,1.543330,2.039104,482.665894,2.971069,0.000000,41.659772,44.965724,6998.800537,-0.095588,-1.000000,-1.000000,0.044573
17.100000,5.832805,-0.217211,0.206658,3.168913,1.564402,2.145032,482.706909,3.012085,0.000000,41.659775,44.965726,7000.305770,-0.525618,-0.391807,0.078258,0.684195
17.200000,5.848516,-0.224900,0.208877,3.470044,1.525892,2.220599,482.739655,3.044830,0.000000,41.659779,44.965727,7000.305770,0.143425,-0.616807,0.810644,0.996923
17.300000,5.881653,-0.234289,0.198718,3.806222,1.476158,2.211645,482.755157,3.060333,0.000000,41.659783,44.965729,7000.275922,-0.713922,1.000000,0.750881,1.000000
17.400000,5.929054,-0.243581,0.176904,4.171745,1.632289,2.121094,482.764801,3.069977,0.000000,41.659787,44.965730,7000.275922,-0.804968,0.229256,0.811942,1.000000
17.500000,5.992134,-0.252667,0.144750,4.625836,2.103518,1.978759,482.807190,3.112396,0.000000,41.659791,44.965732,7000.244416,-0.510047,-0.492905,0.768373,-0.848601
17.600000,6.056948,-0.259761,0.113180,5.104486,2.521841,1.823955,482.882141,3.187317,0.000000,41.659796,44.965734,7000.244416,-1.000000,0.641011,-0.034961,0.907738
17.700000,6.117530,-0.265193,0.086104,5.533552,2.615386,1.635589,482.976440,3.281616,0.000000,41.659801,44.965736,7000.213283,0.654267,0.686975,1.000000,-0.671846
17.800000,6.181275,-0.268645,0.058839,5.931353,2.165882,1.421183,483.049133,3.354340,0.000000,41.659807,44.965738,7000.213283,1.000000,-1.000000,-0.997188,0.031440
17.900000,6.237435,-0.268481,0.036469,6.280308,1.421564,1.230461,483.052521,3.357666,0.000000,41.659812,44.965740,7000.181778,-1.000000,-0.395640,-1.000000,-0.509316
18.000000,6.282913,-0.265240,0.020895,6.591390,1.151776,1.043553,483.000183,3.305359,0.000000,41.659818,44.965742,7000.181778,0.492611,-0.125939,-0.727475,-0.270160
18.100000,0.039269,-0.258854,0.012764,6.910245,1.171084,0.856028,482.934387,3.239563,0.000000,41.659824,44.965745,7000.149816,-1.000000,0.593317,-0.970773,-0.311451
18.200000,0.070393,-0.250343,0.013130,7.213573,1.190328,0.713658,482.868561,3.173737,0.000000,41.659830,44.965747,7000.149816,0.504618,-0.135828,-0.870493,-0.771004
18.300000,0.088262,-0.240893,0.021851,7.478993,1.106181,0.667525,482.805939,3.111115,0.000000,41.659836,44.965750,7000.119678,0.664733,-0.190793,-0.253801,-0.675948
18.400000,0.092325,-0.229661,0.037808,7.722836,0.490818,0.752616,482.703827,3.009003,0.000000,41.659843,44.965753,7000.119678,0.247878,1.000000,-0.675661,-0.432432
18.500000,0.082193,-0.217241,0.056849,7.929488,-0.276009,0.980829,482.533722,2.838898,0.000000,41.659849,44.965756,7000.091654,1.000000,0.718932,0.067682,-1.000000
18.600000,0.058194,-0.204074,0.077110,8.074618,-0.863635,1.335699,482.308716,2.613922,0.000000,41.659856,44.965759,7000.091654,-0.231369,-0.477703,-0.878593,-0.593768
18.700000,0.019905,-0.187424,0.098585,8.161145,-1.263220,1.791761,482.026489,2.331665,0.000000,41.659862,44.965763,7000.065745,1.000000,-1.000000,-0.329054,-0.118198
18.800000,6.260150,-0.167983,0.112034,7.922450,-1.509339,2.225210,481.713196,2.018372,0.000000,41.659869,44.965766,7000.065745,1.000000,0.853200,0.895539,-0.925267
18.900000,6.220437,-0.145316,0.078139,6.366738,-0.725940,2.076072,481.453796,1.758972,0.000000,41.659875,44.965769,7000.043152,-1.000000,0.243024,-0.491877,1.000000
19.000000,6.185127,-0.111613,0.029486,4.327710,0.996287,1.569233,481.414581,1.719757,0.000000,41.659879,44.965772,7000.043152,-0.800788,0.375074,-1.000000,-0.131492
19.100000,6.158470,-0.076513,-0.001096,4.277201,0.558652,1.651040,481.458679,1.763855,0.000000,41.659883,44.965774,7000.022673,1.000000,0.938031,1.000000,1.000000
19.200000,6.139819,-0.047460,-0.017735,4.327534,0.102407,1.713582,481.465118,1.770294,0.000000,41.659887,44.965776,7000.022673,-1.000000,-1.000000,-0.615018,-1.000000
19.300000,6.121963,-0.020703,-0.025330,4.377549,-0.117558,1.784541,481.448090,1.753265,0.000000,41.659891,44.965778,7000.003438,-0.750819,-0.275741,1.000000,0.458222
19.400000,6.102118,0.001148,-0.020489,4.441659,0.207967,1.863815,481.454956,1.760132,0.000000,41.659895,44.965780,7000.003438,0.010726,0.127284,-1.000000,-1.000000
19.500000,6.079943,0.016828,-0.006644,4.493049,0.462782,1.973197,481.493195,1.798370,0.000000,41.659899,44.965782,6999.986234,-1.000000,0.449099,0.104337,-0.098946
19.600000,6.050211,0.027933,0.013340,4.545775,0.943514,2.107084,481.568848,1.874054,0.000000,41.659903,44.965784,6999.986234,-1.000000,-1.000000,-0.697044,-0.680113
19.700000,6.019409,0.032752,0.033534,4.583402,1.501487,2.208121,481.712921,2.018097,0.000000,41.659907,44.965786,6999.969694,1.000000,-0.013606,0.825186,0.758252
19.800000,5.994865,0.033367,0.048281,4.544397,1.203713,2.310459,481.852936,2.158112,0.000000,41.659911,44.965788,6999.969694,1.000000,0.171741,1.000000,0.522075
19.900000,5.979395,0.031231,0.057612,4.496971,0.558356,2.376007,481.944641,2.249817,0.000000,41.659916,44.965790,6999.952531,-0.260245,1.000000,-1.000000,1.000000
20.000000,5.977611,0.026401,0.060477,4.495258,0.050741,2.388869,481.970337,2.275513,0.000000,41.659920,44.965792,6999.952531,0.043913,0.423374,0.090133,0.661214
20.100000,5.988404,0.019320,0.057643,4.533530,-0.334004,2.343200,481.956146,2.261322,0.000000,41.659924,44.965794,6999.933628,1.000000,-0.686911,0.892154,1.000000
20.200000,6.012790,0.010153,0.048410,4.592914,-1.059113,2.232482,481.881622,2.186798,0.000000,41.659928,44.965796,6999.933628,1.000000,1.000000,0.051790,1.000000
20.300000,6.049477,0.000349,0.033433,4.679761,-1.999070,2.061150,481.718475,2.023651,0.000000,41.659933,44.965797,6999.912237,1.000000,0.636874,-0.589673,0.355875
20.400000,6.090316,-0.008848,0.016673,4.784587,-2.857450,1.858445,481.477661,1.782837,0.000000,41.659937,44.965799,6999.912237,1.000000,0.826216,-0.284157,0.373368
20.500000,6.132891,-0.017172,0.014907,3.186665,-0.955004,1.067071,481.205780,1.510956,0.000000,41.659941,44.965801,6999.887944,0.595615,0.501375,0.284242,-0.597891
20.600000,6.163643,-0.019368,0.029189,1.259593,1.277588,0.277125,481.271698,1.576874,0.000000,41.659943,44.965802,6999.887944,-0.766461,0.887747,0.264630,0.954210
20.700000,6.191712,-0.014472,0.023943,1.241015,0.946797,0.207282,481.376526,1.681702,0.000000,41.659944,44.965802,6999.862781,-0.647918,-0.042988,-0.784359,1.000000
20.800000,6.230530,-0.011428,0.017710,1.367933,1.179719,0.124717,481.476135,1.781311,0.000000,41.659945,44.965802,6999.862781,-1.000000,-1.000000,0.433423,0.887411
20.900000,6.277928,-0.011728,0.010770,1.491818,1.472832,0.037817,481.615570,1.920746,0.000000,41.659946,44.965803,6999.838033,0.037654,-1.000000,-1.000000,0.404787
21.000000,0.042921,-0.014073,0.003601,1.575663,1.386383,-0.012425,481.755188,2.060364,0.000000,41.659947,44.965803,6999.838033,0.305506,1.000000,-1.000000,-0.799929
21.100000,0.089595,-0.017595,-0.002965,1.623215,0.786997,-0.028465,481.865387,2.170563,0.000000,41.659949,44.965803,6999.813242,0.795510,1.000000,0.460984,0.786178
21.200000,0.132815,-0.021335,-0.009149,1.665269,0.139419,-0.059395,481.905457,2.210602,0.000000,41.659950,44.965804,6999.813242,-1.000000,0.986199,-1.000000,-0.776856
21.300000,0.169422,-0.025264,-0.012809,1.726182,-0.154455,-0.058601,481.899536,2.204712,0.000000,41.659952,44.965804,6999.789116,1.000000,1.000000,-0.088559,-0.943363
21.400000,0.193054,-0.030132,-0.008764,1.792637,-0.488700,0.025133,481.863770,2.168915,0.000000,41.659953,44.965805,6999.789116,-0.382625,0.350445,0.674800,-1.000000
21.500000,0.197305,-0.035429,0.004169,1.858081,-0.878681,0.160368,481.786682,2.091858,0.000000,41.659955,44.965806,6999.764408,0.917592,0.351926,-0.302247,-1.000000
21.600000,0.184668,-0.040444,0.022016,1.922893,-1.130987,0.310132,481.681610,1.986786,0.000000,41.659956,44.965807,6999.764408,-0.521575,0.243764,1.000000,1.000000
21.700000,0.165523,-0.045658,0.040868,2.004773,-0.985682,0.392366,481.556580,1.861755,0.000000,41.659958,44.965808,6999.738458,0.064040,0.658115,-1.000000,0.077149
21.800000,0.152235,-0.050772,0.051435,1.971805,-0.154754,0.395018,481.477783,1.782959,0.000000,41.659959,44.965809,6999.738458,-1.000000,-0.277925,0.714473,0.371430
21.900000,0.143912,-0.054774,0.043714,2.096337,0.791962,0.411347,481.492401,1.797577,0.000000,41.659961,44.965810,6999.714289,-0.937056,1.000000,-0.432479,-0.257661
22.000000,0.136168,-0.062547,0.037367,2.315292,1.918797,0.457720,481.617218,1.922394,0.000000,41.659963,44.965811,6999.714289,-1.000000,-0.509594,1.000000,-0.638200
22.100000,0.124343,-0.074141,0.036138,2.502058,2.790012,0.537010,481.844910,2.150085,0.000000,41.659965,44.965813,6999.691696,0.393830,0.567171,-0.436677,0.207467
22.200000,0.112648,-0.086797,0.037563,2.603011,2.706768,0.605130,482.091522,2.396698,0.000000,41.659967,44.965814,6999.691696,-0.103200,-0.368968,0.781353,0.460105
22.300000,0.105221,-0.100142,0.038090,2.683581,2.060128,0.683857,482.307648,2.612823,0.000000,41.659969,44.965816,6999.670098,1.000000,-1.000000,0.335608,-1.000000
22.400000,0.097250,-0.112197,0.039946,2.772919,1.230909,0.814790,482.443390,2.748566,0.000000,41.659972,44.965818,6999.670098,1.000000,-0.648175,0.356857,-0.356771
22.500000,0.084939,-0.121825,0.044963,2.868828,0.419416,0.944072,482.484039,2.789215,0.000000,41.659974,44.965820,6999.649329,0.097260,0.694345,-0.212850,1.000000
22.600000,0.076614,-0.130831,0.049891,2.999263,-0.182561,1.010118,482.449524,2.754700,0.000000,41.659976,44.965822,6999.649329,-1.000000,0.608685,1.000000,-0.399312
22.700000,0.075714,-0.138643,0.054064,3.150249,-0.398816,1.077383,482.370728,2.675903,0.000000,41.659979,44.965823,6999.626529,0.970993,-0.539222,0.224489,-0.824736
22.800000,0.072810,-0.144057,0.061859,3.290251,-0.622219,1.204281,482.274109,2.579285,0.000000,41.659981,44.965826,6999.626529,-0.535590,-0.199749,0.563235,-0.328539
22.900000,0.066342,-0.147427,0.073684,3.432704,-0.602588,1.310516,482.145630,2.450806,0.000000,41.659984,44.965828,6999.601158,-0.497644,-0.023004,-0.372291,0.513686
23.000000,0.066157,-0.148483,0.083189,3.593741,-0.168645,1.340381,482.051239,2.356415,0.000000,41.659987,44.965830,6999.601158,1.000000,1.000000,1.000000,0.060408
23.100000,0.073454,-0.148104,0.089404,3.747558,-0.479692,1.400925,481.959137,2.264313,0.000000,41.659990,44.965833,6999.575871,-0.366195,-0.812320,-0.997395,-0.390496
23.200000,0.083967,-0.145907,0.095201,3.904371,-0.747429,1.468379,481.823242,2.128418,0.000000,41.659992,44.965835,6999.575871,0.428790,-0.412533,-0.427908,0.209094
23.300000,0.098506,-0.141300,0.096278,3.837431,-0.247841,1.362130,481.689789,1.994965,0.000000,41.659995,44.965838,6999.549298,-1.000000,1.000000,-0.702250,0.242591
23.400000,0.119431,-0.135015,0.079239,3.460680,0.733305,1.051478,481.656769,1.961945,0.000000,41.659998,44.965840,6999.549298,-0.424486,-0.145201,0.689763,-0.286874
23.500000,0.143223,-0.128853,0.060339,3.711229,1.366868,1.063412,481.710663,2.015839,0.000000,41.660001,44.965843,6999.520611,-1.000000,0.784262,0.462644,-0.261936
23.600000,0.164666,-0.124686,0.051894,3.968553,1.619333,1.069547,481.813202,2.118378,0.000000,41.660004,44.965845,6999.520611,0.623128,1.000000,-0.459169,0.587961
23.700000,0.186284,-0.121902,0.048079,4.155410,1.178705,1.065700,481.896912,2.202087,0.000000,41.660008,44.965848,6999.492754,0.520249,0.432384,-0.273112,-1.000000
23.800000,0.207614,-0.118899,0.047157,4.316958,0.433986,1.067387,481.920624,2.225800,0.000000,41.660011,44.965851,6999.492754,0.453031,1.000000,0.921942,1.000000
23.900000,0.230768,-0.115690,0.046858,4.472978,-0.068384,1.014571,481.877563,2.182739,0.000000,41.660014,44.965854,6999.466595,-0.269454,-0.733494,-0.393840,0.275700
24.000000,0.258441,-0.112389,0.044922,4.623413,-0.159857,0.912535,481.807678,2.112885,0.000000,41.660018,44.965857,6999.466595,-0.232944,-0.268025,-0.653186,-0.523328
24.100000,0.289124,-0.108174,0.043562,4.788061,0.048275,0.809335,481.745941,2.051117,0.000000,41.660021,44.965860,6999.441018,-0.235101,-1.000000,1.000000,0.797150
24.200000,0.320387,-0.103440,0.042917,4.943685,-0.025764,0.688765,481.697906,2.003082,0.000000,41.660025,44.965864,6999.441018,1.000000,-0.346580,1.000000,0.555452
24.300000,0.353997,-0.098680,0.039751,5.065578,-0.487860,0.536061,481.622375,1.927551,0.000000,41.660028,44.965867,6999.416559,-0.281062,1.000000,0.205746,1.000000
24.400000,0.395298,-0.092397,0.026916,4.853636,-0.484463,0.234037,481.510010,1.815186,0.000000,41.660032,44.965870,6999.416559,-0.306130,-0.984582,1.000000,0.448692
24.500000,0.439125,-0.083231,0.009518,4.301742,-0.026546,-0.082478,481.445862,1.751007,0.000000,41.660035,44.965873,6999.393262,0.461380,1.000000,0.129251,-0.587369
24.600000,0.470255,-0.074251,0.021764,3.716546,0.325227,-0.168804,481.433472,1.738647,0.000000,41.660038,44.965876,6999.393262,-0.447378,1.000000,0.036645,-0.090919
24.700000,0.492776,-0.064641,0.027564,3.604207,0.334870,-0.192119,481.440857,1.746033,0.000000,41.660041,44.965878,6999.370917,-0.422909,-0.657926,0.852663,0.347836
24.800000,0.511781,-0.056187,0.028653,3.677631,0.428720,-0.241819,481.461334,1.766510,0.000000,41.660044,44.965880,6999.370917,0.348696,0.030211,0.747873,0.336118
24.900000,0.528855,-0.049358,0.024372,3.708415,0.027019,-0.252051,481.468414,1.773590,0.000000,41.660047,44.965883,6999.350770,0.672614,1.000000,0.366386,-0.780243
25.000000,0.541550,-0.041875,0.013443,3.598478,-0.555823,-0.248615,481.424438,1.729614,0.000000,41.660049,44.965885,6999.350770,1.000000,-1.000000,0.093649,1.000000
25.100000,0.554005,-0.032875,-0.006860,3.011683,-0.652727,-0.333559,481.346283,1.651459,0.000000,41.660052,44.965887,6999.331991,0.217431,-1.000000,-0.501712,-0.440785
25.200000,0.569645,-0.024319,-0.005018,1.775362,0.158661,-0.270093,481.310364,1.615540,0.000000,41.660053,44.965889,6999.331991,-1.000000,-0.140651,-0.381726,-0.003898
25.300000,0.581343,-0.017584,0.001838,1.517372,0.372463,-0.225138,481.336884,1.642059,0.000000,41.660055,44.965890,6999.313751,0.264119,0.916537,0.550117,-0.160291
25.400000,0.589767,-0.013308,0.009114,1.594523,0.319949,-0.231408,481.376068,1.681244,0.000000,41.660056,44.965891,6999.313751,1.000000,0.519330,-0.057514,1.000000
25.500000,0.600514,-0.011042,0.014026,1.624211,-0.192150,-0.261764,481.381042,1.686218,0.000000,41.660057,44.965892,6999.296381,-0.165257,-1.000000,-1.000000,1.000000
25.600000,0.620539,-0.009258,0.006872,1.469854,-0.540688,-0.348204,481.339142,1.644287,0.000000,41.660058,44.965893,6999.296381,1.000000,-0.517344,-1.000000,1.000000
25.700000,0.646635,-0.007229,-0.002004,0.619989,-0.266243,-0.406057,481.288208,1.593384,0.000000,41.660059,44.965894,6999.279592,1.000000,0.056646,1.000000,-0.285267
25.800000,0.661835,-0.005350,-0.009696,-0.117027,0.155194,-0.114301,481.288330,1.593506,0.000000,41.660059,44.965894,6999.279592,-0.371892,0.385402,-0.835787,0.116395
25.900000,0.669290,0.003667,-0.005844,-0.221278,0.009624,0.004272,481.298065,1.603241,0.000000,41.660059,44.965893,6999.262222,0.651261,1.000000,0.453078,1.000000
26.000000,0.676709,0.014888,-0.001783,-0.164332,-0.187576,-0.019446,481.288300,1.593475,0.000000,41.660059,44.965893,6999.262222,-0.028408,0.064938,1.000000,1.000000
26.100000,0.683282,0.025780,-0.004423,-0.156093,-0.015555,-0.074618,481.273285,1.578461,0.000000,41.660059,44.965893,6999.244521,-0.454167,-0.497878,0.376826,1.000000
26.200000,0.694027,0.034216,-0.005173,-0.154334,0.357375,-0.127534,481.286407,1.591583,0.000000,41.660059,44.965893,6999.244521,-0.640333,-0.548146,1.000000,0.709012
26.300000,0.712783,0.039489,0.001601,-0.096532,0.599779,-0.175376,481.339447,1.644623,0.000000,41.660059,44.965893,6999.226571,1.000000,1.000000,0.965187,0.099574
26.400000,0.734663,0.041867,0.007746,-0.087253,0.300635,-0.163946,481.383606,1.688782,0.000000,41.660059,44.965892,6999.226571,-1.000000,0.466786,-0.627857,-1.000000
26.500000,0.752302,0.042514,0.016016,-0.079742,-0.014379,-0.071008,481.397003,1.702179,0.000000,41.660059,44.965892,6999.208206,1.000000,-0.224145,-1.000000,-0.487413
26.600000,0.756529,0.041434,0.027762,-0.075639,-0.387843,0.028679,481.379120,1.684296,0.000000,41.660059,44.965892,6999.208206,1.000000,-1.000000,-0.056228,0.389578
26.700000,0.756885,0.039318,0.035012,-0.018948,-0.762479,0.041917,481.316956,1.622131,0.000000,41.660059,44.965892,6999.190090,-0.061819,-0.381750,0.071027,-0.445572
26.800000,0.754178,0.039829,0.019835,-0.018658,-0.319368,-0.335690,481.256042,1.561218,0.000000,41.660059,44.965892,6999.190090,-0.657463,0.229287,-1.000000,-0.793635
26.900000,0.747369,0.042534,0.004466,0.000092,0.517839,-0.124645,481.274536,1.579712,0.000000,41.660059,44.965892,6999.170731,-0.787688,0.495361,0.156813,-1.000000
27.000000,0.731239,0.044072,0.000186,0.093519,1.015699,-0.058198,481.348846,1.654022,0.000000,41.660060,44.965892,6999.170731,-0.555461,0.366306,-0.585680,0.378455
27.100000,0.713124,0.041154,0.001901,0.200741,1.636308,-0.071621,481.483002,1.788177,0.000000,41.660060,44.965892,6999.148594,-1.000000,0.150270,-1.000000,1.000000
27.200000,0.706336,0.033107,0.007359,0.278392,2.022215,-0.125013,481.678162,1.983337,0.000000,41.660060,44.965892,6999.148594,0.260476,0.248407,-1.000000,0.577680
27.300000,0.711744,0.022665,0.012421,0.295387,1.757131,-0.146746,481.864594,2.169769,0.000000,41.660060,44.965892,6999.126125,-0.180265,-0.201943,0.247302,0.328176
27.400000,0.726747,0.009952,0.016472,0.319872,1.384333,-0.143607,482.020905,2.326080,0.000000,41.660060,44.965892,6999.126125,-0.490185,1.000000,-0.776507,-0.231622
27.500000,0.747329,-0.004910,0.020227,0.376762,1.219328,-0.131420,482.156677,2.461853,0.000000,41.660061,44.965892,6999.103366,1.000000,-0.608614,-0.100446,0.852802
27.600000,0.770608,-0.019887,0.022800,0.407040,0.664594,-0.089565,482.247620,2.552795,0.000000,41.660061,44.965893,6999.103366,-0.410310,0.470298,0.955811,-1.000000
27.700000,0.797130,-0.035657,0.024658,0.456950,0.073741,-0.042238,482.283020,2.588196,0.000000,41.660061,44.965893,6999.078286,1.000000,-0.606913,-0.037472,1.000000
27.800000,0.825906,-0.050763,0.025783,0.529548,-0.436545,0.001306,482.261230,2.566406,0.000000,41.660061,44.965893,6999.078286,-0.438722,-0.697292,0.554313,-1.000000
27.900000,0.852775,-0.064031,0.027611,0.625100,-0.613002,0.071698,482.201752,2.506927,0.000000,41.660062,44.965894,6999.052335,-1.000000,1.000000,-0.308192,-0.657468
28.000000,0.871072,-0.077304,0.036837,0.788490,0.196122,0.157382,482.167023,2.472198,0.000000,41.660062,44.965895,6999.052335,-1.000000,-0.527873,0.380595,1.000000
28.100000,0.887525,-0.092543,0.050855,1.020282,1.315054,0.146740,482.244141,2.549316,0.000000,41.660062,44.965896,6999.025016,1.000000,-0.442422,0.406778,-0.801449
28.200000,0.907593,-0.109004,0.062837,1.175473,1.358195,0.157519,482.366089,2.671265,0.000000,41.660063,44.965897,6999.025016,0.397943,-0.369616,0.944006,1.000000
28.300000,0.934429,-0.126425,0.071244,1.311688,0.791397,0.172942,482.461426,2.766602,0.000000,41.660063,44.965899,6998.996413,0.965068,1.000000,0.524055,1.000000
28.400000,0.971981,-0.142705,0.071679,1.462112,0.121960,0.165670,482.483673,2.788849,0.000000,41.660063,44.965900,6998.996413,-1.000000,1.000000,0.162954,0.309453
28.500000,1.014857,-0.156457,0.065460,1.643651,-0.018836,0.140799,482.460419,2.765594,0.000000,41.660064,44.965902,6998.970130,0.500879,-0.112824,-0.850990,0.698491
28.600000,1.065663,-0.169344,0.053611,1.850964,-0.082567,0.088749,482.430817,2.735992,0.000000,41.660064,44.965904,6998.970130,1.000000,-0.918968,-1.000000,0.296853
28.700000,1.119290,-0.179698,0.036261,2.042386,-0.680629,0.035578,482.360565,2.665741,0.000000,41.660065,44.965906,6998.944221,1.000000,-1.000000,-0.657009,-0.104238
28.800000,1.168446,-0.186563,0.016112,2.219866,-1.392149,-0.038952,482.222412,2.527588,0.000000,41.660065,44.965908,6998.944221,-1.000000,0.106219,-0.757557,1.000000
28.900000,1.218986,-0.190113,-0.007041,2.390623,-1.569461,-0.149186,482.023407,2.328583,0.000000,41.660066,44.965911,6998.916902,0.028382,-0.272115,1.000000,-0.312170
29.000000,1.264249,-0.188404,-0.024192,2.538909,-1.263996,-0.255495,481.840637,2.145813,0.000000,41.660066,44.965913,6998.916902,0.887835,-1.000000,1.000000,-0.908366
29.100000,1.296495,-0.183087,-0.028324,2.374725,-1.312248,-0.276240,481.666656,1.971832,0.000000,41.660067,44.965916,6998.891656,0.030934,1.000000,0.247541,0.200989
29.200000,1.318077,-0.176999,-0.015903,0.940111,-0.339789,-0.216499,481.556488,1.861664,0.000000,41.660067,44.965917,6998.891656,-0.491791,-0.248593,-0.054739,-0.378308
29.300000,1.335021,-0.172939,-0.003739,0.264259,0.301039,-0.083146,481.554352,1.859497,0.000000,41.660067,44.965918,6998.868607,0.725180,1.000000,-0.205260,-0.036277
29.400000,1.345657,-0.170040,0.002801,0.211101,0.044773,-0.050144,481.570068,1.875244,0.000000,41.660067,44.965918,6998.868607,1.000000,0.527106,0.152987,-0.537653
29.500000,1.349125,-0.167180,0.004933,-0.040144,-0.103567,0.003025,481.559113,1.864288,0.000000,41.660067,44.965918,6998.847257,-1.000000,-1.000000,0.961495,-0.456819
29.600000,1.344457,-0.162084,0.004654,-0.048892,0.159556,0.043885,481.561859,1.867035,0.000000,41.660067,44.965918,6998.847257,0.119158,-1.000000,-1.000000,-0.225258
29.700000,1.335349,-0.155537,0.006015,-0.177484,0.550945,0.157829,481.597260,1.902435,0.000000,41.660067,44.965918,6998.828561,1.000000,-0.457788,-1.000000,-0.598707
29.800000,1.322392,-0.146548,0.007173,-0.060591,0.072778,0.193394,481.631744,1.936920,0.000000,41.660067,44.965918,6998.828561,-0.432480,-0.095834,1.000000,1.000000
29.900000,1.310278,-0.137330,0.004123,0.046009,-0.284987,0.179297,481.617401,1.922577,0.000000,41.660067,44.965918,6998.811482,-1.000000,-0.774123,-1.000000,-0.109449
30.000000,1.302824,-0.128174,-0.000376,0.137358,0.067337,0.121896,481.601990,1.907166,0.000000,41.660067,44.965918,6998.811482,-0.123635,-0.857577,0.679043,0.298860
30.100000,1.296838,-0.119571,-0.001664,0.328518,0.209685,0.105356,481.621368,1.926544,0.000000,41.660067,44.965919,6998.794941,0.234194,0.368140,-1.000000,0.009031
30.200000,1.292546,-0.112046,-0.002730,0.472970,-0.226867,0.124739,481.618439,1.923615,0.000000,41.660067,44.965919,6998.794941,0.826876,0.095174,-0.021183,-1.000000
30.300000,1.282847,-0.105236,-0.000691,0.582929,-0.760426,0.202059,481.563324,1.868500,0.000000,41.660067,44.965920,6998.778732,-1.000000,-1.000000,-1.000000,-0.540485
30.400000,1.263512,-0.097141,0.002961,0.075169,-0.137183,0.319500,481.498840,1.804016,0.000000,41.660066,44.965920,6998.778732,0.234177,-1.000000,1.000000,1.000000
30.500000,1.248195,-0.087466,0.004601,0.052261,0.238792,0.265298,481.516022,1.821167,0.000000,41.660066,44.965920,6998.761653,-0.145036,0.363867,0.074902,-0.325079
30.600000,1.241122,-0.079693,0.004844,0.167431,-0.064861,0.261578,481.523895,1.829071,0.000000,41.660066,44.965920,6998.761653,0.246813,0.254849,0.261871,0.597650
30.700000,1.239653,-0.072533,0.005425,0.275763,-0.365401,0.264833,481.499329,1.804504,0.000000,41.660066,44.965921,6998.741671,-0.466764,-1.000000,-0.466342,1.000000
31.800000,1.314104,0.057311,-0.004187,-0.046240,0.051919,0.112434,481.286041,1.591217,0.000000,41.660066,44.965919,6998.620706,-0.807099,0.782784,1.000000,-0.290315
31.900000,1.314015,0.060601,0.001084,-0.014547,0.060063,0.066962,481.296021,1.601196,0.000000,41.660066,44.965919,6998.597698,1.000000,-0.879815,0.656747,-1.000000
32.000000,1.307163,0.061804,0.004156,-0.029390,-0.092127,0.049834,481.296021,1.601227,0.000000,41.660066,44.965919,6998.597698,1.000000,0.555748,0.629744,0.353411
32.100000,1.298779,0.061200,0.008549,-0.027045,-0.214672,0.066969,481.274475,1.579651,0.000000,41.660066,44.965919,6998.577219,-1.000000,1.000000,0.827492,-1.000000
32.200000,1.290607,0.057226,0.006685,0.039734,0.114987,-0.050443,481.272614,1.577789,0.000000,41.660066,44.965919,6998.577219,0.873072,0.545531,1.000000,0.518476
32.300000,1.282178,0.049792,0.004645,0.017749,0.049941,-0.060548,481.282257,1.587463,0.000000,41.660066,44.965919,6998.558274,-1.000000,-0.713664,-1.000000,-1.000000
32.400000,1.270393,0.040978,0.002455,0.053274,0.150970,0.001596,481.287628,1.592804,0.000000,41.660066,44.965919,6998.558274,-1.000000,0.079586,0.087436,-0.231213
32.500000,1.250303,0.029290,0.002974,0.104027,0.275645,0.019753,481.317780,1.622955,0.000000,41.660066,44.965919,6998.539827,1.000000,-0.274733,-0.943042,1.000000
32.600000,1.232676,0.015913,0.002790,0.131618,-0.066121,0.004807,481.329620,1.634796,0.000000,41.660066,44.965919,6998.539827,-0.769619,-0.184308,-0.864124,-0.367004
32.700000,1.220499,0.002952,0.000670,0.163327,-0.292971,0.038346,481.308777,1.613953,0.000000,41.660066,44.965920,6998.522623,1.000000,-1.000000,1.000000,-0.206889
32.800000,1.213893,-0.003251,0.001728,0.018710,0.112933,0.031053,481.303314,1.608490,0.000000,41.660066,44.965920,6998.522623,-0.186710,-1.000000,0.953729,-1.000000
32.900000,1.209124,-0.001888,0.001646,-0.043297,0.066036,0.018349,481.311737,1.616913,0.000000,41.660066,44.965920,6998.505253,-0.267351,-0.195461,0.695294,0.444351
33.000000,1.205721,0.000651,0.000712,-0.015072,-0.078662,0.028754,481.314728,1.619904,0.000000,41.660066,44.965920,6998.505253,1.000000,-1.000000,0.717674,1.000000
33.100000,1.207584,0.005338,0.000176,-0.127137,-0.229729,-0.044818,481.294495,1.599670,0.000000,41.660066,44.965920,6998.485728,1.000000,0.332985,-1.000000,0.143829
33.200000,1.212108,0.016113,-0.003190,-0.179226,-0.011013,-0.054779,481.280548,1.585724,0.000000,41.660066,44.965919,6998.485728,-0.512505,0.427226,-0.167881,0.520955
33.300000,1.216962,0.024600,-0.009560,-0.098111,0.005980,-0.143882,481.282928,1.588104,0.000000,41.660066,44.965919,6998.464503,-0.522297,-0.687013,-1.000000,1.000000
33.400000,1.228114,0.031936,-0.014909,-0.066693,0.353983,-0.168746,481.296173,1.601349,0.000000,41.660066,44.965919,6998.464503,-1.000000,-0.590368,-0.354892,-1.000000
33.500000,1.243552,0.035414,-0.015150,0.032241,0.989322,-0.199099,481.367218,1.672394,0.000000,41.660067,44.965919,6998.441744,-0.342566,0.485341,1.000000,1.000000
33.600000,1.260198,0.035314,-0.011930,0.090201,1.196410,-0.232587,481.477661,1.782837,0.000000,41.660067,44.965919,6998.441744,1.000000,0.011735,0.686447,1.000000
33.700000,1.284603,0.033203,-0.008350,0.091264,0.720709,-0.259762,481.579742,1.884888,0.000000,41.660067,44.965919,6998.418198,0.361121,-0.973550,1.000000,-0.240591
33.800000,1.314359,0.030448,-0.005949,0.067380,-0.075024,-0.250142,481.612885,1.918060,0.000000,41.660067,44.965919,6998.418198,1.000000,-0.248412,1.000000,0.257401
33.900000,1.342515,0.027633,-0.003510,0.055111,-0.730095,-0.209061,481.571991,1.877167,0.000000,41.660067,44.965919,6998.396268,-0.018415,-0.348182,-1.000000,-0.604933
34.000000,1.368843,0.024210,0.001299,0.056186,-1.293138,-0.135494,481.467712,1.772888,0.000000,41.660068,44.965919,6998.396268,1.000000,-0.988444,-1.000000,-1.000000
34.100000,1.384876,0.020399,0.010368,0.060651,-1.916785,-0.033583,481.305145,1.610321,0.000000,41.660068,44.965919,6998.373924,0.465280,-0.458065,0.411115,1.000000
34.200000,1.390503,0.024768,0.002224,-0.244153,0.198190,-0.153373,481.197266,1.502441,0.000000,41.660068,44.965919,6998.373924,0.235053,-1.000000,0.249374,-1.000000
34.300000,1.391856,0.041096,-0.002677,-0.187766,0.581788,-0.003806,481.253571,1.558746,0.000000,41.660068,44.965919,6998.349175,-1.000000,-0.196368,-0.037628,-0.136533
34.400000,1.385932,0.054486,-0.000111,-0.153669,0.491527,0.028565,481.309448,1.614624,0.000000,41.660068,44.965919,6998.349175,0.768105,-0.290993,-0.298505,0.992982
34.500000,1.381856,0.065025,0.003535,-0.160628,0.088873,0.011890,481.339325,1.644501,0.000000,41.660068,44.965919,6998.325090,0.108732,-1.000000,-1.000000,-0.090024
34.600000,1.383209,0.074359,0.003719,-0.159313,-0.286211,-0.016276,481.321198,1.626373,0.000000,41.660068,44.965918,6998.325090,-0.181460,0.260038,-0.913223,1.000000
34.700000,1.386926,0.079654,0.000855,-0.053225,0.117251,-0.060493,481.307739,1.612915,0.000000,41.660068,44.965918,6998.302372,-1.000000,0.667495,0.409220,-1.000000
34.800000,1.388626,0.081001,-0.000951,0.020173,0.768669,-0.051921,481.346680,1.651855,0.000000,41.660068,44.965918,6998.302372,-1.000000,-0.750611,-1.000000,0.524867
34.900000,1.388976,0.077257,0.000502,0.101596,1.732476,-0.089052,481.478577,1.783752,0.000000,41.660068,44.965918,6998.280691,-0.700164,-0.570637,0.111681,-0.117413
35.000000,1.393918,0.068727,0.003459,0.136248,2.233726,-0.134827,481.689392,1.994568,0.000000,41.660068,44.965918,6998.280691,-0.393781,-0.371723,-0.410724,1.000000
35.100000,1.405570,0.057982,0.005322,0.132473,2.272471,-0.172892,481.907593,2.212769,0.000000,41.660068,44.965918,6998.261000,-0.461322,0.489970,-1.000000,0.206688
35.200000,1.426639,0.044664,0.005024,0.120158,2.140759,-0.200517,482.135895,2.441071,0.000000,41.660068,44.965918,6998.261000,0.034722,-0.868541,-0.418655,1.000000
35.300000,1.456174,0.030273,0.001673,0.112272,1.913934,-0.222751,482.341339,2.646515,0.000000,41.660069,44.965918,6998.242221,-0.750962,-1.000000,0.142544,0.484374
35.400000,1.491780,0.016069,-0.004426,0.113288,1.656866,-0.232359,482.516541,2.821716,0.000000,41.660069,44.965918,6998.242221,1.000000,1.000000,-0.001812,-0.376053
35.500000,1.530620,0.001285,-0.012005,0.114634,1.123754,-0.185283,482.656891,2.962067,0.000000,41.660069,44.965918,6998.221369,-1.000000,-1.000000,-0.113896,-0.371267
35.600000,1.564676,-0.013112,-0.017737,0.159380,0.819197,-0.155499,482.750244,3.055450,0.000000,41.660069,44.965919,6998.221369,0.081985,-1.000000,-0.552986,-0.024298
35.700000,1.597012,-0.026923,-0.021598,0.223054,0.608885,-0.175029,482.822632,3.127808,0.000000,41.660069,44.965919,6998.198818,0.053750,0.062915,-0.829007,1.000000
35.800000,1.639096,-0.040976,-0.027330,0.296293,0.289401,-0.237563,482.861542,3.166718,0.000000,41.660069,44.965919,6998.198818,-1.000000,-1.000000,1.000000,0.934194
35.900000,1.692074,-0.054652,-0.035704,0.414993,0.529723,-0.339037,482.899170,3.204346,0.000000,41.660070,44.965920,6998.174276,-0.175731,-0.365323,-0.694352,0.256275
36.000000,1.748324,-0.067271,-0.046249,0.520861,0.609630,-0.430998,482.953796,3.258942,0.000000,41.660070,44.965920,6998.174276,0.171134,0.623148,1.000000,-0.063157
36.100000,1.808138,-0.079333,-0.058194,0.596738,0.117731,-0.456149,482.987366,3.292542,0.000000,41.660070,44.965921,6998.147372,0.827474,-0.786828,-0.151253,-1.000000
36.200000,1.858779,-0.089387,-0.065790,0.674737,-0.631004,-0.465988,482.954407,3.259583,0.000000,41.660070,44.965922,6998.147372,0.934758,0.949093,-0.227652,0.265639
36.300000,1.901033,-0.096830,-0.069040,0.759501,-1.398409,-0.495272,482.845917,3.151093,0.000000,41.660070,44.965923,6998.119887,-0.907872,0.574596,-0.529536,1.000000
36.400000,1.948053,-0.102295,-0.069145,0.864931,-1.727150,-0.591919,482.670105,2.975281,0.000000,41.660070,44.965924,6998.119887,-1.000000,-0.096841,-0.307948,0.213024
36.500000,2.002291,-0.104858,-0.062556,0.973060,-1.212904,-0.681654,482.502441,2.807617,0.000000,41.660070,44.965925,6998.091325,0.167416,1.000000,1.000000,0.575343
36.600000,2.057319,-0.105189,-0.049195,1.070059,-0.869362,-0.780603,482.395142,2.700317,0.000000,41.660070,44.965926,6998.091325,-0.359519,-0.001278,0.601975,1.000000
36.700000,2.120793,-0.103825,-0.036662,1.162260,-0.461429,-0.930663,482.304382,2.609558,0.000000,41.660070,44.965928,6998.061228,-1.000000,-0.711265,0.523783,1.000000
36.800000,2.189193,-0.101323,-0.027667,1.292451,0.542085,-1.117667,482.289246,2.594421,0.000000,41.660070,44.965930,6998.061228,-0.829903,-0.468596,1.000000,-0.184042
36.900000,2.252150,-0.099982,-0.023272,1.411064,1.008613,-1.275351,482.356384,2.661560,0.000000,41.660070,44.965932,6998.033868,0.053747,0.587812,-0.317463,0.963293
37.000000,2.316855,-0.098602,-0.024639,1.485070,0.864404,-1.422768,482.438354,2.743530,0.000000,41.660070,44.965934,6998.033868,0.889315,-0.149023,-0.534735,0.019080
37.100000,2.381155,-0.095875,-0.033198,1.513547,0.219909,-1.556776,482.476135,2.781311,0.000000,41.660070,44.965937,6998.009037,0.756736,0.711769,-0.481934,1.000000
