t,yaw,pitch,roll,speed.x,speed.y,speed.z,altBar,altRad,egt,myloclat,myloclon,weightlb,collective,bank,pitch,rudder
0.100000,5.374820,0.031625,0.000859,-0.096373,0.517193,0.027993,481.239288,1.544464,0.000000,41.659724,44.965707,7004.964901,-1.000000,-1.000000,-0.034422,0.740200
0.200000,5.373485,0.037082,0.003251,-0.070071,0.109938,0.048598,481.265045,1.570190,0.000000,41.659724,44.965707,7004.964901,1.000000,1.000000,0.212480,-1.000000
0.300000,5.370506,0.040739,0.006922,-0.062885,0.119553,0.054923,481.274017,1.579193,0.000000,41.659724,44.965707,7000.556034,-0.755126,-1.000000,0.715639,-1.000000
0.400000,5.355878,0.043379,0.005350,-0.083424,0.155855,0.091181,481.287079,1.592255,0.000000,41.659724,44.965707,7000.556034,0.472229,0.982914,-0.064906,-0.833156
0.500000,5.328953,0.044045,0.007879,-0.112884,-0.077437,0.115637,481.293030,1.598206,0.000000,41.659724,44.965707,7000.556034,0.452571,-0.622083,1.000000,0.303191
0.600000,5.305502,0.041977,0.005565,-0.165821,-0.110539,0.058450,481.280212,1.585388,0.000000,41.659724,44.965707,7000.556034,0.053868,0.066144,1.000000,0.899124
0.700000,5.294429,0.042084,0.000893,-0.031659,0.034320,-0.036303,481.277893,1.583069,0.000000,41.659724,44.965708,7000.541649,0.619907,0.201802,0.314340,0.109428
0.800000,5.296483,0.044224,0.000282,-0.015839,0.030098,-0.011350,481.280762,1.585938,0.000000,41.659724,44.965708,7000.541649,-0.308754,-1.000000,0.352294,-0.378275
0.900000,5.298804,0.044800,0.001506,0.012063,-0.003767,0.039080,481.282135,1.587311,0.000000,41.659724,44.965708,7000.526974,0.681780,0.604860,0.543961,-0.616752
1.000000,5.298768,0.043740,0.003193,0.028134,-0.017219,0.011180,481.280975,1.586121,0.000000,41.659724,44.965708,7000.526974,-0.133438,-0.330113,1.000000,0.713056
1.100000,5.301402,0.041997,0.001946,0.027129,-0.020240,-0.040634,481.279938,1.585114,0.000000,41.659724,44.965708,7000.510350,1.000000,-1.000000,-0.633435,-1.000000
1.200000,5.303212,0.040987,0.000863,0.001520,-0.073796,0.003923,481.276276,1.581421,0.000000,41.659724,44.965707,7000.510350,1.000000,-0.104811,-0.444062,-1.000000
1.300000,5.298968,0.043142,0.003505,-0.067443,0.008149,0.081822,481.270691,1.575867,0.000000,41.659724,44.965708,7000.490991,0.495942,0.188715,-0.545041,-0.886181
1.400000,5.290238,0.047755,0.005324,-0.104150,0.075406,0.023123,481.273834,1.579041,0.000000,41.659724,44.965708,7000.490991,-0.294635,-0.095553,1.000000,1.000000
1.500000,5.287177,0.051614,0.005518,-0.055166,0.066020,-0.001079,481.283447,1.588623,0.000000,41.659724,44.965708,7000.470512,0.877408,-0.592779,-0.395810,1.000000
1.600000,5.292334,0.054263,0.001935,-0.006885,-0.142741,-0.069827,481.279694,1.584869,0.000000,41.659724,44.965708,7000.470512,0.520862,0.007681,1.000000,0.152164
1.700000,5.299970,0.053649,-0.001442,0.034700,0.085326,-0.027497,481.271973,1.577148,0.000000,41.659724,44.965708,7000.449121,-1.000000,0.686742,0.134037,-0.273919
1.800000,5.303422,0.050432,0.000341,0.077061,0.313203,0.043012,481.290405,1.595581,0.000000,41.659724,44.965708,7000.449121,-0.868294,-1.000000,-0.473187,-0.465470
1.900000,5.300633,0.044169,0.008732,0.152115,1.110385,0.072457,481.358032,1.663208,0.000000,41.659724,44.965708,7000.427689,-1.000000,0.015252,1.000000,-0.844525
2.000000,5.289044,0.034576,0.023095,0.220218,1.804691,0.080308,481.517609,1.822784,0.000000,41.659724,44.965708,7000.427689,1.000000,-1.000000,0.929644,0.245810
2.100000,5.277275,0.023967,0.036412,0.222820,1.578911,0.077079,481.685516,1.990692,0.000000,41.659725,44.965708,7000.407376,0.590642,-1.000000,0.278663,1.000000
2.200000,5.273267,0.012581,0.045410,0.207129,0.837773,0.071329,481.810791,2.115997,0.000000,41.659725,44.965707,7000.407376,1.000000,1.000000,-0.311618,0.399505
2.300000,5.280279,0.001660,0.048737,0.210907,0.098066,0.106668,481.853912,2.159088,0.000000,41.659725,44.965707,7000.387768,-0.556051,0.982234,0.845583,-1.000000
2.400000,5.288080,-0.007922,0.050601,0.249779,-0.228644,0.204057,481.842407,2.147583,0.000000,41.659725,44.965707,7000.387768,0.072090,-0.989727,1.000000,-1.000000
2.500000,5.286807,-0.017329,0.055975,0.329796,-0.061112,0.305023,481.824432,2.129608,0.000000,41.659726,44.965707,7000.367206,-0.683983,1.000000,-1.000000,0.207060
2.600000,5.283637,-0.026783,0.062703,0.418266,0.073805,0.361667,481.823914,2.129089,0.000000,41.659726,44.965707,7000.367206,0.221130,-0.145210,0.443273,0.013354
2.700000,5.285053,-0.035797,0.067925,0.485962,-0.162260,0.432617,481.820435,2.125610,0.000000,41.659727,44.965707,7000.344945,1.000000,-0.142572,1.000000,-1.000000
2.800000,5.284418,-0.044051,0.074149,0.547897,-0.690228,0.577949,481.768860,2.074005,0.000000,41.659727,44.965707,7000.344945,-0.467244,-0.843908,0.785772,-1.000000
2.900000,5.275373,-0.050237,0.082499,0.627713,-0.740228,0.705825,481.680359,1.985535,0.000000,41.659728,44.965707,7000.321067,-0.428856,-1.000000,1.000000,0.377056
3.000000,5.266578,-0.055013,0.088562,0.723049,-0.405254,0.775299,481.621918,1.927094,0.000000,41.659729,44.965707,7000.321067,0.511959,-0.406674,-0.316249,-1.000000
3.100000,5.257576,-0.058907,0.093030,0.762532,-0.658703,0.872304,481.556000,1.861176,0.000000,41.659730,44.965707,7000.294660,0.150738,-0.533097,1.000000,-0.003232
3.200000,5.244090,-0.057231,0.086825,0.527064,-0.585880,0.743234,481.478210,1.783386,0.000000,41.659731,44.965707,7000.294660,0.404258,0.359905,-0.418418,-1.000000
3.300000,5.224795,-0.046349,0.064320,0.147621,-0.437374,0.483430,481.425934,1.731110,0.000000,41.659731,44.965707,7000.267838,0.707917,0.854069,1.000000,-0.117772
3.400000,5.198211,-0.025656,0.030770,-0.120836,-0.610270,0.324557,481.372467,1.677643,0.000000,41.659731,44.965707,7000.267838,0.419316,0.129882,-0.107256,-0.666869
3.500000,5.168795,0.001364,0.002572,-0.260719,-0.527181,0.215816,481.307739,1.612915,0.000000,41.659731,44.965708,7000.241141,-0.160896,-0.227586,1.000000,-1.000000
3.600000,5.141966,0.030523,0.004289,-0.329085,0.031231,0.134939,481.281952,1.587128,0.000000,41.659731,44.965708,7000.241141,-1.000000,1.000000,0.551580,-0.322913
3.700000,5.116203,0.054455,0.015232,-0.268525,0.890252,0.153428,481.325531,1.630707,0.000000,41.659731,44.965708,7000.214900,-1.000000,1.000000,-0.309737,0.077035
3.800000,5.094506,0.072448,0.032129,-0.163863,1.728564,0.098604,481.467316,1.772491,0.000000,41.659731,44.965709,7000.214900,1.000000,0.095414,0.370191,1.000000
3.900000,5.081488,0.085191,0.048263,-0.158596,1.588667,0.073540,481.629883,1.935059,0.000000,41.659731,44.965709,7000.191561,1.000000,0.425888,1.000000,-0.705199
4.000000,5.073231,0.096424,0.063399,-0.215224,0.896869,0.115104,481.755920,2.061096,0.000000,41.659731,44.965710,7000.191561,0.701630,0.788922,0.620333,0.385384
4.100000,5.068696,0.106143,0.075939,-0.306306,0.002575,0.176887,481.797058,2.102234,0.000000,41.659731,44.965710,7000.170419,1.000000,-0.558016,1.000000,0.729682
4.200000,5.072385,0.113545,0.084180,-0.394687,-0.723491,0.240218,481.754395,2.059570,0.000000,41.659731,44.965710,7000.170419,0.016756,0.712997,0.787028,-0.317501
4.300000,5.081293,0.119175,0.089822,-0.475859,-1.268834,0.347548,481.644806,1.949982,0.000000,41.659731,44.965711,7000.149650,1.000000,0.487541,0.427236,-1.000000
4.400000,5.083653,0.123334,0.093905,-0.560137,-1.796718,0.526713,481.480530,1.785706,0.000000,41.659731,44.965711,7000.149650,0.353903,0.784407,1.000000,-1.000000
4.500000,5.073578,0.125950,0.093996,-0.313407,-1.374080,-0.044721,481.312683,1.617859,0.000000,41.659731,44.965712,7000.127513,0.898391,0.666840,-0.447671,0.225577
4.600000,5.059553,0.126197,0.053631,0.098367,0.313069,-0.796769,481.268585,1.573761,0.000000,41.659731,44.965711,7000.127513,-1.000000,-0.439334,0.020275,-0.661363
4.700000,5.051040,0.121656,0.012584,0.188843,0.777336,-0.608112,481.340546,1.645752,0.000000,41.659731,44.965711,7000.104547,0.447701,1.000000,-1.000000,0.214913
4.800000,5.044064,0.115608,-0.010732,0.143761,0.694744,-0.566899,481.413605,1.718781,0.000000,41.659730,44.965711,7000.104547,-0.785657,-1.000000,-1.000000,-1.000000
4.900000,5.034397,0.107321,-0.026947,0.102776,0.565253,-0.553366,481.477417,1.782593,0.000000,41.659730,44.965710,7000.080544,0.452026,0.165347,0.532755,0.471051
5.000000,5.024867,0.097103,-0.036407,0.068274,0.385505,-0.577269,481.526276,1.831451,0.000000,41.659729,44.965710,7000.080544,-0.533459,1.000000,-1.000000,0.100395
5.100000,5.020393,0.085896,-0.040286,0.062389,0.402237,-0.614975,481.558533,1.863708,0.000000,41.659729,44.965709,7000.058076,-0.153542,-0.954446,0.786023,-1.000000
5.200000,5.013204,0.071483,-0.036471,0.079893,0.565342,-0.606202,481.605621,1.910797,0.000000,41.659728,44.965709,7000.058076,-0.650384,0.477385,0.314418,-0.472683
5.300000,4.998764,0.054760,-0.025182,0.092605,0.420321,-0.608085,481.659637,1.964813,0.000000,41.659728,44.965709,7000.036602,0.689913,1.000000,-0.943311,-0.189747
5.400000,4.984802,0.038158,-0.012004,0.096447,-0.022116,-0.615658,481.679932,1.985107,0.000000,41.659727,44.965708,7000.036602,1.000000,0.892014,-1.000000,1.000000
5.500000,4.977735,0.020598,0.000829,0.109441,-0.571956,-0.653161,481.646759,1.951935,0.000000,41.659727,44.965708,7000.015211,-0.409784,0.444396,1.000000,0.411092
5.600000,4.983557,0.003270,0.011075,0.144543,-0.949838,-0.680169,481.567932,1.873108,0.000000,41.659726,44.965708,7000.015211,0.831028,0.416934,0.290667,0.729341
5.700000,4.997793,-0.012648,0.019260,0.190689,-1.198418,-0.677287,481.464966,1.770142,0.000000,41.659726,44.965707,6999.994484,-0.435262,-1.000000,0.035088,-0.264273
5.800000,5.016013,-0.024608,0.014503,0.279261,-0.834234,-0.605800,481.346222,1.651398,0.000000,41.659725,44.965706,6999.994484,-1.000000,-1.000000,0.111958,0.077418
5.900000,5.029326,-0.019486,-0.008447,0.003304,0.612826,-0.562976,481.343903,1.649078,0.000000,41.659725,44.965706,6999.972969,-0.760775,0.437310,1.000000,-0.266592
6.000000,5.041913,-0.013763,-0.016004,0.163914,1.457488,-0.577630,481.443359,1.748535,0.000000,41.659724,44.965706,6999.972969,-1.000000,-1.000000,0.823867,-1.000000
6.100000,5.047437,-0.011074,-0.014225,0.328476,2.272084,-0.546813,481.634003,1.939178,0.000000,41.659724,44.965705,6999.950168,-0.729405,1.000000,-0.215993,-1.000000
6.200000,5.040211,-0.011683,-0.001915,0.474080,2.859579,-0.536038,481.899597,2.204803,0.000000,41.659724,44.965704,6999.950168,-0.680343,-0.001785,-0.737477,-0.473954
6.300000,5.028411,-0.014434,0.014474,0.576848,3.032532,-0.560431,482.184692,2.489868,0.000000,41.659724,44.965703,6999.928570,-0.462237,1.000000,-1.000000,0.674399
6.400000,5.021591,-0.019077,0.031297,0.659265,2.955362,-0.614211,482.494904,2.800079,0.000000,41.659723,44.965702,6999.928570,0.981597,0.505117,-1.000000,-0.025117
6.500000,5.025029,-0.024510,0.044902,0.693883,2.315510,-0.622499,482.766205,3.071381,0.000000,41.659723,44.965701,6999.907387,-0.460434,0.084466,-1.000000,0.206791
6.600000,5.035160,-0.029610,0.055422,0.733311,1.739667,-0.586296,482.958466,3.263611,0.000000,41.659723,44.965700,6999.907387,-0.036045,0.064733,0.441877,-0.771022
6.700000,5.046429,-0.035089,0.066908,0.792484,1.255574,-0.483647,483.114655,3.419830,0.000000,41.659723,44.965699,6999.883550,0.316680,0.683603,-0.147106,-1.000000
6.800000,5.049860,-0.039653,0.080711,0.850332,0.604892,-0.348832,483.209839,3.515015,0.000000,41.659723,44.965698,6999.883550,0.447131,1.000000,0.404561,1.000000
6.900000,5.055496,-0.043660,0.091805,0.915538,0.130199,-0.283236,483.239716,3.544891,0.000000,41.659723,44.965697,6999.858677,-1.000000,-1.000000,0.046164,-0.136179
7.000000,5.072834,-0.048751,0.098946,1.006698,-0.040049,-0.241062,483.244232,3.549408,0.000000,41.659724,44.965696,6999.858677,0.906191,0.275118,-1.000000,0.861988
7.100000,5.102441,-0.054484,0.100680,1.080517,-0.532709,-0.213500,483.215088,3.520264,0.000000,41.659724,44.965695,6999.832146,0.337302,-0.501847,0.221662,1.000000
7.200000,5.143575,-0.059907,0.095028,1.137021,-1.233842,-0.194294,483.126648,3.431793,0.000000,41.659724,44.965693,6999.832146,1.000000,1.000000,0.508740,-0.604003
7.300000,5.193784,-0.064458,0.083084,1.205864,-1.770500,-0.181418,482.963226,3.268402,0.000000,41.659724,44.965692,6999.803583,-0.798838,0.990452,-0.100453,1.000000
7.400000,5.246995,-0.067273,0.066430,1.289736,-1.772315,-0.231340,482.769897,3.075073,0.000000,41.659725,44.965691,6999.803583,0.258238,-0.237383,-0.201435,0.197297
7.500000,5.300731,-0.068289,0.047318,1.368173,-1.744940,-0.307554,482.600128,2.905304,0.000000,41.659725,44.965689,6999.774772,0.052789,-0.886520,-0.526471,0.187008
7.600000,5.358399,-0.067465,0.026305,1.438066,-1.838495,-0.388032,482.406036,2.711182,0.000000,41.659726,44.965688,6999.774772,-0.160482,-0.391223,-0.109358,0.139579
7.700000,5.414254,-0.064730,0.008405,1.519474,-1.311888,-0.484144,482.229889,2.535065,0.000000,41.659726,44.965686,6999.745463,-0.732981,1.000000,-0.339739,0.189477
7.800000,5.465323,-0.061060,-0.002391,1.598264,-0.881115,-0.579843,482.122864,2.428040,0.000000,41.659727,44.965685,6999.745463,0.712995,0.492397,1.000000,1.000000
7.900000,5.520899,-0.056363,-0.012212,1.641708,-1.196541,-0.710700,482.011688,2.316864,0.000000,41.659728,44.965683,6999.716984,0.261264,0.121651,0.176773,1.000000
8.000000,5.579727,-0.050517,-0.024162,1.653617,-1.755051,-0.854911,481.850891,2.156067,0.000000,41.659729,44.965681,6999.716984,0.863246,-0.928789,0.570063,0.373674
8.100000,5.634620,-0.043874,-0.034989,1.649848,-2.005218,-0.990411,481.654999,1.960175,0.000000,41.659729,44.965679,6999.692111,-1.000000,0.948073,0.737988,1.000000
8.200000,5.692833,-0.035529,-0.040417,1.640206,-1.804587,-1.137647,481.450592,1.755768,0.000000,41.659730,44.965678,6999.692111,1.000000,0.961392,1.000000,0.940493
8.300000,5.750668,-0.022590,-0.015745,0.805923,-0.603089,-0.840709,481.308899,1.614075,0.000000,41.659731,44.965676,6999.669767,-0.767412,-0.328834,-0.528972,-0.765576
8.400000,5.798463,-0.002396,-0.001967,0.255281,0.243629,-0.626129,481.306091,1.611267,0.000000,41.659731,44.965675,6999.669767,-1.000000,1.000000,0.190337,1.000000
8.500000,5.842143,0.018065,0.006983,0.311822,0.466332,-0.649200,481.342957,1.648132,0.000000,41.659731,44.965674,6999.649039,0.176457,1.000000,0.033310,-0.068698
8.600000,5.884493,0.034993,0.017212,0.339507,0.423781,-0.667940,481.396332,1.701508,0.000000,41.659731,44.965673,6999.649039,1.000000,-0.774339,0.633641,0.933491
8.700000,5.923141,0.048694,0.025034,0.307443,-0.118886,-0.661489,481.415253,1.720428,0.000000,41.659731,44.965672,6999.630757,0.089147,0.954068,1.000000,-0.029986
8.800000,5.963059,0.061647,0.029803,0.244952,-0.783602,-0.641497,481.371552,1.676727,0.000000,41.659732,44.965672,6999.630757,-0.751347,1.000000,0.556023,0.911324
9.900000,6.032642,0.043478,0.003567,-0.062202,0.086575,-0.037689,481.272614,1.577789,0.000000,41.659732,44.965671,6999.528488,-0.801736,-0.524343,0.446034,0.576998
10.000000,6.034102,0.046219,0.000552,-0.020593,0.228250,-0.053622,481.286469,1.591644,0.000000,41.659732,44.965671,6999.528488,-0.642374,-1.000000,0.258494,-0.663922
10.100000,6.034426,0.045199,0.000250,0.075921,0.894999,-0.053685,481.339935,1.645142,0.000000,41.659732,44.965671,6999.511491,-1.000000,-0.323587,-0.940002,0.080527
10.200000,6.029745,0.039655,0.001258,0.191308,1.748501,-0.082594,481.465607,1.770813,0.000000,41.659732,44.965671,6999.511491,-0.911523,0.596040,-1.000000,0.627185
10.300000,6.026815,0.029019,0.001607,0.272356,2.238133,-0.120333,481.680786,1.985962,0.000000,41.659732,44.965670,6999.494163,1.000000,0.166497,-0.211513,-0.232536
10.400000,6.026373,0.016105,0.000361,0.278013,1.834504,-0.098822,481.894379,2.199554,0.000000,41.659732,44.965670,6999.494163,-0.007850,0.212081,0.153339,-1.000000
10.500000,6.022875,0.003805,-0.000900,0.268981,1.119379,-0.051676,482.036743,2.341919,0.000000,41.659732,44.965670,6999.477581,1.000000,0.112450,1.000000,1.000000
10.600000,6.020635,-0.008805,-0.002892,0.285118,0.432977,-0.038109,482.112366,2.417542,0.000000,41.659733,44.965670,6999.477581,-1.000000,0.581011,1.000000,-0.449086
10.700000,6.023353,-0.021306,-0.003981,0.352743,0.356107,-0.030338,482.144714,2.449890,0.000000,41.659733,44.965670,6999.459797,-0.846952,-0.250543,0.640277,0.419642
10.800000,6.029884,-0.034023,0.000250,0.481978,1.047163,-0.054583,482.206940,2.512115,0.000000,41.659733,44.965670,6999.459797,-1.000000,-0.499781,1.000000,0.220803
10.900000,6.043189,-0.049885,0.009114,0.625954,1.804344,-0.093624,482.352966,2.658142,0.000000,41.659734,44.965670,6999.438738,-0.665690,-0.447367,0.502479,-0.307743
11.000000,6.060138,-0.067402,0.020014,0.763871,2.433033,-0.129683,482.565674,2.870850,0.000000,41.659735,44.965670,6999.438738,-1.000000,1.000000,-1.000000,0.297888
11.100000,6.080531,-0.085387,0.030938,0.912570,3.163598,-0.186193,482.825958,3.131134,0.000000,41.659736,44.965669,6999.416062,-1.000000,-0.806504,1.000000,0.530862
11.200000,6.110413,-0.106308,0.041172,1.054313,3.717280,-0.262403,483.174591,3.479767,0.000000,41.659737,44.965669,6999.416062,0.623716,-0.316026,0.968555,0.517398
11.300000,6.148225,-0.127187,0.047615,1.143307,3.388661,-0.286873,483.527466,3.832642,0.000000,41.659738,44.965669,6999.391520,-0.345141,-0.506791,1.000000,-1.000000
11.400000,6.184090,-0.145066,0.051591,1.245849,2.897473,-0.266063,483.808167,4.113342,0.000000,41.659739,44.965669,6999.391520,-1.000000,0.290857,0.913587,0.823825
11.500000,6.223929,-0.162933,0.053953,1.429453,3.070430,-0.283043,484.080811,4.385986,0.000000,41.659741,44.965669,6999.364533,-1.000000,-0.174624,-0.061820,-0.182464
11.600000,6.265357,-0.180918,0.057003,1.648706,3.606393,-0.307945,484.397064,4.702240,0.000000,41.659743,44.965669,6999.364533,-0.226817,-0.192660,-1.000000,-0.562120
11.700000,0.018100,-0.197047,0.061717,1.829215,3.467429,-0.281338,484.704742,5.009918,0.000000,41.659745,44.965669,6999.337049,1.000000,-1.000000,-0.517443,-0.729274
11.800000,0.048770,-0.211984,0.068818,2.015933,2.878160,-0.238229,484.982025,5.287201,0.000000,41.659747,44.965670,6999.337049,-1.000000,1.000000,0.555640,0.671665
11.900000,0.081723,-0.225388,0.073261,2.255361,2.624990,-0.265520,485.203979,5.509155,0.000000,41.659750,44.965670,6999.308445,-0.044658,-0.611579,1.000000,0.375159
12.000000,0.122046,-0.237989,0.071893,2.514542,2.680963,-0.339984,485.400421,5.705627,0.000000,41.659752,44.965671,6999.308445,-1.000000,1.000000,-1.000000,0.975034
12.100000,0.175475,-0.251543,0.064407,2.824006,3.006504,-0.457071,485.613464,5.918671,0.000000,41.659755,44.965672,6999.278017,-0.557526,-0.184041,-0.233763,0.387101
12.200000,0.237942,-0.265750,0.052731,3.143781,3.503369,-0.612915,485.859406,6.164612,0.000000,41.659758,44.965673,6999.278017,-1.000000,1.000000,0.443938,0.360969
12.300000,0.301242,-0.278893,0.039042,3.423488,3.955717,-0.791954,486.122314,6.427490,0.000000,41.659762,44.965675,6999.247671,-0.551626,-1.000000,1.000000,0.481005
12.400000,0.372030,-0.291589,0.021873,3.707572,4.419543,-1.013062,486.432617,6.737793,0.000000,41.659766,44.965676,6999.247671,-1.000000,-1.000000,1.000000,-1.000000
12.500000,0.441456,-0.302345,0.004738,3.967040,4.561887,-1.235293,486.761322,7.066498,0.000000,41.659770,44.965678,6999.216829,-0.022541,1.000000,-0.552687,1.000000
12.600000,0.506650,-0.310073,-0.012397,4.190215,4.417537,-1.479341,487.057068,7.362274,0.000000,41.659775,44.965681,6999.216829,0.414091,0.725610,0.719403,0.687227
12.700000,0.578964,-0.314653,-0.034744,4.383325,3.764149,-1.764434,487.317505,7.622681,0.000000,41.659779,44.965683,6999.184453,0.424225,-0.166099,-0.495881,-0.991714
12.800000,0.647993,-0.314940,-0.057951,4.579636,3.088986,-2.010958,487.496155,7.801331,0.000000,41.659784,44.965685,6999.184453,-0.633335,0.222874,-0.162507,0.478245
12.900000,0.708042,-0.312442,-0.077666,4.802979,2.922355,-2.306406,487.613464,7.918610,0.000000,41.659789,44.965688,6999.152574,-0.289903,-1.000000,0.382048,0.559963
13.000000,0.775355,-0.307592,-0.101314,5.035305,3.076818,-2.707763,487.726166,8.031342,0.000000,41.659794,44.965691,6999.152574,-1.000000,0.903155,-0.930600,0.630103
13.100000,0.847024,-0.300825,-0.128144,5.245208,3.536012,-3.171773,487.851532,8.156738,0.000000,41.659799,44.965694,6999.120322,-0.782123,0.470642,-0.269445,0.864622
13.200000,0.918437,-0.293344,-0.155658,5.409532,4.264553,-3.664073,488.013763,8.318909,0.000000,41.659805,44.965698,6999.120322,0.339197,-0.354905,0.411553,-1.000000
13.300000,0.993130,-0.284132,-0.184414,5.474039,4.253513,-4.141912,488.207367,8.512604,0.000000,41.659811,44.965702,6999.086909,0.422548,0.049603,-0.487649,1.000000
13.400000,1.061243,-0.273060,-0.210291,5.492207,3.839932,-4.612329,488.355011,8.660217,0.000000,41.659817,44.965707,6999.086909,-0.959455,0.511850,0.256055,0.658545
13.500000,1.123814,-0.260483,-0.234095,5.475967,3.484696,-5.081325,488.449738,8.754913,0.000000,41.659824,44.965711,6999.054491,1.000000,0.067002,1.000000,-0.573846
13.600000,1.183034,-0.246094,-0.254668,5.445504,3.011300,-5.526153,488.493347,8.798523,0.000000,41.659830,44.965716,6999.054491,-0.997872,0.085239,0.204259,-0.693205
13.700000,1.228098,-0.233445,-0.265303,5.485396,2.869086,-5.932752,488.490387,8.795532,0.000000,41.659837,44.965721,6999.023317,-0.178358,0.495000,-0.497575,0.637681
13.800000,1.266557,-0.222678,-0.269416,5.533145,2.912037,-6.369779,488.483307,8.788483,0.000000,41.659844,44.965726,6999.023317,0.593223,-0.685142,0.970252,0.343073
13.900000,1.305888,-0.211403,-0.271702,5.516589,2.325489,-6.813799,488.440765,8.745941,0.000000,41.659851,44.965731,6998.992391,0.667367,-0.241983,0.506840,-1.000000
14.000000,1.334398,-0.202020,-0.269792,5.537256,1.558184,-7.133674,488.322571,8.627747,0.000000,41.659858,44.965737,6998.992391,-1.000000,1.000000,-0.456672,0.296416
14.100000,1.349991,-0.196000,-0.263074,5.651361,1.206796,-7.419472,488.158691,8.463867,0.000000,41.659865,44.965742,6998.964741,0.694572,-0.972679,0.368973,0.025679
14.200000,1.365301,-0.190537,-0.255587,5.769072,0.814036,-7.748190,487.953125,8.258301,0.000000,41.659872,44.965748,6998.964741,-0.372099,0.256131,0.602199,0.204614
14.300000,1.381343,-0.185069,-0.250418,5.854903,0.243982,-8.060053,487.695679,8.000854,0.000000,41.659879,44.965754,6998.940034,1.000000,1.000000,-0.660544,0.392412
14.400000,1.394075,-0.180487,-0.246421,5.940347,-0.334698,-8.309160,487.398071,7.703247,0.000000,41.659886,44.965760,6998.940034,-0.338045,1.000000,0.151942,-0.479175
14.500000,1.403187,-0.176722,-0.241701,6.067148,-0.840804,-8.552654,487.025513,7.330658,0.000000,41.659893,44.965766,6998.917358,0.578499,-1.000000,-1.000000,0.720874
14.600000,1.412138,-0.173286,-0.237496,6.186043,-1.356442,-8.799529,486.604645,6.909790,0.000000,41.659901,44.965772,6998.917358,0.581786,-1.000000,-0.919511,1.000000
14.700000,1.422294,-0.169717,-0.235500,6.270262,-1.835523,-9.055261,486.154968,6.460144,0.000000,41.659908,44.965779,6998.897667,-0.245692,0.517877,0.913577,0.817731
14.800000,1.436586,-0.165087,-0.232897,6.322236,-2.139267,-9.321844,485.637299,5.942474,0.000000,41.659916,44.965785,6998.897667,0.355829,-1.000000,1.000000,-1.000000
14.900000,1.448571,-0.160787,-0.224532,6.374417,-2.596056,-9.513787,485.088348,5.393524,0.000000,41.659923,44.965792,6998.879758,1.000000,-0.087107,0.312900,1.000000
15.000000,1.454976,-0.157382,-0.213358,6.452751,-3.133212,-9.642139,484.524811,4.829987,0.000000,41.659931,44.965799,6998.879758,-1.000000,0.862405,-0.469347,-0.234269
15.100000,1.458761,-0.153266,-0.190951,6.544918,-3.136556,-9.646760,483.910919,4.216095,0.000000,41.659939,44.965806,6998.862761,0.659094,0.054651,0.414081,-0.304671
15.200000,1.451303,-0.149001,-0.148799,6.717622,-3.069081,-9.426220,483.340210,3.645386,0.000000,41.659947,44.965813,6998.862761,-0.780400,0.736495,-0.458752,-1.000000
15.300000,1.427329,-0.145241,-0.102840,7.022497,-3.276794,-9.086135,482.836182,3.141327,0.000000,41.659954,44.965820,6998.847423,1.000000,-0.738589,-0.454178,0.448490
15.400000,1.390728,-0.139786,-0.057456,7.418969,-3.398674,-8.663451,482.321899,2.627075,0.000000,41.659962,44.965828,6998.847423,-1.000000,-0.469248,0.135539,1.000000
15.500000,1.354357,-0.131252,-0.020031,7.790002,-3.342498,-8.337294,481.843719,2.148895,0.000000,41.659970,44.965836,6998.832872,1.000000,0.780464,-0.307166,-0.454526
15.600000,1.341392,-0.118107,-0.009306,7.438267,-2.532570,-7.837719,481.440063,1.745239,0.000000,41.659978,44.965844,6998.832872,1.000000,-0.852850,-0.346574,1.000000
15.700000,1.349931,-0.081038,-0.077277,4.100701,2.146226,-5.268056,481.320190,1.625366,0.000000,41.659984,44.965850,6998.818405,1.000000,-0.219965,0.399040,1.000000
15.800000,1.372846,-0.054574,-0.176693,2.973042,3.075569,-4.234505,481.550964,1.856110,0.000000,41.659988,44.965853,6998.818405,-0.440610,-0.694068,-0.070047,0.474585
15.900000,1.403993,-0.028640,-0.224905,2.934354,2.562609,-4.388905,481.718384,2.023529,0.000000,41.659993,44.965857,6998.804020,-0.825889,-0.587114,-1.000000,-0.114179
16.000000,1.440888,-0.001898,-0.258626,2.875189,2.586780,-4.698519,481.851288,2.156464,0.000000,41.659997,44.965860,6998.804020,-1.000000,1.000000,0.034309,0.474914
16.100000,1.480122,0.022008,-0.281687,2.777351,2.744927,-5.039738,481.990143,2.295319,0.000000,41.660002,44.965863,6998.788391,0.610397,1.000000,-0.930703,0.752892
16.200000,1.518407,0.042322,-0.296987,2.593945,2.404598,-5.367701,482.095520,2.400696,0.000000,41.660007,44.965867,6998.788391,-0.199479,0.042317,-0.379953,-1.000000
16.300000,1.556285,0.061025,-0.306073,2.380355,2.080364,-5.691722,482.153107,2.458282,0.000000,41.660012,44.965871,6998.771436,-1.000000,-1.000000,-0.814562,1.000000
16.400000,1.593400,0.075382,-0.303860,2.216195,2.559036,-6.059088,482.207092,2.512268,0.000000,41.660017,44.965874,6998.771436,-1.000000,0.530302,-0.709175,-0.590307
16.500000,1.630457,0.083332,-0.294087,2.069336,3.444740,-6.445950,482.322571,2.627747,0.000000,41.660023,44.965878,6998.754357,-1.000000,0.013870,-0.437175,1.000000
16.600000,1.672981,0.085548,-0.279016,1.846958,4.291465,-6.871119,482.526917,2.832092,0.000000,41.660029,44.965882,6998.754357,-1.000000,-0.990354,-1.000000,0.819869
16.700000,1.723330,0.084196,-0.263232,1.472363,4.580888,-7.300702,482.792297,3.097473,0.000000,41.660036,44.965887,6998.735329,0.426153,1.000000,-0.420397,1.000000
16.800000,1.777651,0.082404,-0.251195,0.984128,4.170096,-7.645263,483.028595,3.333771,0.000000,41.660042,44.965891,6998.735329,-0.361155,0.806746,-0.771609,1.000000
16.900000,1.840515,0.081023,-0.242733,0.417925,3.793233,-7.931452,483.227295,3.532471,0.000000,41.660049,44.965895,6998.712984,-0.648119,-0.710717,-1.000000,-0.955590
17.000000,1.900902,0.077878,-0.235587,-0.115023,3.696215,-8.115696,483.405701,3.710876,0.000000,41.660056,44.965900,6998.712984,-0.174743,0.049150,-0.782647,-1.000000
17.100000,1.947099,0.071455,-0.226604,-0.520889,3.610861,-8.248160,483.563446,3.868622,0.000000,41.660063,44.965904,7000.223481,-0.860961,-1.000000,-0.947421,0.313086
17.200000,1.989678,0.061905,-0.214931,-0.902266,3.404149,-8.412411,483.724792,4.029968,0.000000,41.660071,44.965909,7000.223481,0.419974,0.428676,0.058152,0.003140
17.300000,2.031969,0.051979,-0.203445,-1.295237,3.013437,-8.542129,483.858337,4.163513,0.000000,41.660078,44.965913,7000.197987,-0.871949,-1.000000,0.557566,-0.633992
17.400000,2.066248,0.041720,-0.191007,-1.592553,2.805393,-8.619684,483.959747,4.264923,0.000000,41.660085,44.965918,7000.197987,-1.000000,-0.105448,0.827987,-0.906442
17.500000,2.091428,0.028222,-0.173228,-1.781210,2.834800,-8.690870,484.079865,4.385040,0.000000,41.660092,44.965923,7000.170295,-0.056362,0.699260,1.000000,-1.000000
17.600000,2.104480,0.012538,-0.150805,-1.865218,2.609577,-8.782703,484.209167,4.514343,0.000000,41.660100,44.965928,7000.170295,-0.563022,0.169537,-1.000000,0.511730
17.700000,2.114716,-0.002281,-0.130198,-1.919528,2.227891,-8.918580,484.319733,4.624908,0.000000,41.660107,44.965933,7000.142105,0.069430,-0.907175,1.000000,-0.201380
17.800000,2.132463,-0.016487,-0.112630,-2.029240,1.725085,-9.011300,484.413544,4.718719,0.000000,41.660115,44.965938,7000.142105,-0.102489,0.656159,-1.000000,0.085375
17.900000,2.151240,-0.029663,-0.097177,-2.106589,1.421649,-9.032691,484.475159,4.780334,0.000000,41.660122,44.965943,7000.112962,-1.000000,-1.000000,-0.122107,-1.000000
18.000000,2.164088,-0.042877,-0.082482,-2.095307,1.444541,-9.041601,484.541870,4.847046,0.000000,41.660129,44.965949,7000.112962,-0.035753,-1.000000,1.000000,-0.045378
18.100000,2.173544,-0.057593,-0.066994,-2.052327,1.281513,-9.065936,484.625336,4.930511,0.000000,41.660136,44.965954,7000.082161,-0.502129,-1.000000,-0.786471,0.013848
18.200000,2.186996,-0.071555,-0.054509,-2.053603,0.872673,-9.084775,484.696228,5.001404,0.000000,41.660144,44.965960,7000.082161,0.694283,-0.093738,1.000000,0.185633
18.300000,2.205958,-0.083026,-0.046428,-2.116070,0.287385,-9.062203,484.723755,5.028931,0.000000,41.660151,44.965965,7000.051484,-0.025859,-0.297712,-0.102287,-0.224924
18.400000,2.230512,-0.093109,-0.040900,-2.215711,-0.424589,-9.012063,484.696533,5.001709,0.000000,41.660158,44.965971,7000.051484,1.000000,-0.718242,0.009735,1.000000
18.500000,2.260548,-0.100902,-0.039239,-2.340738,-0.951942,-8.939836,484.608795,4.913971,0.000000,41.660165,44.965977,7000.020269,-1.000000,1.000000,-0.427191,-1.000000
18.600000,2.289400,-0.106905,-0.038165,-2.431787,-1.036404,-8.859737,484.499969,4.805176,0.000000,41.660172,44.965983,7000.020269,0.386554,-0.500091,-0.322425,1.000000
18.700000,2.320273,-0.112738,-0.036444,-2.503290,-0.853975,-8.803885,484.398651,4.703827,0.000000,41.660178,44.965989,6999.987685,-1.000000,-0.008157,-1.000000,-0.248440
18.800000,2.352613,-0.118538,-0.036784,-2.571922,-0.546804,-8.742200,484.322266,4.627472,0.000000,41.660185,44.965995,6999.987685,-0.012202,-1.000000,-1.000000,-0.773884
18.900000,2.377361,-0.124502,-0.036796,-2.595325,-0.485307,-8.670399,484.279266,4.584442,0.000000,41.660192,44.966002,6999.957091,0.947911,-1.000000,-1.000000,0.665319
19.000000,2.397266,-0.130405,-0.039149,-2.601909,-1.030357,-8.600586,484.205505,4.510681,0.000000,41.660198,44.966008,6999.957091,0.209187,0.098542,1.000000,-0.749724
19.100000,2.410069,-0.135166,-0.044098,-2.549467,-1.607886,-8.541457,484.068176,4.373383,0.000000,41.660204,44.966014,6999.929565,-0.942428,0.008891,-0.694536,-0.798658
19.200000,2.408486,-0.138933,-0.045577,-2.367051,-1.674426,-8.477534,483.903503,4.208710,0.000000,41.660210,44.966021,6999.929565,0.631126,0.656237,0.456491,-0.633907
19.300000,2.390315,-0.142368,-0.039540,-2.040888,-1.807302,-8.475300,483.726990,4.032196,0.000000,41.660216,44.966028,6999.904485,-0.355525,-1.000000,0.249186,1.000000
19.400000,2.369200,-0.144296,-0.032297,-1.699699,-2.053823,-8.539320,483.528107,3.833252,0.000000,41.660222,44.966034,6999.904485,0.625832,-0.817381,0.431533,1.000000
19.500000,2.356111,-0.144321,-0.029024,-1.443129,-2.424965,-8.616281,483.315369,3.620575,0.000000,41.660228,44.966041,6999.882680,0.704892,-0.737162,-0.662146,0.910278
19.600000,2.350865,-0.142481,-0.031784,-1.257527,-2.853462,-8.689348,483.038147,3.343323,0.000000,41.660234,44.966048,6999.882680,-0.113209,-1.000000,-0.217380,1.000000
19.700000,2.353576,-0.138278,-0.037072,-1.151863,-2.736788,-8.751637,482.737213,3.042419,0.000000,41.660240,44.966055,6999.863030,-0.091567,1.000000,-0.683593,0.645136
19.800000,2.361775,-0.131907,-0.038785,-1.112751,-2.576993,-8.775893,482.472351,2.777527,0.000000,41.660246,44.966062,6999.863030,0.568588,0.273668,0.462677,-0.331154
19.900000,2.368927,-0.123372,-0.034184,-1.071621,-2.572536,-8.719483,482.191620,2.496765,0.000000,41.660251,44.966069,6999.844334,-0.468909,1.000000,-1.000000,-0.312341
20.000000,2.366528,-0.113439,-0.018871,-0.959404,-2.193115,-8.651924,481.929413,2.234589,0.000000,41.660257,44.966076,6999.844334,-0.520589,-1.000000,-1.000000,1.000000
20.100000,2.364260,-0.102691,0.002041,-0.810711,-0.943100,-8.675061,481.780121,2.085327,0.000000,41.660262,44.966084,6999.827254,-1.000000,-0.828840,0.631006,1.000000
20.200000,2.369494,-0.092921,0.021096,-0.623878,0.264974,-8.736272,481.764771,2.069946,0.000000,41.660267,44.966092,6999.827254,-1.000000,-1.000000,-1.000000,0.048390
20.300000,2.379084,-0.088846,0.034223,-0.414948,1.260118,-8.782782,481.873840,2.179016,0.000000,41.660272,44.966100,6999.811045,-1.000000,-0.162612,0.035649,0.882280
20.400000,2.390869,-0.090721,0.040529,-0.287722,1.852323,-8.798992,482.065186,2.370392,0.000000,41.660277,44.966108,6999.811045,1.000000,-0.594732,1.000000,-0.103976
20.500000,2.404937,-0.095980,0.042169,-0.257613,1.609092,-8.737677,482.286102,2.591278,0.000000,41.660281,44.966117,6999.794753,0.844603,-0.525330,-0.856535,-0.618988
20.600000,2.413156,-0.101901,0.041704,-0.214002,0.888790,-8.629616,482.454071,2.759247,0.000000,41.660285,44.966125,6999.794753,0.578613,-1.000000,-0.440866,0.597123
20.700000,2.418399,-0.107253,0.038256,-0.154348,0.089223,-8.536576,482.534790,2.839966,0.000000,41.660290,44.966133,6999.777964,1.000000,1.000000,1.000000,-1.000000
20.800000,2.419746,-0.112348,0.032874,-0.043035,-0.657616,-8.427965,482.534393,2.839569,0.000000,41.660294,44.966142,6999.777964,-1.000000,0.886846,-0.991215,0.281379
20.900000,2.416845,-0.116983,0.027694,0.134476,-0.888848,-8.369380,482.475006,2.780182,0.000000,41.660298,44.966150,6999.758356,0.144546,-0.432059,-1.000000,0.582072
21.000000,2.418898,-0.121710,0.022601,0.290518,-0.588546,-8.374590,482.422119,2.727295,0.000000,41.660302,44.966158,6999.758356,-0.876454,-0.381223,0.758532,0.823125
21.100000,2.432081,-0.127579,0.016637,0.382714,0.000516,-8.401550,482.398529,2.703705,0.000000,41.660306,44.966167,6999.735680,-0.735514,1.000000,0.021488,1.000000
21.200000,2.458242,-0.135427,0.012694,0.416036,0.783416,-8.435183,482.446808,2.752014,0.000000,41.660309,44.966176,6999.735680,-1.000000,0.687140,0.178059,-0.022809
21.300000,2.491354,-0.145520,0.010883,0.370549,1.191118,-8.444443,482.549011,2.854187,0.000000,41.660313,44.966185,6999.712548,-0.322217,0.307284,-0.193835,-0.853056
21.400000,2.523474,-0.158026,0.014098,0.330072,1.255573,-8.367706,482.681732,2.986908,0.000000,41.660316,44.966194,6999.712548,-0.373144,0.649311,-0.039472,-1.000000
21.500000,2.542788,-0.171246,0.025142,0.378755,0.813487,-8.248545,482.800323,3.105530,0.000000,41.660319,44.966203,6999.687924,0.511495,0.577405,-0.903346,-1.000000
21.600000,2.549051,-0.183601,0.041184,0.528167,0.240466,-8.120002,482.866486,3.171661,0.000000,41.660322,44.966212,6999.687924,-0.556974,-0.529783,0.563464,-0.538274
21.700000,2.547795,-0.196567,0.060960,0.776731,-0.074367,-8.007537,482.899384,3.204559,0.000000,41.660324,44.966221,6999.660895,0.012471,0.554172,-0.423957,1.000000
21.800000,2.552071,-0.210104,0.076807,1.006877,-0.084928,-7.969808,482.924805,3.229980,0.000000,41.660326,44.966230,6999.660895,-1.000000,-1.000000,-0.292303,0.442654
21.900000,2.567662,-0.224199,0.085722,1.173976,0.274171,-7.938717,482.969116,3.274292,0.000000,41.660328,44.966239,6999.633286,-0.451996,-1.000000,-0.376026,0.229660
22.000000,2.591738,-0.241278,0.092438,1.320615,0.669617,-7.907937,483.058624,3.363800,0.000000,41.660330,44.966248,6999.633286,-0.848730,-1.000000,-0.189507,0.827972
22.100000,2.626333,-0.260301,0.093119,1.380536,0.777127,-7.887719,483.170837,3.476013,0.000000,41.660331,44.966258,6999.604641,-0.001950,-0.477603,-0.834115,-0.841695
22.200000,2.663723,-0.278756,0.088729,1.414940,0.854559,-7.861232,483.275665,3.580841,0.000000,41.660332,44.966267,6999.604641,-1.000000,-0.146003,-0.058636,1.000000
22.300000,2.710499,-0.298906,0.077223,1.438626,1.268168,-7.889835,483.397278,3.702454,0.000000,41.660333,44.966276,6999.574254,-0.516157,-1.000000,-0.011251,0.675429
22.400000,2.768080,-0.319639,0.055139,1.384801,1.669875,-7.943035,483.552521,3.857697,0.000000,41.660333,44.966286,6999.574254,-0.313409,1.000000,-1.000000,0.329330
22.500000,2.829348,-0.337608,0.026444,1.272144,1.702674,-7.965468,483.695313,4.000488,0.000000,41.660333,44.966296,6999.543909,-0.235522,1.000000,-0.059385,-1.000000
22.600000,2.890242,-0.354047,-0.002898,1.206457,1.690578,-7.916476,483.823792,4.128967,0.000000,41.660332,44.966305,6999.543909,-0.342503,0.022192,0.342969,-0.755814
22.700000,2.938393,-0.368343,-0.023048,1.254061,1.657734,-7.884837,483.929230,4.234436,0.000000,41.660331,44.966315,6999.513025,-0.203948,0.517229,0.063103,0.541881
22.800000,2.983886,-0.380278,-0.038289,1.323260,1.752793,-7.967403,484.011383,4.316559,0.000000,41.660330,44.966324,6999.513025,-1.000000,-0.094778,-0.477975,0.232635
22.900000,3.042330,-0.391340,-0.057090,1.325629,1.799142,-8.074742,484.096741,4.401917,0.000000,41.660328,44.966334,6999.480607,0.729546,0.448601,-0.129751,-0.559980
23.000000,3.101836,-0.399864,-0.074336,1.292792,1.423014,-8.191629,484.149475,4.454651,0.000000,41.660326,44.966343,6999.480607,0.309262,0.044711,0.873060,1.000000
23.100000,3.165549,-0.403950,-0.095798,1.190587,0.966852,-8.347344,484.144012,4.449188,0.000000,41.660324,44.966353,6999.448687,-0.098305,-1.000000,0.171012,-0.083998
23.200000,3.237634,-0.403458,-0.122964,1.036276,0.513310,-8.517108,484.083130,4.388306,0.000000,41.660322,44.966363,6999.448687,1.000000,-0.158872,-0.987558,0.409685
23.300000,3.310963,-0.397612,-0.153275,0.845904,0.086611,-8.688444,483.959991,4.265198,0.000000,41.660319,44.966372,6999.416476,-0.564982,-1.000000,-0.563769,0.275441
23.400000,3.377614,-0.387243,-0.180501,0.650703,-0.087395,-8.852534,483.798889,4.104095,0.000000,41.660317,44.966382,6999.416476,-0.199089,-0.670384,-0.096966,0.526205
23.500000,3.444948,-0.370865,-0.202453,0.432448,-0.156931,-9.027043,483.611542,3.916718,0.000000,41.660314,44.966391,6999.383312,1.000000,1.000000,-0.341613,-0.308977
23.600000,3.504763,-0.350940,-0.217097,0.230663,-0.529222,-9.159038,483.383759,3.688934,0.000000,41.660310,44.966401,6999.383312,-0.818279,0.928417,-0.499355,-0.310620
23.700000,3.543970,-0.331415,-0.213459,0.130706,-0.464798,-9.186639,483.149475,3.454651,0.000000,41.660307,44.966410,6999.353175,-0.502541,-0.581030,-0.581436,-0.997569
23.800000,3.565529,-0.310280,-0.184569,0.184152,-0.054769,-9.217415,482.950439,3.255615,0.000000,41.660303,44.966420,6999.353175,0.797181,-0.913170,0.337412,0.322732
23.900000,3.575233,-0.289525,-0.152556,0.344505,-0.563088,-9.307514,482.765991,3.071167,0.000000,41.660299,44.966429,6999.326477,-0.112346,1.000000,0.825062,0.304570
24.000000,3.581250,-0.269793,-0.128816,0.487553,-1.084285,-9.377066,482.556763,2.861938,0.000000,41.660295,44.966438,6999.326477,0.462605,-1.000000,-1.000000,0.442909
24.100000,3.586396,-0.247490,-0.105711,0.601335,-1.210341,-9.409452,482.315704,2.620880,0.000000,41.660290,44.966447,6999.302309,-0.812568,-1.000000,-0.333734,-0.265049
24.200000,3.589062,-0.223291,-0.080436,0.719818,-1.301037,-9.425821,482.094940,2.400116,0.000000,41.660286,44.966456,6999.302309,1.000000,0.239691,1.000000,0.651283
24.300000,3.591463,-0.199889,-0.061188,0.816294,-1.694547,-9.451567,481.877991,2.183167,0.000000,41.660281,44.966465,6999.281582,-0.340963,-1.000000,-0.177740,0.574344
24.400000,3.601254,-0.170796,-0.049081,0.640591,-1.422872,-8.973941,481.639130,1.944305,0.000000,41.660276,44.966474,6999.281582,0.382069,1.000000,1.000000,1.000000
24.500000,3.636555,-0.122679,-0.063896,0.158563,-0.239218,-8.279320,481.502228,1.807404,0.000000,41.660271,44.966482,6999.262678,-1.000000,0.862522,0.005962,1.000000
24.600000,3.690105,-0.062098,-0.120229,-0.299886,1.244311,-7.658756,481.492462,1.797638,0.000000,41.660267,44.966490,6999.262678,-1.000000,1.000000,-0.832731,-0.035780
24.700000,3.751006,-0.001817,-0.162127,-0.587078,2.194683,-7.709763,481.560760,1.865936,0.000000,41.660263,44.966497,6999.244314,-0.456332,0.192556,1.000000,0.978291
24.800000,3.809264,0.048967,-0.189319,-0.926749,2.656309,-7.783240,481.670746,1.975922,0.000000,41.660258,44.966505,6999.244314,0.831680,-0.962436,0.307805,-0.837517
24.900000,3.858848,0.089951,-0.207669,-1.310797,2.441413,-7.810786,481.757416,2.062592,0.000000,41.660254,44.966512,6999.226902,-0.689165,-0.694475,-0.928504,0.605431
25.000000,3.904480,0.127165,-0.221453,-1.725618,2.112214,-7.874181,481.796112,2.101288,0.000000,41.660249,44.966520,6999.226902,1.000000,-1.000000,-0.679903,1.000000
25.100000,3.954718,0.160490,-0.230202,-2.213879,1.894051,-7.959501,481.782806,2.087982,0.000000,41.660244,44.966528,6999.209408,-1.000000,-0.005438,1.000000,-0.691279
25.200000,4.005245,0.187578,-0.230127,-2.692235,1.964289,-7.954201,481.741760,2.046936,0.000000,41.660239,44.966535,6999.209408,-0.140478,0.119425,1.000000,0.525800
25.300000,4.059861,0.209152,-0.214203,-3.183784,2.290947,-7.973897,481.717133,2.022308,0.000000,41.660234,44.966543,6999.189303,-0.651569,0.511059,-1.000000,0.444155
25.400000,4.120008,0.224385,-0.189806,-3.768493,2.253895,-7.956736,481.707672,2.012848,0.000000,41.660229,44.966552,6999.189303,0.429001,-0.700780,0.117898,-0.659572
25.500000,4.176421,0.232907,-0.164943,-4.334746,2.054888,-7.883989,481.685974,1.991150,0.000000,41.660224,44.966560,6999.167290,-0.762186,0.916340,-1.000000,1.000000
25.600000,4.240318,0.236231,-0.137382,-4.943755,2.005272,-7.747868,481.654755,1.959930,0.000000,41.660219,44.966569,6999.167290,0.013782,0.283898,0.647140,0.763476
25.700000,4.308728,0.233217,-0.109410,-5.575934,1.990431,-7.533025,481.634705,1.939880,0.000000,41.660214,44.966577,6999.143288,-0.572829,1.000000,-0.694106,-1.000000
25.800000,4.370716,0.224601,-0.084130,-6.126002,2.096126,-7.209192,481.625977,1.931152,0.000000,41.660208,44.966586,6999.143288,-1.000000,0.380668,-1.000000,-0.154271
25.900000,4.422367,0.208364,-0.057632,-6.577766,2.498041,-6.913968,481.668610,1.973785,0.000000,41.660203,44.966596,6999.116756,-0.428116,-0.520957,0.181680,-1.000000
26.000000,4.460533,0.187177,-0.036102,-6.961899,2.579029,-6.665647,481.759491,2.064667,0.000000,41.660198,44.966605,6999.116756,-0.559327,1.000000,1.000000,-0.431457
26.100000,4.486126,0.165019,-0.020010,-7.262508,2.434541,-6.475251,481.859894,2.165070,0.000000,41.660193,44.966615,6999.089603,-0.334012,0.927898,1.000000,-0.436327
26.200000,4.508796,0.140725,-0.005532,-7.539686,2.123932,-6.295473,481.970062,2.275238,0.000000,41.660187,44.966624,6999.089603,-0.025633,-0.237967,0.822255,0.124232
26.300000,4.532014,0.116770,0.005344,-7.801731,1.564974,-6.100107,482.058960,2.364136,0.000000,41.660182,44.966634,6999.061331,0.956106,1.000000,0.531236,0.456947
26.400000,4.560391,0.095449,0.010288,-8.073414,0.717762,-5.913758,482.093506,2.398682,0.000000,41.660177,44.966644,6999.061331,0.948121,1.000000,0.151228,0.106910
26.500000,4.614879,0.074871,0.003082,-8.455135,-0.129413,-5.513674,482.052307,2.357483,0.000000,41.660172,44.966653,6999.031318,-0.038350,-1.000000,-0.057268,0.292190
26.600000,4.673598,0.056615,-0.010173,-8.776453,-0.624809,-4.985170,481.949463,2.254639,0.000000,41.660167,44.966663,6999.031318,-0.543626,0.652859,-0.165051,-1.000000
26.700000,4.721588,0.040750,-0.021106,-8.968255,-0.676035,-4.527029,481.837860,2.143036,0.000000,41.660162,44.966673,6999.001387,0.418698,-0.471858,-0.901864,0.731850
26.800000,4.767155,0.024794,-0.029117,-9.111752,-0.700401,-4.117842,481.726410,2.031586,0.000000,41.660156,44.966682,6999.001387,-0.564511,1.000000,0.208869,0.371544
26.900000,4.814292,0.009905,-0.035179,-9.224900,-0.594900,-3.734281,481.627045,1.932220,0.000000,41.660151,44.966692,6998.971249,-0.965084,-0.747822,0.766072,0.693466
27.000000,4.861633,-0.003846,-0.037461,-9.262544,0.287961,-3.369035,481.591949,1.897125,0.000000,41.660146,44.966702,6998.971249,-1.000000,0.253985,1.000000,0.759598
27.100000,4.915300,-0.020106,-0.039267,-9.270353,1.121215,-2.972945,481.671143,1.976318,0.000000,41.660141,44.966711,6998.942397,1.000000,0.827713,0.407653,-0.341123
27.200000,4.966988,-0.036982,-0.044361,-9.321550,0.923483,-2.524204,481.797668,2.102844,0.000000,41.660136,44.966720,6998.942397,-0.116220,-0.045051,-0.057430,-0.013368
27.300000,5.009897,-0.051616,-0.050982,-9.348066,0.316080,-2.151022,481.885986,2.191162,0.000000,41.660130,44.966729,6998.917441,0.194546,0.199300,1.000000,0.312475
27.400000,5.053715,-0.065325,-0.059870,-9.324564,-0.185324,-1.781729,481.933777,2.238983,0.000000,41.660125,44.966738,6998.917441,-0.478770,-1.000000,0.955353,-0.465757
27.500000,5.093947,-0.077576,-0.066894,-9.256078,-0.520464,-1.439522,481.955841,2.261017,0.000000,41.660120,44.966746,6998.895179,0.399938,-0.950657,1.000000,-0.671410
27.600000,5.124052,-0.087988,-0.068159,-9.170524,-0.971127,-1.148558,481.950958,2.256165,0.000000,41.660115,44.966755,6998.895179,0.000758,0.451599,-1.000000,-0.546156
27.700000,5.147702,-0.097723,-0.062309,-9.055992,-1.402940,-0.934636,481.907654,2.212830,0.000000,41.660110,44.966764,6998.872628,0.035957,-0.746991,0.167425,0.226672
27.800000,5.169782,-0.105734,-0.051075,-8.931818,-1.804271,-0.722385,481.835480,2.140625,0.000000,41.660105,44.966772,6998.872628,0.611118,-0.466737,0.187295,-1.000000
27.900000,5.185000,-0.111690,-0.035507,-8.810018,-2.000573,-0.512296,481.738159,2.043335,0.000000,41.660100,44.966781,6998.848874,-1.000000,-1.000000,1.000000,-0.550090
28.000000,5.189663,-0.116152,-0.011289,-8.657076,-1.556450,-0.366928,481.653046,1.958191,0.000000,41.660095,44.966789,6998.848874,-0.093438,0.064166,-0.726331,-1.000000
28.100000,5.182964,-0.119322,0.016643,-8.467901,-1.046501,-0.338614,481.630188,1.935333,0.000000,41.660090,44.966797,6998.823794,1.000000,0.197698,-0.316746,0.626929
28.200000,5.174134,-0.121558,0.038323,-8.294753,-1.212101,-0.369465,481.621277,1.926453,0.000000,41.660085,44.966805,6998.823794,-1.000000,0.551565,-0.147204,0.089215
28.300000,5.168015,-0.116197,0.039496,-8.013292,-0.897966,-0.421020,481.609100,1.914246,0.000000,41.660081,44.966813,6998.797843,-0.934213,-1.000000,-0.086790,0.572191
28.400000,5.167662,-0.108022,0.029579,-7.790431,-0.337208,-0.442463,481.643799,1.948944,0.000000,41.660077,44.966820,6998.797843,-0.045902,-0.137006,-0.583425,-0.984723
28.500000,5.167182,-0.101486,0.020238,-7.618760,-0.354596,-0.383009,481.694550,1.999725,0.000000,41.660073,44.966828,6998.773592,0.324492,-1.000000,0.363959,-0.903549
28.600000,5.155748,-0.094254,0.014429,-7.481116,-0.758739,-0.377536,481.713593,2.018768,0.000000,41.660069,44.966835,6998.773592,0.035432,0.996810,-0.753292,1.000000
28.700000,5.143664,-0.086589,0.009520,-7.342650,-0.818029,-0.474615,481.695099,2.000275,0.000000,41.660065,44.966842,6998.750004,-1.000000,-1.000000,0.827010,-0.406878
28.800000,5.140066,-0.080091,0.004828,-7.167028,-0.193091,-0.529738,481.700104,2.005280,0.000000,41.660061,44.966849,6998.750004,-0.790516,0.070941,-0.980097,-1.000000
28.900000,5.136110,-0.076081,0.004290,-6.955708,0.317301,-0.508511,481.773193,2.078369,0.000000,41.660057,44.966856,6998.725794,0.280091,-1.000000,-1.000000,-1.000000
29.000000,5.121522,-0.074209,0.010590,-6.801763,0.080661,-0.529954,481.851868,2.157043,0.000000,41.660053,44.966862,6998.725794,0.427830,0.092972,0.006444,1.000000
29.100000,5.108271,-0.073429,0.017527,-6.674116,-0.244562,-0.612502,481.887482,2.192657,0.000000,41.660050,44.966869,6998.701501,-1.000000,-0.431748,1.000000,0.965247
29.200000,5.106869,-0.074340,0.021331,-6.509644,-0.077472,-0.672985,481.917145,2.222321,0.000000,41.660046,44.966875,6998.701501,-0.538513,-0.428495,-0.722157,0.467717
29.300000,5.120402,-0.078761,0.022558,-6.292207,0.565084,-0.613488,481.993317,2.298462,0.000000,41.660043,44.966881,6998.676877,-1.000000,1.000000,-0.018472,-0.989148
29.400000,5.137685,-0.086704,0.026765,-6.111091,0.867584,-0.448169,482.118927,2.424103,0.000000,41.660040,44.966887,6998.676877,0.656805,-0.288708,-0.028067,-0.707852
29.500000,5.148005,-0.096799,0.036614,-5.971634,0.470430,-0.262459,482.248047,2.553223,0.000000,41.660037,44.966893,6998.650512,-0.619998,1.000000,1.000000,-1.000000
29.600000,5.149557,-0.107257,0.049957,-5.815607,0.073979,-0.143643,482.333832,2.639008,0.000000,41.660034,44.966898,6998.650512,0.186122,0.101642,0.069012,1.000000
29.700000,5.153826,-0.118199,0.060784,-5.647717,-0.190422,-0.074576,482.391327,2.696503,0.000000,41.660031,44.966904,6998.623732,-0.454777,-1.000000,1.000000,-0.771454
29.800000,5.166506,-0.131048,0.067389,-5.445064,-0.308126,0.062663,482.431458,2.736633,0.000000,41.660028,44.966909,6998.623732,-0.704895,0.317325,-0.585899,-1.000000
29.900000,5.176334,-0.144978,0.074600,-5.199149,-0.108007,0.262708,482.485474,2.790649,0.000000,41.660026,44.966915,6998.595998,-0.155449,0.357814,-0.905242,-1.000000
30.000000,5.173852,-0.158237,0.085876,-4.981592,-0.209876,0.420969,482.546082,2.851288,0.000000,41.660023,44.966920,6998.595998,0.675618,-0.525479,-0.669517,-1.000000
30.100000,5.158551,-0.170864,0.101112,-4.780464,-0.777869,0.555927,482.573883,2.879059,0.564606,41.660021,44.966925,6998.566399,-0.152122,-0.530928,-0.068245,-1.000000
30.200000,5.132317,-0.181091,0.117839,-4.572492,-1.172159,0.622785,482.548126,2.853302,0.550483,41.660019,44.966930,6998.566399,-0.819442,-0.387664,1.000000,0.733465
30.300000,5.108811,-0.189610,0.129258,-4.362727,-1.212909,0.616724,482.509735,2.814880,0.537460,41.660017,44.966935,6998.537630,0.606599,0.550203,1.000000,-0.602181
30.400000,5.090817,-0.197860,0.134194,-4.143466,-1.475795,0.664253,482.455475,2.760651,0.524260,41.660016,44.966940,6998.537630,0.717989,-0.073610,-1.000000,-0.989523
30.500000,5.068798,-0.203342,0.137212,-3.936894,-1.927736,0.784119,482.357391,2.662567,0.511297,41.660014,44.966945,6998.509689,-0.214705,1.000000,1.000000,-1.000000
30.600000,5.037060,-0.204384,0.141310,-3.760601,-2.095055,0.821118,482.229523,2.534698,0.499446,41.660013,44.966949,6998.509689,-0.652737,-1.000000,1.000000,0.833049
30.700000,5.002743,-0.201796,0.138852,-3.576744,-1.323556,0.718844,482.117859,2.423035,0.487524,41.660012,44.966954,6998.482246,-0.793031,-1.000000,0.856555,-1.000000
30.800000,4.972757,-0.197298,0.128856,-3.317258,-0.290377,0.658466,482.100800,2.405975,0.477282,41.660011,44.966958,6998.482246,-0.813319,0.745632,-1.000000,-0.194805
30.900000,4.944763,-0.194057,0.122233,-3.044310,0.179964,0.661093,482.152435,2.457611,0.470882,41.660011,44.966962,6998.457497,-0.349577,0.167326,1.000000,0.793666
31.000000,4.923442,-0.193032,0.115628,-2.777608,0.288549,0.654240,482.230072,2.535248,0.471986,41.660010,44.966965,6998.457497,0.279770,0.436936,0.710427,0.496016
31.100000,4.916846,-0.194191,0.105810,-2.544220,-0.138482,0.690948,482.284058,2.589233,0.480450,41.660010,44.966968,6998.434821,-0.000814,-0.067354,-1.000000,1.000000
31.200000,4.924460,-0.196442,0.093544,-2.320972,-0.480953,0.754870,482.289612,2.594818,0.493135,41.660010,44.966971,6998.434821,-0.481255,-0.403365,0.358213,-1.000000
31.300000,4.940042,-0.199128,0.081636,-2.070174,-0.585798,0.872619,482.273865,2.579041,0.508058,41.660010,44.966974,6998.413016,0.170598,-0.914329,-0.118812,0.167677
31.400000,4.956489,-0.201187,0.074492,-1.829047,-0.848770,0.985879,482.238098,2.543274,0.521628,41.660010,44.966977,6998.413016,0.157189,-1.000000,-0.257127,0.264795
31.500000,4.979240,-0.202679,0.068292,-1.604993,-1.244670,1.064892,482.165588,2.470764,0.534908,41.660010,44.966979,6998.390547,0.246578,0.977894,-0.280148,0.405658
31.600000,5.012362,-0.203390,0.060723,-1.364356,-1.452422,1.154489,482.048950,2.354126,0.546351,41.660010,44.966982,6998.390547,-1.000000,0.882643,-0.357377,-0.620903
31.700000,5.049926,-0.201924,0.054482,-1.119908,-0.940504,1.221122,481.946625,2.251801,0.550184,41.660010,44.966984,6998.366130,0.075874,-0.895510,1.000000,0.718471
31.800000,5.088927,-0.198659,0.050583,-0.866107,-0.542351,1.279966,481.892181,2.197357,0.546993,41.660011,44.966986,6998.366130,-0.832340,-0.668293,0.176094,-0.580875
31.900000,5.131643,-0.194276,0.049089,-0.554787,0.055567,1.348473,481.869690,2.174866,0.538883,41.660012,44.966987,6998.339226,-0.762835,-0.597193,-0.500442,-0.373348
32.000000,5.169041,-0.191069,0.052159,-0.199886,0.554662,1.400857,481.909027,2.214203,0.528615,41.660012,44.966988,6998.339226,-0.145932,-0.230371,1.000000,1.000000
32.100000,5.207834,-0.190128,0.053355,0.114462,0.701820,1.388818,481.961487,2.266663,0.522850,41.660014,44.966989,6998.312570,-0.922693,-0.974944,1.000000,1.000000
32.200000,5.259936,-0.190994,0.047226,0.478490,1.102541,1.338290,482.032928,2.338104,0.522246,41.660015,44.966990,6998.312570,-1.000000,-1.000000,-0.723381,-0.088205
32.300000,5.318090,-0.194292,0.036333,0.901235,2.056664,1.274843,482.172119,2.477295,0.526322,41.660016,44.966990,6998.286744,-1.000000,0.065927,0.467730,0.577358
32.400000,5.375914,-0.199879,0.022990,1.295167,2.912963,1.184393,482.383087,2.688263,0.534026,41.660018,44.966990,6998.286744,-1.000000,-0.446301,0.204259,0.458259
32.500000,5.441948,-0.207650,0.003887,1.687104,3.740922,1.049448,482.684204,2.989380,0.543640,41.660020,44.966989,6998.260917,-1.000000,-0.685270,0.343127,0.710615
32.600000,5.512053,-0.215774,-0.021283,2.037852,4.209879,0.911675,483.050171,3.355347,0.553568,41.660023,44.966988,6998.260917,1.000000,0.217598,-1.000000,-1.000000
32.700000,5.574786,-0.222085,-0.045967,2.308987,3.865999,0.846774,483.389587,3.694763,0.564339,41.660025,44.966987,6998.234884,-1.000000,-0.016847,-0.440526,0.259447
32.800000,5.633197,-0.226937,-0.069101,2.590885,3.395555,0.755630,483.694214,3.999359,0.573913,41.660028,44.966985,6998.234884,-0.093218,-0.060313,0.559366,-1.000000
32.900000,5.684783,-0.231235,-0.087592,2.904076,3.371095,0.628032,483.970032,4.275208,0.583040,41.660031,44.966984,6998.207648,-1.000000,-0.343628,1.000000,-1.000000
33.000000,5.723563,-0.236078,-0.097159,3.210374,3.619364,0.506399,484.226685,4.531860,0.591509,41.660034,44.966982,6998.207648,-0.824313,0.121877,0.424872,0.131209
33.100000,5.759672,-0.243011,-0.098983,3.546969,4.305113,0.307238,484.539825,4.845001,0.599158,41.660037,44.966980,6998.178380,-1.000000,0.393849,0.218526,-1.000000
33.200000,5.792940,-0.251474,-0.092194,3.855152,4.827261,0.093717,484.902924,5.208069,0.606270,41.660041,44.966978,6998.178380,-0.494884,0.486599,-1.000000,-0.537307
33.300000,5.818745,-0.260417,-0.080090,4.109318,4.797399,-0.108151,485.256409,5.561584,0.612749,41.660045,44.966976,6998.148989,-0.088234,-1.000000,-0.235487,-0.438188
33.400000,5.842744,-0.269830,-0.066475,4.373105,4.544728,-0.291222,485.598236,5.903412,0.618742,41.660050,44.966973,6998.148989,-0.760540,-1.000000,1.000000,-0.792771
33.500000,5.861261,-0.279224,-0.051570,4.648975,4.305648,-0.427812,485.907410,6.212616,0.624119,41.660054,44.966970,6998.118810,0.578999,-0.032292,-0.177936,-0.672214
33.600000,5.872959,-0.287432,-0.036498,4.900418,3.793792,-0.515902,486.151062,6.456207,0.628790,41.660059,44.966968,6998.118810,-0.567921,-0.661304,-0.270958,1.000000
33.700000,5.889429,-0.294810,-0.025270,5.203702,3.475441,-0.680077,486.350067,6.655243,0.633175,41.660064,44.966965,6998.087138,-0.794775,0.160206,-1.000000,0.168839
33.800000,5.919114,-0.301915,-0.023434,5.555057,3.765613,-0.928105,486.536499,6.841675,0.637394,41.660069,44.966963,6998.087138,-0.706134,1.000000,0.843228,1.000000
33.900000,5.959134,-0.308476,-0.028782,5.844891,3.797635,-1.216009,486.721313,7.026520,0.640895,41.660075,44.966960,6998.055798,0.430045,-1.000000,-1.000000,0.445887
34.000000,6.012592,-0.313324,-0.042638,6.103299,3.454456,-1.556952,486.880585,7.185760,0.644163,41.660080,44.966957,6998.055798,-0.943526,1.000000,-1.000000,-0.603888
34.100000,6.066866,-0.315567,-0.058958,6.346124,2.963589,-1.838767,486.988861,7.294006,0.647090,41.660086,44.966953,6998.024043,1.000000,-0.089983,-0.909901,-0.352232
34.200000,6.108884,-0.315742,-0.069756,6.582106,2.425702,-2.051550,487.029053,7.334229,0.646828,41.660092,44.966951,6998.024043,-1.000000,1.000000,-1.000000,-0.667416
34.300000,6.142889,-0.314649,-0.074875,6.858363,1.989505,-2.228248,487.011261,7.316437,0.638346,41.660099,44.966948,6997.990879,-1.000000,0.255995,-1.000000,-0.995899
34.400000,6.162932,-0.313862,-0.070484,7.220292,2.349156,-2.360943,486.974213,7.279419,0.623373,41.660105,44.966945,6997.990879,-0.960558,1.000000,-1.000000,0.609826
34.500000,6.179100,-0.314585,-0.063114,7.578739,2.852293,-2.566388,486.983917,7.289093,0.605360,41.660112,44.966942,6997.958461,-0.189184,-0.048692,1.000000,1.000000
34.600000,6.205809,-0.315310,-0.061976,7.891008,2.910399,-2.885883,487.004395,7.309570,0.587654,41.660120,44.966939,6997.958461,-0.570072,-0.888385,-0.174328,1.000000
34.700000,6.244043,-0.314801,-0.070246,8.148029,2.846289,-3.266421,487.009491,7.314667,0.570800,41.660127,44.966936,6997.926292,-0.183791,-0.945019,1.000000,0.300993
34.800000,0.001205,-0.312942,-0.084143,8.348887,2.630347,-3.632613,486.993622,7.298798,0.554577,41.660135,44.966933,6997.926292,1.000000,0.307231,1.000000,0.562071
34.900000,0.045255,-0.308632,-0.104117,8.504477,1.910530,-4.036124,486.917236,7.222382,0.539488,41.660143,44.966930,6997.895699,0.731390,-0.187359,-0.619167,1.000000
35.000000,0.092319,-0.300931,-0.130958,8.611742,1.036289,-4.494225,486.746246,7.051392,0.525255,41.660152,44.966927,6997.895699,0.363270,-0.845987,1.000000,0.656578
35.100000,0.137511,-0.290892,-0.159556,8.689627,0.498127,-4.964141,486.506989,6.812134,0.512295,41.660160,44.966924,6997.868089,-0.432391,0.365410,0.179232,0.653734
35.200000,0.183237,-0.278167,-0.187638,8.764479,0.413617,-5.477548,486.206238,6.511414,0.500150,41.660168,44.966921,6997.868089,-1.000000,-0.446416,-0.553540,0.360395
35.300000,0.223975,-0.264724,-0.205974,8.867352,1.103276,-5.963348,485.923950,6.229126,0.488903,41.660177,44.966918,6997.841931,-0.511916,-0.588131,0.287446,0.239229
35.400000,0.256242,-0.252944,-0.209954,8.989519,1.792270,-6.384230,485.718811,6.023987,0.477822,41.660186,44.966915,6997.841931,-1.000000,-1.000000,-0.234305,-0.449973
35.500000,0.282710,-0.242586,-0.202103,9.135765,1.949790,-6.784426,485.548798,5.853973,0.470067,41.660196,44.966911,6997.817183,1.000000,-0.521619,-0.668328,1.000000
35.600000,0.304366,-0.233575,-0.191130,9.249285,1.313413,-7.142177,485.355316,5.660492,0.467969,41.660206,44.966908,6997.817183,0.904969,-1.000000,-0.691471,-0.065261
35.700000,0.321430,-0.225446,-0.182104,9.337327,0.350806,-7.402029,485.104156,5.409332,0.472873,41.660216,44.966905,6997.795709,0.996426,-0.087323,1.000000,-0.628295
35.800000,0.328566,-0.218271,-0.171344,9.492117,-0.685391,-7.517399,484.741852,5.047028,0.480353,41.660226,44.966902,6997.795709,-0.827558,-0.491650,0.167985,0.057869
35.900000,0.322304,-0.213031,-0.155450,9.746745,-1.178825,-7.468886,484.313171,4.618347,0.486477,41.660236,44.966899,6997.776018,-0.098923,0.988024,0.674748,-1.000000
36.000000,0.302550,-0.209492,-0.130505,10.082351,-1.290601,-7.239246,483.903900,4.209076,0.490506,41.660246,44.966896,6997.776018,0.865077,-1.000000,-0.500079,-0.590091
36.100000,0.265241,-0.206624,-0.096758,10.530831,-1.706615,-6.793705,483.456604,3.761780,0.494154,41.660256,44.966894,6997.754793,-0.693552,1.000000,-0.383641,-0.485057
36.200000,0.215727,-0.203064,-0.059560,11.024704,-2.027301,-6.160605,482.995880,3.301025,0.497624,41.660267,44.966891,6997.754793,1.000000,-0.520206,0.595185,-1.000000
36.300000,0.159735,-0.197902,-0.023063,11.495746,-2.309650,-5.435658,482.553619,2.858826,0.500545,41.660277,44.966889,6997.733195,-0.561336,0.377142,-0.544475,0.771724
36.400000,0.101443,-0.189306,0.011218,11.923893,-2.359106,-4.685188,482.081512,2.386688,0.503131,41.660288,44.966886,6997.733195,0.367577,0.184074,-0.382207,0.956397
36.500000,0.051981,-0.176978,0.033068,11.940112,-2.125765,-3.954613,481.637390,1.942566,0.504163,41.660299,44.966884,6997.711555,0.982595,-0.086202,0.784725,-0.483984
36.600000,0.024047,-0.166162,-0.015816,8.785436,0.530223,-2.877288,481.384918,1.690094,0.502936,41.660308,44.966882,6997.711555,-1.000000,-0.234188,-0.954683,-0.871238
36.700000,6.274951,-0.163898,-0.049600,6.078771,2.835349,-1.622238,481.469452,1.774628,0.498372,41.660315,44.966881,6997.689087,-1.000000,-0.889709,-0.427928,-0.876259
36.800000,6.225670,-0.166599,-0.049836,6.289078,3.381623,-1.236269,481.670349,1.975525,0.492172,41.660321,44.966880,6997.689087,-0.625862,-0.742016,0.645285,1.000000
36.900000,6.180514,-0.171545,-0.046473,6.580766,3.626084,-0.998230,481.899231,2.204407,0.488551,41.660327,44.966879,6997.667198,-0.114048,1.000000,-0.215050,1.000000
