t,yaw,pitch,roll,speed.x,speed.y,speed.z,altBar,altRad,egt,myloclat,myloclon,weightlb,collective,bank,pitch,rudder
0.100000,5.374761,0.031623,0.000897,-0.097813,0.517323,0.029861,481.239288,1.544464,0.000000,41.659724,44.965707,7004.964901,0.104167,-1.000000,-0.468135,0.580542
0.200000,5.373184,0.037354,0.003698,-0.064956,0.115559,0.055628,481.265289,1.570465,0.000000,41.659724,44.965707,7004.964901,1.000000,1.000000,0.284997,-0.750801
0.300000,5.370803,0.041390,0.008118,-0.061470,-0.042481,0.079475,481.268005,1.573181,0.000000,41.659724,44.965707,7000.556034,0.503909,1.000000,-0.856124,-0.703110
0.400000,5.364095,0.043631,0.011875,-0.024056,0.046309,0.018820,481.265076,1.570251,0.000000,41.659724,44.965707,7000.556034,-1.000000,-1.000000,-0.485830,1.000000
0.500000,5.361615,0.042432,0.008444,0.037656,0.249190,-0.122233,481.278168,1.583344,0.000000,41.659724,44.965707,7000.556034,0.088758,1.000000,-1.000000,1.000000
0.600000,5.367197,0.039520,0.000840,0.076222,0.300614,-0.171929,481.309814,1.614990,0.000000,41.659724,44.965707,7000.556034,0.329372,-0.016461,-0.014380,-0.769642
0.700000,5.376789,0.034922,-0.006752,0.092370,0.031131,-0.157901,481.324310,1.629486,0.000000,41.659724,44.965707,7000.541649,-0.466979,-0.964770,-0.154397,-0.405167
0.800000,5.378134,0.028811,-0.009359,0.137955,0.084355,-0.097366,481.324799,1.629974,0.000000,41.659724,44.965706,7000.541649,-0.400514,1.000000,-1.000000,-1.000000
0.900000,5.368241,0.020984,-0.004630,0.200279,0.304410,-0.044320,481.347260,1.652435,0.000000,41.659724,44.965706,7000.527388,0.034703,-1.000000,1.000000,-0.523133
1.000000,5.346742,0.011077,0.006254,0.248273,0.212295,0.027021,481.374878,1.680054,0.000000,41.659724,44.965706,7000.527388,-0.285499,-0.496645,-1.000000,-1.000000
1.100000,5.317970,0.000305,0.020742,0.298908,0.077084,0.077885,481.389618,1.694794,0.000000,41.659725,44.965706,7000.511884,0.084178,0.582267,1.000000,0.477317
1.200000,5.292732,-0.010257,0.033254,0.340978,0.143009,0.121337,481.395355,1.700531,0.000000,41.659725,44.965706,7000.511884,-0.686060,0.820864,0.794016,1.000000
1.300000,5.275275,-0.021242,0.032415,0.414693,0.668167,0.123494,481.430542,1.735718,0.000000,41.659725,44.965705,7000.493519,-1.000000,1.000000,1.000000,-0.410517
1.400000,5.267311,-0.034801,0.030984,0.575374,1.476732,0.111731,481.538361,1.843536,0.000000,41.659726,44.965705,7000.493519,-0.747960,0.575282,-1.000000,-0.009623
1.500000,5.265139,-0.049837,0.031641,0.691692,1.787724,0.113417,481.699921,2.005096,0.000000,41.659726,44.965705,7000.472958,0.687759,1.000000,0.811082,0.834745
1.600000,5.272948,-0.066283,0.031056,0.778911,1.471479,0.109530,481.861694,2.166870,0.000000,41.659727,44.965704,7000.472958,-1.000000,-1.000000,-1.000000,0.151359
1.700000,5.291264,-0.082747,0.028290,0.918715,1.443476,0.105499,481.997070,2.302246,0.000000,41.659727,44.965703,7000.450075,-0.628761,0.335001,0.190358,-0.357361
1.800000,5.311769,-0.099255,0.025754,1.088561,1.721576,0.118014,482.143646,2.448822,0.000000,41.659728,44.965702,7000.450075,-0.298709,0.478300,-0.322165,-0.855470
1.900000,5.329451,-0.117098,0.026781,1.267446,1.895482,0.171118,482.311188,2.616364,0.000000,41.659729,44.965701,7000.424497,-1.000000,-0.843001,0.158178,-0.493786
2.000000,5.341637,-0.135305,0.033402,1.470538,2.243785,0.205297,482.500824,2.806000,0.000000,41.659730,44.965700,7000.424497,-0.445334,0.349482,-1.000000,-0.537999
2.100000,5.352877,-0.153143,0.043379,1.680478,2.642019,0.198268,482.710693,3.015869,0.000000,41.659732,44.965699,7000.398214,-1.000000,0.392455,0.668625,0.968853
2.200000,5.374006,-0.173475,0.054315,1.930534,3.273873,0.120216,482.972076,3.277252,0.000000,41.659733,44.965697,7000.398214,-1.000000,-0.338737,1.000000,1.000000
2.300000,5.409641,-0.195797,0.061898,2.183908,4.145456,-0.009586,483.305634,3.610840,0.000000,41.659735,44.965695,7000.370564,-1.000000,0.242513,-0.030700,-0.576016
2.400000,5.451441,-0.217365,0.066655,2.413050,4.896674,-0.138688,483.685730,3.990906,0.000000,41.659737,44.965693,7000.370564,-1.000000,-0.331422,-0.118315,1.000000
2.500000,5.501494,-0.239872,0.069113,2.628048,5.203713,-0.269177,484.138702,4.443878,0.000000,41.659740,44.965690,7000.340965,0.649268,1.000000,0.383259,-1.000000
2.600000,5.552973,-0.259787,0.069045,2.818609,4.808774,-0.353168,484.567200,4.872375,0.000000,41.659743,44.965688,7000.340965,-1.000000,-0.036371,0.547794,-0.196473
2.700000,5.595803,-0.275304,0.070490,3.044056,4.638327,-0.395182,484.926300,5.231476,0.000000,41.659746,44.965685,7000.311366,-0.805733,1.000000,1.000000,-1.000000
2.800000,5.633599,-0.289667,0.076695,3.358710,5.178156,-0.453210,485.315918,5.621094,0.000000,41.659749,44.965682,7000.311366,-1.000000,1.000000,-0.123707,-0.825430
2.900000,5.662470,-0.302512,0.088270,3.662900,5.318432,-0.510407,485.733307,6.038483,0.000000,41.659753,44.965679,7000.280938,0.969984,0.072711,1.000000,-0.151991
3.000000,5.686655,-0.312336,0.099309,3.920407,4.761837,-0.533881,486.089874,6.395050,0.000000,41.659757,44.965677,7000.280938,0.144704,-1.000000,1.000000,-0.808232
3.100000,5.711364,-0.319659,0.109239,4.215474,4.101706,-0.547985,486.389252,6.694427,0.000000,41.659761,44.965674,7000.249059,-1.000000,0.993749,0.051439,0.506588
3.200000,5.739611,-0.325040,0.116070,4.578661,4.125242,-0.599449,486.641357,6.946533,0.000000,41.659766,44.965671,7000.249059,-1.000000,-1.000000,0.648538,-0.548671
3.300000,5.772597,-0.330267,0.118753,4.965783,4.615880,-0.734132,486.897461,7.202637,0.000000,41.659771,44.965668,7000.217595,-0.584027,0.409029,-1.000000,1.000000
3.400000,5.816496,-0.336397,0.114531,5.366821,5.037861,-0.898628,487.196686,7.501862,0.000000,41.659776,44.965665,7000.217595,-1.000000,-0.476911,1.000000,-1.000000
3.500000,5.863017,-0.341612,0.107122,5.728944,5.015689,-1.047958,487.505920,7.811096,0.000000,41.659782,44.965662,7000.185674,0.741443,0.298003,-0.850924,0.863706
3.600000,5.909341,-0.344185,0.096674,6.038647,4.555277,-1.230306,487.756927,8.062103,0.000000,41.659788,44.965660,7000.185674,-1.000000,-1.000000,0.284490,-0.263332
3.700000,5.965164,-0.344238,0.078912,6.369412,4.144364,-1.424380,487.968353,8.273529,0.000000,41.659794,44.965657,7000.152469,0.460608,0.659089,-0.277418,-0.705215
3.800000,6.014905,-0.340849,0.063428,6.699457,3.645668,-1.580270,488.131348,8.436523,0.000000,41.659801,44.965654,7000.152469,0.239228,-0.039825,-0.057899,0.376244
3.900000,6.060364,-0.334654,0.048618,6.980003,2.893586,-1.778472,488.217346,8.522522,0.000000,41.659807,44.965651,7000.119885,0.387483,0.712801,0.759844,0.825928
4.000000,6.115272,-0.325188,0.027456,7.240652,2.035329,-2.083849,488.227356,8.532532,0.000000,41.659814,44.965649,7000.119885,0.726318,0.148874,-0.378832,0.559700
4.100000,6.175976,-0.312638,0.000428,7.457998,1.275003,-2.460764,488.151672,8.456848,0.000000,41.659821,44.965646,7000.087136,-0.986869,-1.000000,0.830815,0.667888
4.200000,6.234330,-0.298418,-0.027857,7.637372,0.872145,-2.862115,488.027313,8.332489,0.000000,41.659827,44.965643,7000.087136,0.842042,-0.590563,-0.433975,0.239817
4.300000,0.011051,-0.281306,-0.058350,7.775481,0.280252,-3.315236,487.848572,8.153717,0.000000,41.659834,44.965641,7000.053143,0.203712,0.122681,0.419936,1.000000
4.400000,0.068454,-0.262323,-0.089453,7.851127,-0.500068,-3.795199,487.596954,7.902130,0.000000,41.659841,44.965638,7000.053143,-0.729952,-0.030271,0.976273,0.576685
4.500000,0.117340,-0.243609,-0.116907,7.897140,-1.042048,-4.229557,487.294159,7.599335,0.000000,41.659849,44.965636,7000.020891,0.060830,1.000000,0.034281,-1.000000
4.600000,0.156641,-0.225017,-0.137077,7.988755,-0.992236,-4.601940,486.946136,7.251312,0.000000,41.659856,44.965633,7000.020891,-0.822407,0.292106,0.955704,0.852927
4.700000,0.186081,-0.208880,-0.146377,8.131065,-0.349037,-4.956420,486.626801,6.931976,0.000000,41.659864,44.965631,6999.991748,-1.000000,-0.760594,-0.941980,1.000000
4.800000,0.213729,-0.195814,-0.147632,8.266651,0.389247,-5.333927,486.408783,6.713959,0.000000,41.659872,44.965628,6999.991748,0.268773,-1.000000,0.541567,-0.172919
4.900000,0.239693,-0.184256,-0.143941,8.362212,0.196817,-5.636223,486.203186,6.508362,0.000000,41.659880,44.965626,6999.965424,-0.290453,-0.648193,-1.000000,-0.689060
5.000000,0.252149,-0.176040,-0.134238,8.514573,-0.031034,-5.791825,485.971436,6.276611,0.000000,41.659889,44.965623,6999.965424,-1.000000,-1.000000,1.000000,0.795813
5.100000,0.257153,-0.171070,-0.120816,8.709847,0.245918,-5.910887,485.768066,6.073212,0.000000,41.659898,44.965620,6999.943121,-0.120519,-0.506676,0.854397,-0.793909
5.200000,0.256424,-0.168277,-0.102713,8.940203,0.351133,-5.947861,485.584900,5.890076,0.000000,41.659907,44.965618,6999.943121,0.442513,-0.528243,-0.560606,0.074172
5.300000,0.244432,-0.167731,-0.082410,9.204000,-0.145119,-5.841233,485.386902,5.692047,0.000000,41.659916,44.965615,6999.923140,-0.227728,0.057008,0.791640,1.000000
5.400000,0.230862,-0.168038,-0.066269,9.470126,-0.416470,-5.761336,485.165039,5.470215,0.000000,41.659926,44.965613,6999.923140,-0.521046,0.794979,-1.000000,0.044868
5.500000,0.220501,-0.169203,-0.051108,9.774901,0.072104,-5.698730,484.942474,5.247650,0.000000,41.659935,44.965611,6999.902619,-1.000000,0.138471,-0.116675,0.844097
5.600000,0.214532,-0.172439,-0.033443,10.096271,1.134584,-5.676402,484.802307,5.107483,0.000000,41.659945,44.965608,6999.902619,-1.000000,-1.000000,-0.998739,-0.113871
5.700000,0.211590,-0.178053,-0.015346,10.379306,1.863538,-5.669042,484.767395,5.072571,0.000000,41.659956,44.965606,6999.880939,-0.329431,0.823906,0.752319,0.151181
5.800000,0.208425,-0.186230,0.002056,10.659563,2.286589,-5.648411,484.778229,5.083405,0.000000,41.659966,44.965604,6999.880939,-1.000000,-0.162960,0.753189,0.599862
5.900000,0.208065,-0.196210,0.015802,10.924741,2.745101,-5.646232,484.825989,5.131165,0.000000,41.659977,44.965603,6999.857268,-0.389715,-0.319640,-0.624476,-0.295139
6.000000,0.209245,-0.206963,0.026650,11.166728,3.190584,-5.627809,484.904419,5.209595,0.000000,41.659988,44.965601,6999.857268,-1.000000,-0.871342,-1.000000,-0.866880
6.100000,0.203361,-0.219001,0.040238,11.444262,3.311413,-5.465576,485.009888,5.315063,0.000000,41.660000,44.965600,6999.831027,1.000000,0.638389,-0.601390,-0.477464
6.200000,0.186606,-0.229994,0.055324,11.741854,2.826469,-5.164618,485.079742,5.384949,0.000000,41.660012,44.965599,6999.831027,0.111390,0.104578,-1.000000,1.000000
6.300000,0.169987,-0.238621,0.065646,12.017823,2.145401,-4.885013,485.074554,5.379730,0.000000,41.660023,44.965598,6999.804122,1.000000,-1.000000,1.000000,-0.343719
6.400000,0.155427,-0.245987,0.070669,12.314924,1.545853,-4.593927,484.987579,5.292755,0.000000,41.660035,44.965597,6999.804122,-0.740506,0.616701,-0.163914,-0.940909
6.500000,0.137264,-0.251475,0.074878,12.666629,1.451218,-4.203924,484.846802,5.152008,0.000000,41.660047,44.965596,6999.775974,-0.838388,0.675502,-0.288377,-0.320857
6.600000,0.113219,-0.255523,0.084325,13.068696,2.212679,-3.786369,484.728851,5.034027,0.000000,41.660059,44.965596,6999.775974,-1.000000,-0.271575,0.460385,0.458407
6.700000,0.091606,-0.260307,0.097529,13.479209,2.954055,-3.458024,484.678711,4.983887,0.000000,41.660071,44.965596,6999.746002,-0.132096,0.779721,-1.000000,1.000000
6.800000,0.084785,-0.266374,0.106608,13.805604,3.134932,-3.330886,484.654327,4.959534,0.000000,41.660084,44.965596,6999.746002,0.318641,-0.988056,-0.773922,0.753869
6.900000,0.092136,-0.272408,0.108953,14.036216,2.784153,-3.336891,484.605072,4.910248,0.000000,41.660097,44.965596,6999.716321,-0.149557,-0.620741,1.000000,-1.000000
7.000000,0.102444,-0.277319,0.111249,14.289745,2.540213,-3.298466,484.503174,4.808350,0.000000,41.660110,44.965597,6999.716321,-1.000000,-0.041856,-0.251516,-1.000000
7.100000,0.101938,-0.279757,0.122021,14.624001,3.040532,-3.102452,484.399109,4.704285,0.000000,41.660124,44.965598,6999.685975,-1.000000,1.000000,-0.360294,1.000000
7.200000,0.095284,-0.281028,0.139102,15.001424,4.224563,-2.933857,484.373688,4.678864,0.000000,41.660137,44.965599,6999.685975,-1.000000,0.525776,1.000000,1.000000
7.300000,0.096180,-0.283557,0.156143,15.350714,4.885478,-2.913172,484.437744,4.742920,0.000000,41.660152,44.965601,6999.654097,0.629614,-0.977346,0.378453,0.091923
7.400000,0.108183,-0.286197,0.167099,15.629204,4.685440,-2.984638,484.504486,4.809662,0.000000,41.660166,44.965603,6999.654097,-1.000000,-0.679013,0.281721,-0.940801
7.500000,0.119977,-0.286916,0.177371,15.917390,4.711760,-2.975352,484.544220,4.849365,0.000000,41.660181,44.965606,6999.622591,-0.780689,1.000000,-0.316893,-1.000000
7.600000,0.121584,-0.284881,0.196686,16.292342,5.199430,-2.795222,484.615509,4.920685,0.000000,41.660196,44.965609,6999.622591,-0.346670,-0.042319,-1.000000,0.007120
7.700000,0.116166,-0.280634,0.221186,16.678315,5.484200,-2.530870,484.710419,5.015594,0.000000,41.660211,44.965613,6999.590712,-1.000000,0.858294,1.000000,-0.789159
7.800000,0.108847,-0.275455,0.245388,17.064271,6.118822,-2.266046,484.831818,5.136993,0.000000,41.660227,44.965617,6999.590712,-1.000000,-0.636487,-0.336808,1.000000
7.900000,0.107064,-0.271100,0.268273,17.477645,7.185337,-2.139875,485.044342,5.349518,0.000000,41.660243,44.965622,6999.557506,-1.000000,-0.646426,-0.480030,-0.082186
8.000000,0.116905,-0.269125,0.285336,17.865158,8.153186,-2.200592,485.348389,5.653564,0.000000,41.660260,44.965627,6999.557506,-1.000000,0.570361,-0.485491,1.000000
8.100000,0.134696,-0.268470,0.297333,18.200403,8.475704,-2.340551,485.694916,6.000092,0.000000,41.660277,44.965634,6999.525006,-0.071443,1.000000,-0.746519,-1.000000
8.200000,0.156301,-0.266441,0.307688,18.526208,8.132561,-2.469805,486.054047,6.359222,0.000000,41.660294,44.965641,6999.525006,-0.136300,0.898411,-0.915819,1.000000
8.300000,0.179448,-0.261992,0.314193,18.842022,7.501965,-2.567507,486.362091,6.667267,0.000000,41.660311,44.965648,6999.492215,-0.530236,0.463469,0.917593,-0.967010
8.400000,0.201542,-0.255754,0.317972,19.169940,7.284815,-2.625322,486.617493,6.922668,0.000000,41.660328,44.965656,6999.492215,-1.000000,-0.936554,0.214256,-0.464004
8.500000,0.218958,-0.245937,0.323999,19.565616,7.556295,-2.571263,486.903351,7.208527,0.000000,41.660345,44.965664,6999.458263,-0.507307,0.626024,0.472507,0.953645
8.600000,0.238621,-0.235769,0.327908,19.944778,7.589995,-2.602451,487.220856,7.526031,0.000000,41.660363,44.965673,6999.458263,-0.510797,0.036039,0.156950,-0.083824
8.700000,0.264617,-0.227338,0.326563,20.281831,7.646585,-2.760216,487.528473,7.833618,0.000000,41.660380,44.965683,6999.425140,-1.000000,-0.352969,-0.863480,1.000000
8.800000,0.298781,-0.219386,0.321728,20.612898,7.610787,-3.033471,487.883820,8.188995,0.000000,41.660398,44.965693,6999.425140,0.227099,-0.247029,0.952289,-0.462786
8.900000,0.333691,-0.210130,0.315489,20.906307,7.206547,-3.259524,488.231689,8.536865,0.000000,41.660416,44.965704,6999.391935,-1.000000,0.156727,0.174202,-0.651993
9.000000,0.357740,-0.197338,0.313292,21.190776,6.651486,-3.249522,488.540375,8.845551,0.000000,41.660434,44.965715,6999.391935,1.000000,1.000000,-1.000000,-0.563635
9.100000,0.372282,-0.179388,0.314510,21.495046,5.753922,-3.031312,488.820251,9.125458,0.000000,41.660452,44.965727,6999.357527,-1.000000,0.160179,0.318608,0.849552
9.200000,0.385193,-0.161096,0.313244,21.789719,5.151544,-2.839776,489.051575,9.356750,0.000000,41.660469,44.965739,6999.357527,-1.000000,-0.415531,-0.580424,1.000000
9.300000,0.403049,-0.147245,0.306911,22.075006,5.435948,-2.828575,489.284027,9.589203,0.000000,41.660487,44.965751,6999.324322,-0.601160,-0.978627,-1.000000,-0.555700
9.400000,0.420394,-0.134327,0.298491,22.356622,5.703170,-2.737824,489.595459,9.900635,0.000000,41.660505,44.965764,6999.324322,0.741827,1.000000,0.067821,-0.486021
9.500000,0.424917,-0.118582,0.292818,22.595354,5.066012,-2.270195,489.907227,10.212402,0.000000,41.660523,44.965778,6999.292236,-0.246146,1.000000,-0.766786,-1.000000
9.600000,0.412857,-0.099179,0.291069,22.797148,4.165517,-1.477528,490.143768,10.448944,0.000000,41.660540,44.965792,6999.292236,1.000000,-0.566271,-0.770187,0.708508
9.700000,0.394121,-0.077504,0.287980,22.980745,3.398021,-0.597569,490.331787,10.636963,0.000000,41.660558,44.965807,6999.262015,-1.000000,0.674892,-1.000000,0.265555
9.800000,0.380442,-0.059236,0.280365,23.140533,3.122172,0.109579,490.489685,10.794861,0.000000,41.660576,44.965821,6999.262015,-1.000000,-0.599300,-1.000000,0.640514
9.900000,0.371905,-0.045779,0.271686,23.290315,3.546220,0.639794,490.671204,10.976379,0.000000,41.660593,44.965836,6999.235857,0.693596,-0.608321,0.320261,-0.232648
10.000000,0.364411,-0.033903,0.262613,23.395501,3.449364,1.167695,490.898956,11.204132,0.000000,41.660611,44.965851,6999.235857,-1.000000,-1.000000,0.041174,1.000000
10.100000,0.361652,-0.024555,0.251964,23.486247,3.620456,1.522289,491.136139,11.441315,0.000000,41.660628,44.965867,6999.211647,-0.887890,-0.113066,0.903502,0.170648
10.200000,0.365235,-0.018065,0.240732,23.586073,4.252211,1.700023,491.423859,11.729034,0.000000,41.660645,44.965883,6999.211647,0.871487,1.000000,0.296149,-1.000000
10.300000,0.365791,-0.010475,0.232199,23.648725,4.014099,2.077359,491.760986,12.066162,0.000000,41.660662,44.965900,6999.188764,-0.740235,1.000000,0.157084,-1.000000
10.400000,0.350864,0.001239,0.231552,23.656108,3.668229,2.834932,492.067688,12.372894,0.000000,41.660680,44.965917,6999.188764,0.037034,-0.925343,-1.000000,-0.548022
10.500000,0.324657,0.014870,0.238312,23.623118,3.757547,3.777188,492.358185,12.663361,0.000000,41.660697,44.965934,6999.167953,-0.787451,0.321040,-0.079879,-1.000000
10.600000,0.286816,0.030998,0.250675,23.504889,4.089170,4.994365,492.689240,12.994446,0.000000,41.660713,44.965952,6999.167953,-0.502057,0.306192,0.951063,-1.000000
10.700000,0.240792,0.048558,0.268100,23.256446,4.348759,6.370551,493.057648,13.362823,0.000000,41.660730,44.965970,6999.147060,0.840094,-0.213339,-1.000000,-0.457994
10.800000,0.196708,0.065524,0.284987,22.897917,4.021269,7.662446,493.386566,13.691742,0.000000,41.660747,44.965988,6999.147060,-0.476206,1.000000,-0.750232,1.000000
10.900000,0.161391,0.080493,0.298856,22.547901,3.786178,8.687506,493.692963,13.998138,0.000000,41.660763,44.966006,6999.123514,0.378758,1.000000,0.306461,-0.249851
11.000000,0.144771,0.089298,0.307140,22.347982,3.816613,9.280490,493.978943,14.284119,0.000000,41.660780,44.966025,6999.123514,-1.000000,-1.000000,0.046272,0.744138
11.100000,0.144782,0.091963,0.310575,22.314360,4.351988,9.447812,494.266144,14.571320,0.000000,41.660796,44.966044,6999.098765,-0.714338,0.886092,0.781872,0.654896
11.200000,0.164445,0.088497,0.308516,22.474034,5.064939,9.202094,494.648590,14.953766,0.000000,41.660812,44.966063,6999.098765,1.000000,0.641144,0.733345,-1.000000
11.300000,0.192172,0.083521,0.304110,22.678255,4.820112,8.933624,495.052246,15.357422,0.000000,41.660828,44.966083,6999.072441,-1.000000,-1.000000,-1.000000,-0.754393
11.400000,0.212065,0.082192,0.301698,22.804386,4.405476,8.860528,495.399567,15.704742,0.000000,41.660844,44.966103,6999.072441,1.000000,0.336260,-1.000000,0.838909
11.500000,0.234213,0.081723,0.299455,22.932545,3.752345,8.670544,495.726288,16.031464,0.000000,41.660860,44.966123,6999.044127,0.400686,0.765366,0.936627,1.000000
11.600000,0.271004,0.078271,0.293206,23.165776,2.850612,8.101193,495.981903,16.287079,0.000000,41.660876,44.966144,6999.044127,-0.605934,-0.651140,-1.000000,-0.031341
11.700000,0.315619,0.072632,0.284475,23.479297,2.523582,7.328492,496.181519,16.486694,0.000000,41.660892,44.966164,6999.016187,0.014878,1.000000,-1.000000,0.467723
11.800000,0.365991,0.065564,0.274470,23.817301,2.521040,6.413121,496.402039,16.707214,0.000000,41.660907,44.966185,6999.016187,-0.531612,-0.812625,-0.322911,0.291279
11.900000,0.419747,0.057450,0.263133,24.116843,2.172486,5.377230,496.628448,16.933624,0.000000,41.660923,44.966205,6998.987748,1.000000,1.000000,-0.456363,1.000000
12.000000,0.473106,0.049353,0.250394,24.341529,1.523463,4.343586,496.807129,17.112305,0.000000,41.660938,44.966226,6998.987748,0.090297,-0.097054,-0.132992,-0.825815
12.100000,0.523354,0.042591,0.237382,24.511522,0.964024,3.411867,496.943665,17.248840,0.000000,41.660953,44.966248,6998.959642,-1.000000,-1.000000,-0.978246,0.986179
12.200000,0.565588,0.036598,0.225674,24.664488,1.201700,2.593732,497.073975,17.379181,0.000000,41.660968,44.966269,6998.959642,-0.011435,-0.358573,1.000000,0.697123
12.300000,0.606349,0.029295,0.214179,24.787546,1.692882,1.731602,497.243073,17.548248,0.000000,41.660983,44.966290,6998.934852,-1.000000,0.258279,0.596932,-0.958309
12.400000,0.645716,0.021458,0.203981,24.886043,2.447719,0.985162,497.479431,17.784607,0.000000,41.660998,44.966312,6998.934852,-0.742509,0.936836,0.735960,-0.563127
12.500000,0.670413,0.016135,0.201574,24.939633,3.118533,0.618927,497.798584,18.103760,0.000000,41.661013,44.966335,6998.912466,0.356340,0.731578,0.351938,0.538564
12.600000,0.687066,0.012775,0.205871,24.965026,3.247270,0.394516,498.122131,18.427307,0.000000,41.661027,44.966357,6998.912466,-1.000000,1.000000,-1.000000,0.787139
12.700000,0.707430,0.008861,0.213988,25.002611,3.389026,0.043271,498.476715,18.781891,0.000000,41.661042,44.966380,6998.891739,0.374602,0.285480,-1.000000,0.323886
12.800000,0.731434,0.003969,0.225235,25.036655,3.471114,-0.379046,498.839478,19.144653,0.000000,41.661056,44.966403,6998.891739,-0.873788,0.960140,-1.000000,0.198731
12.900000,0.754920,-0.001182,0.237815,25.078007,3.732091,-0.817995,499.189178,19.494354,0.000000,41.661070,44.966426,6998.873042,-0.382309,-1.000000,0.308111,1.000000
13.000000,0.785071,-0.008757,0.250767,25.110568,4.103206,-1.442967,499.595306,19.900513,0.000000,41.661083,44.966449,6998.873042,-0.487360,1.000000,0.970904,0.822381
13.100000,0.824123,-0.018629,0.260445,25.077461,4.000368,-2.264940,500.014252,20.319397,0.000000,41.661097,44.966473,6998.853268,1.000000,0.600316,1.000000,1.000000
13.200000,0.866997,-0.028289,0.265808,24.981130,3.370400,-3.117455,500.369019,20.674194,0.000000,41.661111,44.966497,6998.853268,0.152523,1.000000,-1.000000,-0.401768
13.300000,0.908489,-0.035789,0.270399,24.878674,2.694724,-3.815031,500.675262,20.980408,0.000000,41.661124,44.966521,6998.830385,0.134933,-0.409616,0.211387,0.251416
13.400000,0.940944,-0.040211,0.276967,24.821884,2.323299,-4.292067,500.933044,21.238190,0.000000,41.661137,44.966545,6998.830385,-0.326174,0.352077,1.000000,0.976880
13.500000,0.972973,-0.045052,0.282429,24.762393,2.324907,-4.846914,501.164459,21.469635,0.000000,41.661150,44.966569,6998.806217,-0.219533,0.824424,0.863646,0.962896
13.600000,1.015228,-0.052764,0.286701,24.646797,2.579156,-5.646691,501.427551,21.732758,0.000000,41.661163,44.966594,6998.806217,-1.000000,0.158456,-0.810794,1.000000
13.700000,1.063853,-0.062565,0.289497,24.468878,2.717531,-6.593006,501.725769,22.030945,0.000000,41.661176,44.966618,6998.780473,1.000000,-0.141074,-0.869651,1.000000
13.800000,1.112533,-0.072470,0.288096,24.217730,2.319264,-7.500734,501.994781,22.299927,0.000000,41.661188,44.966644,6998.780473,0.130613,0.575779,-1.000000,0.615951
13.900000,1.162787,-0.081696,0.282123,23.910787,1.682459,-8.379432,502.226654,22.531830,0.000000,41.661201,44.966669,6998.752906,0.665518,-0.548237,0.630468,1.000000
14.000000,1.209711,-0.089463,0.272213,23.615275,1.286693,-9.151827,502.403625,22.708801,0.000000,41.661213,44.966694,6998.752906,-1.000000,0.915070,-0.540047,0.308201
14.100000,1.246514,-0.095471,0.263535,23.433148,1.603758,-9.673220,502.561218,22.866394,0.000000,41.661225,44.966720,6998.726582,-0.525011,-0.747543,-0.846343,-0.312936
14.200000,1.269993,-0.099975,0.263141,23.399394,2.272386,-9.842479,502.782288,23.087463,0.000000,41.661236,44.966746,6998.726582,0.628361,1.000000,0.842010,-1.000000
14.300000,1.271012,-0.099966,0.272317,23.530443,2.092845,-9.443739,503.020691,23.325867,0.000000,41.661247,44.966772,6998.701709,-0.277794,-0.948705,-0.504265,-1.000000
14.400000,1.248807,-0.093743,0.287268,23.857188,1.840411,-8.504680,503.214783,23.519958,0.000000,41.661258,44.966798,6998.701709,0.112863,0.804649,-0.059942,-0.700542
14.500000,1.204307,-0.081432,0.309226,24.365127,2.057944,-6.986329,503.414459,23.719635,0.000000,41.661268,44.966825,6998.677996,-1.000000,1.000000,-0.911803,-0.990576
14.600000,1.143126,-0.064539,0.337414,24.877279,2.350019,-5.031931,503.642700,23.947876,0.000000,41.661278,44.966852,6998.677996,1.000000,0.152670,1.000000,-0.645448
14.700000,1.076965,-0.045039,0.364371,25.226190,2.301767,-2.958502,503.850861,24.156036,0.000000,41.661288,44.966879,6998.657227,-1.000000,-1.000000,0.631404,0.128678
14.800000,1.008033,-0.023708,0.389056,25.425714,2.539268,-0.774838,504.054779,24.359955,0.000000,41.661297,44.966907,6998.657227,-0.291781,-0.673713,-0.090645,-1.000000
14.900000,0.940440,-0.002135,0.411242,25.467334,3.419371,1.382899,504.288055,24.593231,0.000000,41.661306,44.966935,6998.637661,-0.783323,1.000000,-1.000000,-1.000000
15.000000,0.874076,0.020476,0.431422,25.331658,4.497547,3.514951,504.554596,24.859802,0.000000,41.661314,44.966963,6998.637661,-1.000000,0.218259,-0.419182,-1.000000
15.100000,0.801958,0.046964,0.451686,24.981677,5.774567,5.760773,504.917236,25.222412,0.000000,41.661322,44.966992,6998.617596,-0.368102,-1.000000,-0.537027,-0.440200
15.200000,0.735749,0.073170,0.467990,24.455015,6.514917,7.812567,505.328278,25.633453,0.000000,41.661329,44.967022,6998.617596,1.000000,-0.788335,0.251071,0.626630
15.300000,0.688803,0.093125,0.476864,23.924404,6.364694,9.308142,505.700409,26.005585,0.000000,41.661336,44.967051,6998.596537,-0.193190,-0.403814,0.371712,1.000000
15.400000,0.664241,0.105023,0.476882,23.549771,5.865961,10.272813,506.031433,26.336609,0.000000,41.661343,44.967081,6998.596537,-1.000000,-1.000000,0.096726,0.715713
15.500000,0.665670,0.106466,0.468248,23.492292,5.867651,10.617717,506.327545,26.632721,0.000000,41.661349,44.967111,6998.573488,0.017560,1.000000,0.807879,1.000000
15.600000,0.689462,0.098934,0.455101,23.704765,5.750597,10.412643,506.613281,26.918457,0.000000,41.661356,44.967141,6998.573488,0.531421,1.000000,-0.195830,1.000000
15.700000,0.737573,0.083065,0.437432,24.154872,4.988649,9.648968,506.887512,27.192657,0.000000,41.661362,44.967171,6998.547828,-0.217530,1.000000,0.171536,1.000000
15.800000,0.803932,0.062241,0.416993,24.745883,4.132227,8.420801,507.108643,27.413818,0.000000,41.661368,44.967201,6998.547828,0.604070,1.000000,-0.320183,-0.243779
15.900000,0.870403,0.043665,0.398606,25.274936,3.507589,7.187956,507.271637,27.576813,0.000000,41.661374,44.967231,6998.521379,-0.732199,0.295779,0.797831,-0.158898
16.000000,0.936021,0.028164,0.383869,25.739960,3.211286,5.950008,507.420380,27.725555,0.000000,41.661380,44.967262,6998.521379,-0.294900,-1.000000,-1.000000,0.338010
16.100000,0.999296,0.014788,0.373164,26.138042,3.252619,4.706348,507.585083,27.890259,0.000000,41.661386,44.967293,6998.493687,0.553363,-1.000000,-0.722571,-0.217693
16.200000,1.055171,0.004599,0.366077,26.405556,2.697952,3.652227,507.734650,28.039825,0.000000,41.661391,44.967324,6998.493687,1.000000,1.000000,0.242869,-0.268191
16.300000,1.106301,-0.002093,0.362376,26.595531,2.008637,2.759034,507.841553,28.146729,0.000000,41.661396,44.967355,6998.464088,-0.844727,-0.599698,0.610221,-0.195936
16.400000,1.148878,-0.005527,0.363694,26.745791,1.746422,2.073299,507.916504,28.221680,0.000000,41.661400,44.967386,6998.464088,-0.139583,0.740104,1.000000,-0.267592
16.500000,1.182930,-0.007364,0.369904,26.863240,1.667674,1.548213,507.996155,28.301331,0.000000,41.661404,44.967417,6998.435028,0.430400,-0.074458,-0.953413,0.904092
16.600000,1.219930,-0.010675,0.378292,26.959919,1.394009,0.924252,508.066254,28.371429,0.000000,41.661408,44.967449,6998.435028,-1.000000,0.474347,1.000000,0.708098
16.700000,1.262597,-0.017777,0.385950,27.051872,1.568976,0.101960,508.147339,28.452515,0.000000,41.661412,44.967481,6998.407171,0.348387,0.448233,0.442793,0.766840
16.800000,1.306069,-0.027032,0.396002,27.113593,1.760405,-0.731487,508.249115,28.554291,0.000000,41.661415,44.967513,6998.407171,-1.000000,-1.000000,0.113083,-1.000000
16.900000,1.344171,-0.035083,0.412052,27.188488,2.323872,-1.337236,508.388672,28.693848,0.000000,41.661418,44.967545,6998.380847,-1.000000,-0.019119,-0.732179,-1.000000
17.000000,1.361696,-0.036543,0.434126,27.314730,3.607484,-1.371546,508.624023,28.929199,0.000000,41.661420,44.967577,6998.380847,-0.749825,-1.000000,0.601106,-0.206357
17.100000,1.362337,-0.032177,0.456531,27.444521,4.664178,-0.985425,508.941620,29.246826,0.000000,41.661421,44.967610,6999.892173,-1.000000,0.407831,0.113324,0.479129
17.200000,1.357580,-0.025544,0.476712,27.565933,5.499226,-0.476562,509.362701,29.667877,0.000000,41.661421,44.967643,6999.892173,-0.355912,-0.203188,1.000000,0.270040
17.300000,1.358024,-0.021141,0.490706,27.662567,5.993032,-0.084215,509.829712,30.134888,0.000000,41.661421,44.967676,6999.871404,-1.000000,0.935805,-0.756496,0.614395
17.400000,1.364549,-0.019149,0.500830,27.753591,6.380750,0.154177,510.297638,30.602814,0.000000,41.661420,44.967709,6999.871404,-0.352732,0.093412,-0.275879,-1.000000
17.500000,1.369724,-0.014400,0.511188,27.843779,6.515803,0.577020,510.810577,31.115753,0.000000,41.661418,44.967742,6999.850925,-0.567558,-0.651504,0.787538,-1.000000
17.600000,1.363887,-0.001125,0.522456,27.921670,6.526184,1.399573,511.315582,31.620758,0.000000,41.661416,44.967775,6999.850925,-0.484790,1.000000,0.139994,0.231813
17.700000,1.356645,0.014403,0.531095,27.985603,6.749315,2.185613,511.794525,32.099670,0.000000,41.661414,44.967809,6999.829286,-0.958674,0.313515,0.179378,0.631812
17.800000,1.359805,0.026779,0.535177,28.083114,7.209798,2.668418,512.337036,32.642242,0.000000,41.661410,44.967842,6999.829286,-0.849683,0.061898,0.011984,1.000000
17.900000,1.379381,0.031971,0.533848,28.223649,7.277055,2.714273,512.924744,33.229919,0.000000,41.661407,44.967876,6999.805573,-0.114440,0.234326,1.000000,0.222122
18.000000,1.409876,0.032470,0.529503,28.380104,6.774879,2.470179,513.471069,33.780090,0.000000,41.661402,44.967910,6999.805573,0.829779,0.313769,0.740993,-0.359611
18.100000,1.446954,0.033017,0.523390,28.518375,5.591795,2.156913,513.995117,34.309082,0.000000,41.661398,44.967943,6999.779374,0.312902,0.922320,-1.000000,0.321666
18.200000,1.486827,0.034314,0.515670,28.629120,4.284799,1.751197,514.427246,34.746246,0.000000,41.661393,44.967977,6999.779374,0.210815,1.000000,0.341443,0.932512
18.300000,1.530987,0.032694,0.505993,28.725124,3.287327,1.131884,514.767090,35.090729,0.000000,41.661388,44.968010,6999.752511,0.066888,0.346691,-0.506401,-1.000000
18.400000,1.577983,0.030849,0.496019,28.798189,2.498806,0.488573,515.074219,35.402832,0.000000,41.661383,44.968044,6999.752511,-1.000000,-0.994229,-0.113263,0.490684
18.500000,1.621945,0.029257,0.487858,28.881269,2.543157,-0.166202,515.375061,35.708527,0.000000,41.661378,44.968077,6999.724446,-0.564670,-0.342254,-0.543785,1.000000
18.600000,1.668436,0.023144,0.477956,28.943173,2.975265,-1.037410,515.709656,36.047760,0.000000,41.661372,44.968110,6999.724446,-1.000000,-1.000000,-0.082391,0.017595
18.700000,1.721517,0.013612,0.466238,28.943791,3.037687,-2.029297,516.116028,36.459045,0.000000,41.661365,44.968144,6999.694640,0.725589,0.068592,1.000000,-0.703694
18.800000,1.768935,0.006671,0.456686,28.880541,2.446734,-2.790653,516.509949,36.857910,0.000000,41.661358,44.968176,6999.694640,-0.052302,-0.121834,-0.879929,0.411020
18.900000,1.807906,0.002960,0.449629,28.783882,1.551071,-3.326449,516.824585,37.177124,0.000000,41.661350,44.968209,6999.664999,1.000000,0.780981,0.279076,-1.000000
19.000000,1.843196,0.001526,0.444149,28.665368,0.502498,-3.729164,517.082764,37.440125,0.000000,41.661343,44.968242,6999.664999,1.000000,1.000000,1.000000,0.931312
19.100000,1.877271,-0.000123,0.438666,28.521198,-0.501315,-4.153322,517.250610,37.612854,0.000000,41.661335,44.968275,6999.634654,-0.245647,0.636674,1.000000,-0.025132
19.200000,1.911788,-0.004473,0.433462,28.382088,-0.947274,-4.661071,517.356384,37.723083,0.000000,41.661327,44.968307,6999.634654,-0.789581,-0.398314,-0.625347,-1.000000
19.300000,1.941247,-0.008376,0.433156,28.297202,-0.637671,-4.962278,517.463867,37.835327,0.000000,41.661319,44.968339,6999.602775,-1.000000,-0.083871,-0.489522,0.734823
19.400000,1.962467,-0.011651,0.440573,28.273832,0.221496,-5.106366,517.640259,38.016510,0.000000,41.661310,44.968371,6999.602775,1.000000,-0.499142,-0.074925,-0.178216
19.500000,1.980547,-0.016091,0.450043,28.228207,0.218269,-5.186034,517.840149,38.220795,0.000000,41.661300,44.968403,6999.571560,0.782165,-1.000000,-0.217982,0.325624
19.600000,1.996418,-0.020534,0.459734,28.160050,-0.378899,-5.158576,518.015137,38.398132,0.000000,41.661291,44.968434,6999.571560,1.000000,-0.629951,0.458856,0.255723
19.700000,2.008933,-0.024188,0.467386,28.105654,-1.003623,-4.988332,518.115479,38.500488,0.000000,41.661281,44.968465,6999.542334,-0.017940,1.000000,1.000000,-1.000000
19.800000,2.009576,-0.023261,0.476404,28.136122,-1.259771,-4.461782,518.157349,38.544281,0.000000,41.661271,44.968496,6999.542334,-0.022968,-0.455323,-0.293941,0.128914
19.900000,1.997845,-0.018008,0.488153,28.261620,-0.898615,-3.572711,518.185852,38.574860,0.000000,41.661260,44.968527,6999.515305,-0.550223,-0.618051,-0.964850,-0.619364
20.000000,1.977918,-0.011235,0.499863,28.402670,-0.331726,-2.498710,518.236023,38.627136,0.000000,41.661249,44.968557,6999.515305,0.105872,-0.404291,0.151055,1.000000
20.100000,1.960083,-0.007239,0.506821,28.484349,-0.131813,-1.598396,518.290710,38.683777,0.000000,41.661237,44.968588,6999.491551,0.532043,-0.064965,-0.981654,1.000000
20.200000,1.952413,-0.010166,0.504837,28.507972,-0.315756,-1.045174,518.313477,38.708710,0.000000,41.661226,44.968618,6999.491551,1.000000,1.000000,1.000000,0.680307
20.300000,1.955980,-0.019277,0.493364,28.508382,-0.683063,-0.836149,518.269348,38.666687,0.000000,41.661214,44.968647,6999.470244,-0.792210,0.703533,-0.364569,-0.071282
20.400000,1.963151,-0.030150,0.478650,28.550877,-0.538669,-0.741289,518.180908,38.580261,0.000000,41.661202,44.968677,6999.470244,-1.000000,-0.121528,1.000000,0.444946
20.500000,1.971591,-0.042935,0.462575,28.631975,0.424562,-0.736993,518.096375,38.497955,0.000000,41.661189,44.968707,6999.450304,-0.824896,0.087721,0.649987,0.844170
20.600000,1.986151,-0.058612,0.445959,28.713730,1.728601,-0.930851,518.093079,38.496826,0.000000,41.661176,44.968736,6999.450304,0.717126,0.029918,-0.027529,-0.208701
20.700000,2.000912,-0.072699,0.431885,28.768349,2.006596,-1.053182,518.120117,38.526001,0.000000,41.661162,44.968765,6999.432022,1.000000,-0.358795,0.442043,0.023289
20.800000,2.013638,-0.084228,0.419701,28.808762,1.609748,-1.058297,518.104736,38.512878,0.000000,41.661149,44.968794,6999.432022,1.000000,1.000000,-1.000000,0.249953
20.900000,2.026618,-0.093466,0.409014,28.860786,1.078831,-1.063786,518.007202,38.417603,0.000000,41.661135,44.968823,6999.414528,-0.861894,-0.190625,1.000000,-0.089736
21.000000,2.038380,-0.100813,0.402656,28.958215,1.115921,-1.050358,517.869202,38.281738,0.000000,41.661120,44.968851,6999.414528,0.056280,0.542172,1.000000,-1.000000
21.100000,2.041409,-0.104210,0.405896,29.081642,1.285425,-0.675188,517.719055,38.133911,0.000000,41.661106,44.968880,6999.396412,0.781138,0.864165,-0.175751,-1.000000
21.200000,2.029206,-0.099895,0.420923,29.175457,0.807869,0.195614,517.526306,37.943451,0.000000,41.661091,44.968908,6999.396412,0.839143,0.236713,0.463106,-0.130447
21.300000,2.010819,-0.091218,0.439466,29.220760,0.053106,1.245375,517.267212,37.686554,0.000000,41.661076,44.968936,6999.376514,1.000000,1.000000,-0.532200,-1.000000
21.400000,1.986280,-0.078130,0.460749,29.222251,-0.716810,2.578082,516.898315,37.319946,0.000000,41.661061,44.968964,6999.376514,0.777064,-0.543039,0.523031,-0.523767
21.500000,1.955250,-0.060902,0.483054,29.166920,-1.113400,4.147502,516.446716,36.870667,0.000000,41.661046,44.968992,6999.354874,-0.605381,0.469313,-0.143164,-0.913799
21.600000,1.923011,-0.043339,0.503360,29.071648,-0.803546,5.671433,515.991150,36.417297,0.000000,41.661030,44.969020,6999.354874,-0.219340,-1.000000,1.000000,1.000000
21.700000,1.897357,-0.030354,0.519116,28.970589,-0.288621,6.878030,515.526672,35.955231,0.000000,41.661014,44.969047,6999.330499,0.711054,-1.000000,-0.560952,0.444521
21.800000,1.890843,-0.028319,0.525290,28.978559,-0.107559,7.445245,515.055420,35.486389,0.000000,41.660998,44.969075,6999.330499,-1.000000,-1.000000,-0.327013,-0.622421
21.900000,1.894870,-0.032358,0.525566,29.093652,0.393898,7.679494,514.617371,35.050598,0.000000,41.660981,44.969102,6999.306828,0.430316,1.000000,0.365734,0.596178
22.000000,1.905281,-0.040125,0.521377,29.269036,0.740514,7.737120,514.171570,34.607300,0.000000,41.660964,44.969129,6999.306828,-0.360136,1.000000,0.016729,-0.711911
22.100000,1.920043,-0.049824,0.513897,29.498269,1.033631,7.675294,513.723145,34.161316,0.000000,41.660946,44.969156,6999.284069,-0.241616,-0.506177,-1.000000,0.333349
22.200000,1.936607,-0.060506,0.505629,29.759421,1.608827,7.488713,513.319031,33.759583,0.000000,41.660928,44.969182,6999.284069,-1.000000,-0.741586,-1.000000,0.086064
22.300000,1.961234,-0.075567,0.492957,30.112563,2.863646,6.994296,512.950623,33.393738,0.000000,41.660909,44.969209,6999.261393,-1.000000,0.918189,0.963031,0.221936
22.400000,1.992502,-0.092967,0.475722,30.501785,4.115228,6.303447,512.697937,33.143677,0.000000,41.660889,44.969235,6999.261393,-0.503499,0.474765,1.000000,-0.013364
22.500000,2.025831,-0.108780,0.458408,30.854864,4.741882,5.614471,512.524597,32.972778,0.000000,41.660869,44.969260,6999.240292,-0.878415,0.713598,1.000000,-0.921521
22.600000,2.058674,-0.120500,0.443728,31.196647,5.082544,5.027744,512.379333,32.830261,0.000000,41.660848,44.969286,6999.240292,-0.109312,-0.530895,0.318209,0.066118
22.700000,2.090295,-0.127748,0.433534,31.518851,4.929216,4.496529,512.239990,32.693634,0.000000,41.660827,44.969311,6999.219689,-0.335855,0.715368,1.000000,-0.596986
22.800000,2.121222,-0.131871,0.427813,31.808620,4.437220,3.971996,512.086914,32.543091,0.000000,41.660805,44.969336,6999.219689,0.915119,-0.386894,-0.099949,0.059236
22.900000,2.156517,-0.134194,0.425174,32.103096,3.704693,3.328158,511.872650,32.331635,0.000000,41.660783,44.969361,6999.197718,-1.000000,-0.565027,0.035937,-0.079639
23.000000,2.197614,-0.136947,0.424373,32.411591,3.315956,2.449165,511.624512,32.086212,0.000000,41.660761,44.969386,6999.197718,-0.778645,-0.524913,-0.763749,1.000000
23.100000,2.247076,-0.143112,0.421378,32.702201,3.097035,1.187974,511.398621,31.862976,0.000000,41.660739,44.969410,6999.174213,0.376916,-0.434230,0.252741,0.715243
23.200000,2.312831,-0.153981,0.411888,32.925080,2.459251,-0.569159,511.150940,31.618103,0.000000,41.660716,44.969435,6999.174213,0.776443,-1.000000,0.150850,0.384119
23.300000,2.382201,-0.164281,0.398139,33.009735,1.509068,-2.362983,510.858032,31.328003,0.000000,41.660693,44.969459,6999.149050,-0.346916,1.000000,-0.434181,-0.316128
23.400000,2.443243,-0.171010,0.385195,33.008601,0.824295,-3.899516,510.540283,31.012939,0.000000,41.660670,44.969483,6999.149050,0.194744,-0.647571,1.000000,1.000000
23.500000,2.508147,-0.177967,0.370533,32.920033,0.451622,-5.601487,510.189484,30.665009,0.000000,41.660646,44.969507,6999.121607,-0.524471,1.000000,-0.938905,1.000000
23.600000,2.579214,-0.187044,0.350806,32.673486,0.114070,-7.530454,509.842896,30.321228,0.000000,41.660622,44.969531,6999.121607,0.510832,0.682018,-0.241888,0.232636
23.700000,2.644502,-0.194510,0.330097,32.334204,-0.267780,-9.238474,509.508057,29.989105,0.000000,41.660598,44.969554,6999.093749,-0.340047,0.125239,-0.529190,-0.385088
23.800000,2.700788,-0.197966,0.312426,32.012804,-0.509836,-10.527769,509.138397,29.622284,0.000000,41.660574,44.969577,6999.093749,-0.084834,-0.475844,1.000000,-0.736746
23.900000,2.734110,-0.195181,0.306929,31.910912,-0.387767,-11.067298,508.784424,29.271179,0.000000,41.660550,44.969600,6999.065228,-1.000000,0.657138,0.168236,0.375027
24.000000,2.750421,-0.189437,0.311416,31.974510,-0.191428,-11.154567,508.495636,28.985107,0.000000,41.660524,44.969621,6999.065228,0.986195,-0.918085,0.499053,0.388316
24.100000,2.760695,-0.182426,0.319187,32.073108,-0.716159,-11.010123,508.198212,28.690582,0.000000,41.660499,44.969643,6999.037121,0.264182,-1.000000,0.343712,-1.000000
24.200000,2.755258,-0.170919,0.330974,32.318643,-1.424066,-10.266590,507.855865,28.351105,0.000000,41.660474,44.969664,6999.037121,-0.756071,-1.000000,0.241018,-0.222547
24.300000,2.731213,-0.154693,0.347575,32.740544,-1.364091,-8.933746,507.521027,28.019012,0.000000,41.660448,44.969685,6999.012248,-1.000000,-0.853678,0.957851,-1.000000
24.400000,2.690527,-0.132455,0.370102,33.265837,-0.233490,-7.046511,507.237610,27.738525,0.000000,41.660422,44.969705,6999.012248,-0.906955,1.000000,0.373890,0.765482
24.500000,2.648062,-0.108126,0.392139,33.694876,1.234281,-5.139836,507.107208,27.611053,0.000000,41.660395,44.969724,6998.989904,-0.888666,-1.000000,0.385238,-0.693137
24.600000,2.612746,-0.084439,0.409630,33.989082,2.111704,-3.444569,507.109314,27.615845,0.000000,41.660368,44.969742,6998.989904,-0.454680,0.849591,-0.205005,0.564490
24.700000,2.579374,-0.058454,0.424931,34.200527,2.187464,-1.687775,507.174744,27.684204,0.000000,41.660340,44.969760,6998.968969,1.000000,-0.552087,-0.054246,-1.000000
24.800000,2.549708,-0.031830,0.437017,34.285263,1.490956,0.018412,507.223877,27.736237,0.000000,41.660313,44.969777,6998.968969,-0.719274,0.161542,0.883829,0.553769
24.900000,2.527750,-0.007949,0.444367,34.282698,0.799425,1.409768,507.227478,27.742615,0.000000,41.660285,44.969794,6998.950149,1.000000,0.609852,-0.462563,-0.315268
25.000000,2.514645,0.013405,0.446933,34.233867,0.105359,2.530941,507.191406,27.709442,0.000000,41.660257,44.969811,6998.950149,-0.729771,-0.531029,0.238293,-1.000000
25.100000,2.501293,0.034972,0.448559,34.155220,-0.200828,3.738340,507.126282,27.647217,0.000000,41.660229,44.969827,6998.930209,-1.000000,1.000000,-0.520730,-0.773468
25.200000,2.483477,0.057043,0.452001,34.043903,0.470877,4.986215,507.098755,27.622406,0.000000,41.660201,44.969843,6998.930209,-0.826253,0.721054,0.199247,-0.261632
25.300000,2.467674,0.078745,0.453483,33.893099,1.030522,6.140383,507.166290,27.692841,0.000000,41.660172,44.969857,6998.907201,1.000000,0.538877,-0.532115,-0.453150
25.400000,2.460411,0.096776,0.452473,33.729265,0.633248,6.996199,507.256195,27.785614,0.000000,41.660144,44.969872,6998.907201,-0.979016,-0.729567,0.176118,0.565869
25.500000,2.468509,0.106858,0.448102,33.681187,0.383274,7.180004,507.328400,27.860565,0.000000,41.660115,44.969885,6998.882909,-0.618853,0.878236,-0.921573,0.512304
25.600000,2.497654,0.107227,0.438684,33.805875,0.719500,6.576567,507.448639,27.983643,0.000000,41.660086,44.969899,6998.882909,-0.651448,0.625180,0.725554,-0.887933
25.700000,2.535575,0.103482,0.427541,33.973651,1.007708,5.731955,507.629486,28.167328,0.000000,41.660057,44.969911,6998.857082,-0.699332,-1.000000,-1.000000,0.120796
25.800000,2.572892,0.099585,0.417365,34.112564,1.221142,4.862413,507.852081,28.392609,0.000000,41.660027,44.969923,6998.857082,-0.519032,-0.692174,-0.324732,-0.039100
25.900000,2.618919,0.093467,0.406461,34.250477,1.437248,3.693157,508.135193,28.678558,0.000000,41.659998,44.969934,6998.829059,-1.000000,0.193489,0.657035,-1.000000
26.000000,2.665098,0.088576,0.396879,34.350591,2.149271,2.533875,508.491119,29.037262,0.000000,41.659968,44.969944,6998.829059,-1.000000,0.546745,1.000000,1.000000
26.100000,2.713516,0.083774,0.387715,34.415459,3.024971,1.197307,508.936981,29.485718,0.000000,41.659939,44.969954,6998.800703,-1.000000,-0.479064,-0.915534,0.722396
26.200000,2.779648,0.075574,0.376317,34.424061,3.775591,-0.729019,509.530121,30.081573,0.000000,41.659909,44.969962,6998.800703,-1.000000,1.000000,-1.000000,-0.131615
26.300000,2.850040,0.069042,0.366595,34.316288,3.789163,-2.645421,510.215179,30.769348,0.000000,41.659879,44.969970,6998.771436,1.000000,-0.146324,-0.633052,-0.063051
26.400000,2.912695,0.066844,0.361212,34.095197,2.874441,-4.270754,510.858643,31.415344,0.000000,41.659850,44.969977,6998.771436,0.331353,0.524919,1.000000,1.000000
26.500000,2.983202,0.065036,0.355878,33.695531,1.577671,-6.169636,511.482819,32.042206,0.000000,41.659820,44.969984,6998.740511,0.016379,-0.682519,-0.037013,0.733806
26.600000,3.060496,0.061502,0.348795,33.104562,0.582195,-8.263645,512.049683,32.611725,0.000000,41.659790,44.969991,6998.740511,-0.403156,0.795922,0.973094,-0.908146
26.700000,3.127716,0.059737,0.344355,32.458880,-0.255742,-9.939883,512.554626,33.119141,0.000000,41.659761,44.969997,6998.709917,1.000000,-0.345790,-1.000000,1.000000
26.800000,3.188446,0.060614,0.343988,31.754543,-1.330260,-11.310726,513.040466,33.607605,0.000000,41.659731,44.970003,6998.709917,-0.195178,0.581986,1.000000,-1.000000
26.900000,3.236475,0.063990,0.349029,31.131110,-2.197428,-12.198875,513.474609,34.044373,0.000000,41.659702,44.970009,6998.678701,0.506333,-0.847591,-1.000000,-0.119595
27.000000,3.265826,0.070101,0.360606,30.726242,-2.700730,-12.500004,513.859924,34.432098,0.000000,41.659673,44.970014,6998.678701,-1.000000,0.210970,1.000000,-0.243273
27.100000,3.285265,0.077413,0.378386,30.449188,-2.535350,-12.483159,514.295715,34.870422,0.000000,41.659644,44.970019,6998.646118,-0.116490,-1.000000,1.000000,0.086766
27.200000,3.296404,0.085058,0.399345,30.274944,-2.347868,-12.233382,514.799988,35.377197,0.000000,41.659615,44.970023,6998.646118,1.000000,0.857105,-0.146670,1.000000
27.300000,3.306144,0.090370,0.416961,30.090274,-2.830098,-11.985227,515.290527,35.870026,0.000000,41.659587,44.970026,6998.614322,0.500915,0.579313,1.000000,-0.334474
27.400000,3.314505,0.095108,0.432122,29.884797,-3.669334,-11.640645,515.766541,36.348419,0.000000,41.659558,44.970029,6998.614322,0.738382,-0.858276,0.436158,1.000000
27.500000,3.320042,0.099057,0.442887,29.713544,-4.295245,-11.244446,516.185303,36.769592,0.000000,41.659530,44.970032,6998.583976,0.349054,0.430767,1.000000,0.281415
27.600000,3.326121,0.100029,0.447996,29.551915,-4.525706,-10.975711,516.541321,37.127838,0.000000,41.659502,44.970034,6998.583976,-0.715716,-1.000000,0.090580,1.000000
27.700000,3.331831,0.098457,0.448866,29.421638,-3.971306,-10.706506,516.922363,37.511230,0.000000,41.659474,44.970036,6998.555911,-0.038101,-0.179300,1.000000,-1.000000
27.800000,3.326642,0.099290,0.447242,29.425041,-3.038953,-10.087049,517.355713,37.946869,0.000000,41.659446,44.970037,6998.555911,-0.795228,-0.377410,0.752672,0.269137
27.900000,3.308845,0.104577,0.444656,29.535985,-2.424056,-9.105971,517.808228,38.401459,0.000000,41.659419,44.970038,6998.531619,0.669994,0.245185,0.794937,-0.531195
28.000000,3.280607,0.114118,0.439926,29.689002,-2.201970,-7.750304,518.296204,38.891602,0.000000,41.659391,44.970037,6998.531619,-0.089714,0.535062,1.000000,-0.668874
28.100000,3.241657,0.128697,0.434141,29.865641,-2.068846,-6.070768,518.761536,39.359131,0.000000,41.659364,44.970036,6998.510145,0.091988,-1.000000,-1.000000,1.000000
28.200000,3.206973,0.141347,0.425332,29.961152,-1.638872,-4.673445,519.196167,39.795776,0.000000,41.659338,44.970035,6998.510145,-0.966608,-0.353597,-0.449214,1.000000
28.300000,3.183857,0.148569,0.409404,29.955658,-0.765457,-3.725570,519.698975,40.300629,0.000000,41.659311,44.970034,6998.490454,-0.035184,-0.003229,-0.464390,0.482226
28.400000,3.175881,0.149998,0.389657,29.868899,0.033673,-3.249204,520.256958,40.860657,0.000000,41.659285,44.970031,6998.490454,-1.000000,-1.000000,-0.199121,1.000000
28.500000,3.183022,0.146706,0.371042,29.740134,1.042969,-3.275308,520.837524,41.443085,0.000000,41.659259,44.970028,6998.472628,-0.742140,0.985721,1.000000,0.840526
28.600000,3.207284,0.138985,0.353379,29.549284,2.278547,-3.781631,521.553223,42.160736,0.000000,41.659233,44.970025,6998.472628,-1.000000,0.393032,0.484931,0.611114
28.700000,3.242199,0.130312,0.339391,29.302928,2.759563,-4.505557,522.347717,42.957123,0.000000,41.659208,44.970021,6998.455010,0.414828,-1.000000,-0.804661,0.010699
28.800000,3.277813,0.123957,0.329494,29.034876,2.625395,-5.198175,523.097839,43.709045,0.000000,41.659182,44.970017,6998.455010,-0.833299,-0.554757,-0.659604,0.275836
28.900000,3.313961,0.120296,0.323602,28.762878,2.616945,-5.836768,523.881836,44.494873,0.000000,41.659157,44.970012,6998.435402,-0.525105,-0.115841,0.017465,-1.000000
29.000000,3.343098,0.120550,0.324536,28.543254,2.971479,-6.276927,524.694397,45.307831,0.000000,41.659132,44.970007,6998.435402,-1.000000,0.287899,-0.374663,1.000000
29.100000,3.370802,0.122021,0.331121,28.315998,2.923344,-6.726925,525.496521,46.109161,0.000000,41.659108,44.970001,6998.413969,1.000000,0.857870,-0.968971,-0.077598
29.200000,3.406095,0.123309,0.341788,27.982356,2.068859,-7.311743,526.324890,46.936646,0.000000,41.659083,44.969995,6998.413969,-0.460108,-0.217662,-0.055306,-0.852673
29.300000,3.437900,0.127485,0.356659,27.649042,1.047035,-7.680516,527.085205,47.696075,0.000000,41.659059,44.969989,6998.390464,0.665652,0.912783,-0.976156,1.000000
29.400000,3.465662,0.132674,0.373387,27.335716,0.107865,-7.990149,527.746521,48.356506,0.000000,41.659035,44.969983,6998.390464,0.196689,0.126637,0.276086,0.227440
29.500000,3.501940,0.135377,0.390732,26.924845,-0.738779,-8.490966,528.391968,49.000946,0.000000,41.659010,44.969976,6998.364431,-0.673362,-0.791395,-1.000000,0.618398
29.600000,3.541805,0.135346,0.408094,26.471004,-1.239285,-9.041300,529.015808,49.623169,0.000000,41.658987,44.969970,6998.364431,1.000000,-0.910214,-1.000000,-0.445484
29.700000,3.578429,0.134476,0.424111,26.009166,-1.981345,-9.486180,529.571716,50.177216,0.000000,41.658963,44.969963,6998.337734,-0.288914,1.000000,-1.000000,1.000000
29.800000,3.616764,0.132380,0.439752,25.506730,-2.604651,-9.900880,530.117188,50.722260,0.000000,41.658939,44.969955,6998.337734,-0.981959,0.822334,-0.450453,-1.000000
29.900000,3.648632,0.131012,0.455937,25.097188,-2.405836,-10.094376,530.659790,51.265656,0.000000,41.658916,44.969948,6998.309834,-0.820943,-0.649112,0.457437,-0.716940
30.000000,3.665837,0.133787,0.474192,24.866675,-1.753544,-9.909518,531.231995,51.839447,0.000000,41.658894,44.969939,6998.309834,1.000000,-0.145683,1.000000,1.000000
30.100000,3.676900,0.138767,0.492799,24.674020,-1.852628,-9.558328,531.876282,52.484741,0.000000,41.658872,44.969930,6998.280070,-1.000000,-0.436977,-0.939373,-1.000000
30.200000,3.685712,0.143884,0.507084,24.498555,-1.913222,-9.128246,532.509888,53.118958,0.000000,41.658850,44.969921,6998.280070,0.168440,1.000000,-1.000000,-0.647794
30.300000,3.685734,0.152084,0.518332,24.418527,-1.894587,-8.479967,533.113525,53.723541,0.000000,41.658829,44.969911,6998.250346,-0.025712,-0.458845,0.519799,-0.021991
30.400000,3.679249,0.163371,0.526625,24.373794,-1.933984,-7.641066,533.736816,54.353333,0.000000,41.658808,44.969901,6998.250346,-1.000000,-1.000000,-0.725177,-0.481040
30.500000,3.667500,0.176114,0.530950,24.366774,-1.669836,-6.696329,534.367432,54.995941,0.000000,41.658788,44.969890,6998.220499,0.697037,-0.973120,-0.367643,-0.227645
30.600000,3.651766,0.189508,0.530054,24.351773,-1.583082,-5.717590,534.958130,55.597870,0.000000,41.658768,44.969878,6998.220499,-0.743115,1.000000,-1.000000,0.027674
30.700000,3.635963,0.202093,0.523492,24.312291,-1.203951,-4.781072,535.578003,56.227722,0.000000,41.658748,44.969866,6998.190361,-0.818248,-0.049663,0.311345,0.536537
30.800000,3.625859,0.209658,0.513329,24.245023,-0.131971,-4.067714,536.246216,56.897705,0.000000,41.658729,44.969854,6998.190361,-0.553164,0.033950,-0.338533,-0.278270
30.900000,3.618636,0.214658,0.501930,24.136559,0.391932,-3.421058,536.923706,57.576813,0.000000,41.658710,44.969841,6998.162959,0.589284,-0.401650,-0.731484,-0.508635
31.000000,3.606218,0.222692,0.488443,23.993778,0.411417,-2.555190,537.630981,58.285736,0.000000,41.658692,44.969828,6998.162959,-1.000000,0.379120,0.109682,-0.955544
31.100000,3.586967,0.234553,0.474889,23.854318,0.616585,-1.565048,538.322937,58.979309,0.000000,41.658675,44.969814,6998.137920,0.448071,-0.588282,-1.000000,0.890324
31.200000,3.573362,0.243725,0.461919,23.677130,0.606212,-0.821357,538.968872,59.626709,0.000000,41.658657,44.969800,6998.137920,1.000000,1.000000,0.236757,0.268133
31.300000,3.572806,0.248011,0.448053,23.425999,0.014603,-0.398783,539.609558,60.268921,0.000000,41.658640,44.969786,6998.114374,-0.023176,-0.529929,0.631288,0.497579
31.400000,3.584862,0.248022,0.435960,23.171556,-0.530619,-0.264978,540.179565,60.840485,0.000000,41.658623,44.969772,6998.114374,-0.723823,0.787578,0.406926,-1.000000
31.500000,3.596907,0.248223,0.428181,22.950073,-0.804610,-0.095101,540.674438,61.336792,0.000000,41.658606,44.969757,6998.092195,1.000000,1.000000,-0.839273,-0.145035
31.600000,3.604236,0.251014,0.423723,22.712499,-1.128290,0.195771,541.160156,61.823944,0.000000,41.658590,44.969743,6998.092195,-0.651487,0.340398,0.714941,0.930174
31.700000,3.617409,0.250986,0.422176,22.487231,-1.128180,0.242144,541.615723,62.280975,0.000000,41.658573,44.969728,6998.069768,-1.000000,0.887816,0.800454,0.269765
31.800000,3.642265,0.244952,0.424084,22.295591,-0.750828,-0.017427,542.063293,62.729797,0.000000,41.658557,44.969713,6998.069768,1.000000,0.302546,-0.850759,-0.005352
31.900000,3.672673,0.236611,0.428985,22.062014,-1.020508,-0.286412,542.532715,63.200500,0.000000,41.658542,44.969697,6998.046761,-0.437795,-0.055544,0.397567,-0.595866
32.000000,3.700071,0.229686,0.436380,21.830987,-1.283341,-0.473802,542.957092,63.626129,0.000000,41.658527,44.969682,6998.046761,-0.517755,-0.670273,-0.191513,1.000000
32.100000,3.729890,0.220747,0.444125,21.618331,-1.399887,-0.801517,543.338562,64.008728,0.000000,41.658511,44.969666,6998.025246,1.000000,-1.000000,0.280727,0.010493
32.200000,3.768469,0.207793,0.450151,21.359094,-1.865014,-1.266185,543.705566,64.376984,0.000000,41.658497,44.969651,6998.025246,0.762949,-1.000000,0.223885,-0.182304
32.300000,3.803053,0.196793,0.454688,21.097307,-2.383135,-1.533789,544.006409,64.679016,0.000000,41.658482,44.969635,6998.004725,-1.000000,0.795205,-0.242698,-0.933638
32.400000,3.825246,0.190628,0.459760,20.910166,-2.250430,-1.574647,544.257446,64.931152,0.000000,41.658468,44.969619,6998.004725,-1.000000,0.544310,-0.292764,1.000000
32.500000,3.846983,0.183292,0.465060,20.749708,-1.498317,-1.668983,544.555420,65.230225,0.000000,41.658454,44.969603,6997.984205,-0.288927,-0.370070,-1.000000,-0.650423
32.600000,3.870105,0.173940,0.469376,20.585513,-0.921938,-1.769181,544.906067,65.581909,0.000000,41.658441,44.969586,6997.984205,1.000000,-0.522163,-0.439565,-0.055638
32.700000,3.888482,0.166555,0.473542,20.410347,-1.117083,-1.729483,545.232666,65.909454,0.000000,41.658428,44.969569,6997.964887,1.000000,-1.000000,-0.180107,-0.248857
32.800000,3.906888,0.159769,0.477316,20.194256,-1.853877,-1.652401,545.516479,66.194275,0.000000,41.658415,44.969552,6997.964887,1.000000,-0.630037,0.064247,0.455280
32.900000,3.926160,0.153420,0.479533,19.972462,-2.687317,-1.560408,545.704956,66.383728,0.000000,41.658402,44.969535,6997.946398,0.637042,0.635227,1.000000,-1.000000
33.000000,3.940199,0.149814,0.481737,19.792079,-3.248725,-1.350397,545.803772,66.483459,0.000000,41.658390,44.969518,6997.946398,-0.302813,0.019009,0.273294,-0.353838
33.100000,3.946901,0.149514,0.485975,19.656129,-3.267605,-0.970311,545.861389,66.542053,0.000000,41.658378,44.969501,6997.927287,-0.569882,0.215967,1.000000,-0.175214
33.200000,3.950653,0.149011,0.491213,19.565329,-2.593295,-0.589375,545.932129,66.613647,0.000000,41.658366,44.969483,6997.927287,-0.545586,0.146478,0.023350,-0.362282
33.300000,3.951189,0.148605,0.496742,19.485113,-1.956730,-0.150766,546.038696,66.721008,0.000000,41.658355,44.969465,6997.907182,-0.279882,-0.072011,0.056348,-0.779946
33.400000,3.945572,0.150562,0.503782,19.388831,-1.513756,0.467578,546.176636,66.859741,0.000000,41.658344,44.969447,6997.907182,-0.044849,1.000000,-1.000000,-0.547488
33.500000,3.934394,0.155192,0.511477,19.271773,-1.255947,1.205527,546.313599,66.997375,0.000000,41.658334,44.969428,6997.886952,-0.314599,0.812049,1.000000,-0.623583
33.600000,3.922054,0.160487,0.518458,19.134868,-1.196187,1.922591,546.432739,67.117188,0.000000,41.658324,44.969409,6997.886952,1.000000,0.653962,-0.878366,-0.035823
33.700000,3.913863,0.164061,0.524159,18.951177,-1.688693,2.556304,546.511597,67.196716,0.000000,41.658315,44.969390,6997.866141,1.000000,-0.152225,0.228269,1.000000
33.800000,3.920039,0.160883,0.526041,18.788618,-2.407236,2.856231,546.503967,67.189697,0.000000,41.658305,44.969371,6997.866141,-0.959261,0.441819,1.000000,-0.361474
33.900000,3.936674,0.152109,0.525395,18.711928,-2.590949,2.926584,546.438293,67.124634,0.000000,41.658296,44.969353,6997.845041,-0.924516,0.650522,-0.097718,0.209383
34.000000,3.958757,0.139703,0.525209,18.696921,-2.024019,2.902139,546.361023,67.047974,0.000000,41.658287,44.969333,6997.845041,-1.000000,-1.000000,-0.091222,-0.699609
34.100000,3.983118,0.124904,0.524951,18.726689,-1.157064,2.781606,546.333801,67.021271,0.000000,41.658279,44.969314,6997.822157,-0.132369,0.390933,-0.342071,0.920303
34.200000,4.011700,0.107017,0.522223,18.768052,-0.693191,2.528052,546.343445,67.031372,0.000000,41.658271,44.969294,6997.822157,1.000000,1.000000,1.000000,0.254066
34.300000,4.051286,0.083388,0.515154,18.796744,-0.892553,2.093803,546.342468,67.030853,0.000000,41.658264,44.969273,6997.798155,-0.434287,-0.409562,0.124068,0.203660
34.400000,4.096745,0.058164,0.505421,18.833845,-1.139871,1.542902,546.294189,66.982971,0.000000,41.658257,44.969253,6997.798155,0.376280,-1.000000,-1.000000,0.809651
34.500000,4.146866,0.031543,0.492840,18.900562,-0.985877,0.810026,546.228455,66.917603,0.000000,41.658250,44.969233,6997.775811,-0.992377,0.159545,-1.000000,0.809080
34.600000,4.208384,-0.000317,0.473557,18.968370,-0.507691,-0.164297,546.170959,66.860474,0.000000,41.658243,44.969212,6997.775811,-1.000000,0.671831,0.171544,0.638317
34.700000,4.272884,-0.032439,0.450427,19.010283,0.436617,-1.161615,546.168579,66.858337,0.000000,41.658237,44.969191,6997.753881,-0.440204,0.286790,0.454795,-0.488147
34.800000,4.328249,-0.058253,0.430186,19.011657,0.991116,-1.904204,546.215576,66.905579,0.000000,41.658232,44.969169,6997.753881,-0.247085,0.042006,1.000000,0.048864
34.900000,4.378805,-0.079434,0.413377,18.994374,1.195521,-2.488776,546.275391,66.965576,0.000000,41.658227,44.969148,6997.731122,-0.393905,0.209093,0.023811,-0.337499
35.000000,4.422583,-0.095055,0.402442,18.996015,1.506007,-2.918773,546.337280,67.027618,0.000000,41.658222,44.969126,6997.731122,-1.000000,-1.000000,0.322398,-0.521040
35.100000,4.456090,-0.104648,0.399839,19.041718,2.150595,-3.185973,546.429138,67.119568,0.000000,41.658218,44.969103,6997.709524,-0.495454,0.667615,-0.386485,-0.132202
35.200000,4.486900,-0.111171,0.404248,19.116659,2.788641,-3.403879,546.581482,67.271912,0.000000,41.658214,44.969081,6997.709524,-1.000000,0.215385,1.000000,1.000000
35.300000,4.521674,-0.117604,0.411575,19.166428,2.890690,-3.725513,546.773315,67.463684,0.000000,41.658211,44.969058,6997.687594,0.534674,-1.000000,0.037814,-0.272534
35.400000,4.559216,-0.123759,0.418776,19.171052,2.437316,-4.058266,546.937378,67.627625,0.000000,41.658209,44.969035,6997.687594,-0.321998,1.000000,0.312116,-0.593022
35.500000,4.595584,-0.126743,0.429267,19.195552,2.017531,-4.263177,547.064697,67.754761,0.000000,41.658206,44.969012,6997.663136,-0.811549,0.791338,-0.231381,0.016875
35.600000,4.625491,-0.125988,0.443831,19.270326,1.959199,-4.320806,547.186096,67.875946,0.000000,41.658204,44.968988,6997.663136,0.238432,-0.698310,0.567556,-1.000000
35.700000,4.645533,-0.120872,0.460702,19.355820,1.457872,-4.151749,547.285095,67.974670,0.000000,41.658202,44.968965,6997.637682,1.000000,-0.516492,-0.779055,-0.177066
35.800000,4.658445,-0.110372,0.479310,19.448306,0.529043,-3.757961,547.326660,68.015961,0.000000,41.658201,44.968942,6997.637682,-0.297027,-0.797693,0.014094,-0.060665
