t,yaw,pitch,roll,speed.x,speed.y,speed.z,altBar,altRad,egt,myloclat,myloclon,weightlb,collective,bank,pitch,rudder
0.100000,5.374881,0.031626,0.000819,-0.096562,0.517151,0.024977,481.239288,1.544464,0.000000,41.659724,44.965707,7004.964901,-0.079920,1.000000,0.009864,0.915062
0.200000,5.374660,0.037085,0.002389,-0.065192,0.095675,0.024874,481.264832,1.570007,0.000000,41.659724,44.965707,7004.964901,-1.000000,-0.306438,0.076212,0.968686
0.300000,5.376898,0.041062,0.003920,-0.057643,0.155260,-0.023597,481.275604,1.580780,0.000000,41.659724,44.965707,7000.556034,0.276374,1.000000,-1.000000,-0.019349
0.400000,5.380419,0.044239,0.001520,-0.034194,0.049654,-0.043321,481.291718,1.596893,0.000000,41.659724,44.965707,7000.556034,0.517250,-0.579219,1.000000,-0.019041
0.500000,5.383056,0.045546,-0.000153,-0.014661,-0.248816,-0.016956,481.277435,1.582611,0.000000,41.659724,44.965707,7000.556034,1.000000,-0.563499,-0.440569,0.473722
0.600000,5.384445,0.047211,0.000005,-0.032757,0.068941,0.006686,481.267059,1.572235,0.000000,41.659724,44.965707,7000.556034,0.139846,-0.761864,-1.000000,0.000115
0.700000,5.384845,0.049244,0.000507,-0.014456,0.111983,0.012219,481.277527,1.582703,0.000000,41.659724,44.965707,7000.541649,-0.728112,-0.271831,0.129684,0.005362
0.800000,5.384405,0.048364,0.000871,0.031869,0.031023,0.000664,481.289581,1.594757,0.000000,41.659724,44.965707,7000.541649,1.000000,-0.943834,-0.072075,1.000000
0.900000,5.387238,0.045661,-0.000262,0.045366,-0.167846,-0.009658,481.282928,1.588135,0.000000,41.659724,44.965707,7000.527057,0.083974,-0.499048,-1.000000,-0.272383
1.000000,5.389618,0.041899,-0.000296,0.055063,0.078433,0.009427,481.273834,1.579010,0.000000,41.659724,44.965707,7000.527057,-0.355210,1.000000,-1.000000,-0.916917
1.100000,5.385507,0.039462,0.001564,0.019812,0.014548,0.074586,481.282227,1.587402,0.000000,41.659724,44.965707,7000.511179,1.000000,-0.240580,0.354204,-1.000000
1.200000,5.372789,0.037810,0.003131,-0.026467,0.036069,0.103886,481.282440,1.587585,0.000000,41.659724,44.965707,7000.511179,-1.000000,-1.000000,-0.347617,0.935613
1.300000,5.360007,0.035998,0.001326,-0.010219,0.262190,0.076613,481.293762,1.598907,0.000000,41.659724,44.965707,7000.493685,-0.110480,-0.689703,-1.000000,-1.000000
1.400000,5.349256,0.031586,0.000049,0.053185,0.462551,0.079653,481.337891,1.643066,0.000000,41.659724,44.965707,7000.493685,0.815965,-0.261337,-1.000000,-1.000000
1.500000,5.331828,0.026084,0.002025,0.060669,0.016771,0.165520,481.363708,1.668884,0.000000,41.659725,44.965707,7000.475321,0.333933,0.726541,-0.233256,-0.509057
1.600000,5.304547,0.020109,0.007909,0.056645,-0.633543,0.235770,481.330872,1.636017,0.000000,41.659725,44.965707,7000.475321,0.662737,0.384356,-0.745537,0.672583
1.700000,5.282624,0.017136,0.007172,-0.061487,-0.336856,0.086974,481.262115,1.567291,0.000000,41.659725,44.965707,7000.455795,-1.000000,-1.000000,-0.055715,-1.000000
1.800000,5.276854,0.025644,0.006403,-0.152016,0.324264,-0.056388,481.272522,1.577698,0.000000,41.659725,44.965708,7000.455795,0.309344,0.775046,0.176757,1.000000
1.900000,5.277445,0.034176,0.003934,-0.096170,0.412540,-0.080118,481.311157,1.616333,0.000000,41.659725,44.965708,7000.434529,-0.838104,-0.064449,-0.725537,-0.023043
2.000000,5.287509,0.040751,0.003197,-0.064920,0.286471,-0.104982,481.350433,1.655609,0.000000,41.659725,44.965708,7000.434529,0.824454,0.891568,-0.691554,0.727842
2.100000,5.304148,0.045702,0.003664,-0.060460,-0.035439,-0.108603,481.363434,1.668610,0.000000,41.659724,44.965708,7000.412019,0.331613,-1.000000,0.354225,-0.913752
2.200000,5.324678,0.050181,0.005797,-0.087202,-0.686338,-0.076752,481.327362,1.632538,0.000000,41.659724,44.965708,7000.412019,0.929713,-1.000000,0.336637,1.000000
2.300000,5.341457,0.054160,0.000837,-0.071601,-0.326261,-0.112357,481.250183,1.555328,0.000000,41.659724,44.965708,7000.388928,-0.939751,-0.057841,-1.000000,0.409191
2.400000,5.349110,0.057974,-0.003083,-0.063081,0.468536,-0.020293,481.271698,1.576874,0.000000,41.659724,44.965708,7000.388928,0.143114,0.371048,-0.462054,-0.742522
2.500000,5.357480,0.058432,-0.003288,-0.039697,0.541265,-0.019651,481.326630,1.631805,0.000000,41.659724,44.965708,7000.365092,0.867913,-0.094018,-0.637794,1.000000
2.600000,5.368291,0.057111,-0.002449,-0.050082,0.154686,-0.032896,481.361450,1.666626,0.000000,41.659724,44.965708,7000.365092,-0.775095,-0.732140,-0.992786,-0.138241
2.700000,5.383526,0.054417,-0.001984,-0.027678,0.129933,-0.064801,481.369965,1.675140,0.000000,41.659724,44.965708,7000.342457,0.132535,-0.470191,-0.954760,1.000000
2.800000,5.404763,0.049022,-0.002154,0.007009,0.199597,-0.100856,481.389954,1.695129,0.000000,41.659724,44.965708,7000.342457,-0.417679,-1.000000,-0.708236,-0.187200
2.900000,5.428618,0.041299,-0.003465,0.059620,0.387304,-0.113949,481.416138,1.721283,0.000000,41.659724,44.965707,7000.321191,-0.535781,0.158049,-0.008542,-0.536719
3.000000,5.445699,0.031358,-0.004243,0.125424,0.664382,-0.096755,481.467163,1.772369,0.000000,41.659724,44.965707,7000.321191,-0.548020,1.000000,-0.840162,-0.248271
3.100000,5.458298,0.017849,-0.004252,0.228019,1.154554,-0.117241,481.556427,1.861603,0.000000,41.659724,44.965707,7000.300588,-1.000000,-0.631080,-1.000000,0.896978
3.200000,5.474242,0.000710,-0.004410,0.340677,1.761101,-0.158491,481.706421,2.011597,0.000000,41.659724,44.965707,7000.300588,-0.541072,0.220648,1.000000,-1.000000
3.300000,5.490536,-0.017957,-0.003575,0.437037,2.277687,-0.174363,481.900665,2.205841,0.000000,41.659724,44.965706,7000.281270,-1.000000,0.074191,0.320231,-0.393523
3.400000,5.503053,-0.039490,0.000889,0.518288,2.537227,-0.151978,482.151764,2.456940,0.000000,41.659725,44.965706,7000.281270,1.000000,0.472696,-1.000000,0.718801
3.500000,5.515426,-0.060841,0.006425,0.561975,2.089983,-0.156118,482.388000,2.693176,0.000000,41.659725,44.965705,7000.261910,-0.926743,-0.837119,-1.000000,-1.000000
3.600000,5.528721,-0.079678,0.011483,0.626524,1.578338,-0.122493,482.558502,2.863678,0.000000,41.659725,44.965705,7000.261910,0.881848,-1.000000,0.776668,0.226536
3.700000,5.542210,-0.098237,0.017899,0.716652,0.937221,-0.096639,482.682770,2.987946,0.000000,41.659726,44.965704,7000.239898,0.165120,0.384304,0.309695,0.034189
3.800000,5.561462,-0.114799,0.022341,0.830030,0.256761,-0.083664,482.731415,3.036621,0.000000,41.659727,44.965703,7000.239898,-0.978061,-0.759063,-0.755800,0.320068
3.900000,5.585536,-0.128709,0.025113,0.983578,0.179881,-0.083759,482.735474,3.040649,0.000000,41.659727,44.965703,7000.216434,-1.000000,-0.346800,-0.717828,-1.000000
4.000000,5.612297,-0.142583,0.030510,1.208289,0.801390,-0.079315,482.769257,3.074432,0.000000,41.659728,44.965702,7000.216434,-0.478587,0.079089,-1.000000,0.565761
4.100000,5.640890,-0.156669,0.037744,1.428249,0.952198,-0.102071,482.845367,3.150543,0.000000,41.659729,44.965701,7000.191146,0.205174,0.223486,-0.111058,0.607103
4.200000,5.675927,-0.169286,0.041122,1.604140,0.567646,-0.136164,482.897247,3.202423,0.000000,41.659730,44.965700,7000.191146,0.968934,1.000000,-0.755878,-0.003257
4.300000,5.717926,-0.180549,0.041699,1.780500,-0.190147,-0.126762,482.888245,3.193420,0.000000,41.659732,44.965699,7000.163620,0.521400,1.000000,-1.000000,-0.067423
4.400000,5.760690,-0.189034,0.040458,1.964907,-1.021544,-0.114775,482.791870,3.097046,0.000000,41.659733,44.965698,7000.163620,1.000000,-1.000000,-1.000000,0.104171
4.500000,5.800283,-0.194300,0.038122,2.141200,-1.583509,-0.101445,482.627533,2.932709,0.000000,41.659734,44.965697,7000.135721,-0.712401,0.353719,0.705227,-0.471460
4.600000,5.837800,-0.196013,0.037254,2.312219,-1.632227,-0.077046,482.417206,2.722382,0.000000,41.659736,44.965696,7000.135721,0.415240,-0.872120,-1.000000,-1.000000
4.700000,5.864812,-0.192763,0.041771,2.477535,-1.737820,-0.024603,482.207733,2.512909,0.000000,41.659738,44.965695,7000.106786,1.000000,0.119893,-0.657347,1.000000
4.800000,5.887853,-0.186588,0.045802,2.620376,-2.111159,-0.005011,481.976593,2.281769,0.000000,41.659740,44.965695,7000.106786,-1.000000,-0.183810,0.504972,-0.909277
4.900000,5.910097,-0.175626,0.048964,2.713102,-1.601007,0.012425,481.730103,2.035278,0.000000,41.659741,44.965694,7000.076689,-0.371256,-1.000000,0.257380,-0.311121
5.000000,5.924127,-0.156274,0.027009,2.139808,-0.004650,-0.134976,481.624542,1.929718,0.000000,41.659743,44.965693,7000.076689,0.503627,0.263248,0.204337,-0.263435
5.100000,5.931611,-0.134021,-0.001466,2.123320,0.243756,-0.110009,481.609558,1.914734,0.000000,41.659745,44.965692,7000.049204,-1.000000,-1.000000,0.404606,-1.000000
5.200000,5.927350,-0.110023,-0.013962,2.282272,0.137316,-0.045554,481.605713,1.910889,0.000000,41.659747,44.965692,7000.049204,1.000000,-0.964469,-1.000000,0.849305
5.300000,5.919672,-0.086973,-0.020610,2.403418,-0.226421,-0.028500,481.579376,1.884552,0.000000,41.659749,44.965691,7000.024041,-0.210348,0.295256,-1.000000,0.401193
5.400000,5.915883,-0.066219,-0.025063,2.480709,-0.691717,-0.047690,481.515778,1.820953,0.000000,41.659751,44.965690,7000.024041,0.696390,-1.000000,-0.162665,-0.565879
5.500000,5.911110,-0.043833,-0.014380,2.294292,-0.917496,0.034194,481.419220,1.724396,0.000000,41.659753,44.965690,7000.000744,0.366142,-1.000000,-0.094581,0.030289
5.600000,5.900179,-0.018154,0.003245,1.795262,-0.712346,0.186385,481.321075,1.626251,0.000000,41.659755,44.965689,7000.000744,0.287635,0.483964,-1.000000,-1.000000
5.700000,5.885000,0.008464,0.001951,1.032045,-0.136432,0.203051,481.289185,1.594360,0.000000,41.659756,44.965689,6999.979892,0.814035,-0.040893,1.000000,0.706895
5.800000,5.868649,0.028219,0.000537,0.699787,-0.185378,0.180010,481.272461,1.577637,0.000000,41.659757,44.965689,6999.979892,-0.699397,-1.000000,-1.000000,0.649214
5.900000,5.857769,0.035427,0.002708,0.479695,0.231492,0.121733,481.276154,1.581329,0.000000,41.659758,44.965689,6999.959993,0.022970,-0.498317,-0.075932,-1.000000
6.000000,5.845799,0.035430,0.002880,0.505438,0.230840,0.166027,481.306244,1.611420,0.000000,41.659758,44.965689,6999.959993,1.000000,-0.293017,-0.230585,-1.000000
6.100000,5.821674,0.032925,0.004720,0.504896,-0.245739,0.248008,481.307556,1.612732,0.000000,41.659759,44.965689,6999.940344,-0.334309,0.935462,0.335931,1.000000
6.200000,5.796054,0.028173,0.001673,0.359432,-0.221707,0.216913,481.272858,1.578033,0.000000,41.659759,44.965689,6999.940344,-0.026299,1.000000,1.000000,-1.000000
6.300000,5.779428,0.022634,0.000861,0.170253,0.072746,0.218611,481.274719,1.579865,0.000000,41.659759,44.965689,6999.922228,1.000000,-0.397500,-0.892893,0.512204
6.400000,5.765975,0.022345,0.001320,0.054650,0.015285,0.200493,481.277069,1.582245,0.000000,41.659759,44.965690,6999.922228,-0.770907,0.604176,-0.873323,0.024344
6.500000,5.760232,0.025204,0.002278,-0.026828,-0.007064,0.102343,481.278046,1.583221,0.000000,41.659759,44.965690,6999.904609,1.000000,1.000000,-0.686746,-1.000000
6.600000,5.755590,0.027767,0.002903,-0.079494,-0.032866,0.092285,481.275848,1.581024,0.000000,41.659759,44.965690,6999.904609,-0.592392,1.000000,-1.000000,-1.000000
6.700000,5.742629,0.029636,0.003066,-0.078172,0.136818,0.109670,481.277832,1.583008,0.000000,41.659759,44.965690,6999.885872,0.080537,-0.814178,-0.983819,-0.308802
6.800000,5.723501,0.029767,0.007148,-0.028359,0.170978,0.170780,481.296997,1.602173,0.000000,41.659759,44.965690,6999.885872,0.443622,-1.000000,1.000000,0.120093
6.900000,5.705616,0.029594,0.007040,-0.050351,0.066867,0.207728,481.302612,1.607758,0.000000,41.659759,44.965691,6999.866885,-1.000000,-0.765716,-1.000000,-1.000000
7.000000,5.682979,0.026847,0.007645,0.015998,0.409833,0.241332,481.322601,1.627777,0.000000,41.659760,44.965691,6999.866885,-0.329279,-0.994656,0.589261,0.086908
7.100000,5.657358,0.020568,0.013323,0.096246,0.822156,0.256280,481.391113,1.696320,0.000000,41.659760,44.965691,6999.847236,-0.264967,0.521097,-0.955988,-0.063186
7.200000,5.635504,0.011954,0.020011,0.156788,0.951725,0.265740,481.473145,1.778320,0.000000,41.659760,44.965691,6999.847236,-1.000000,-0.700320,1.000000,-1.000000
7.300000,5.609766,0.000384,0.029494,0.216162,0.988749,0.336664,481.578217,1.883392,0.000000,41.659760,44.965691,6999.826467,1.000000,0.515543,-1.000000,-0.458657
7.400000,5.578505,-0.011989,0.041385,0.242264,0.525080,0.418848,481.655304,1.960480,0.000000,41.659761,44.965692,6999.826467,-0.645265,0.403788,-0.330283,1.000000
7.500000,5.554100,-0.023932,0.051096,0.287917,0.291813,0.437874,481.686859,1.992035,0.000000,41.659761,44.965692,6999.805407,0.092376,-0.668595,1.000000,0.126345
7.600000,5.540673,-0.037436,0.057892,0.362344,0.253849,0.456190,481.713715,2.018890,0.000000,41.659761,44.965692,6999.805407,-0.287993,1.000000,0.469319,-0.727048
7.700000,5.533790,-0.050837,0.063459,0.439986,0.045704,0.528626,481.725647,2.030823,0.000000,41.659762,44.965692,6999.782524,0.384888,-1.000000,0.272121,0.846063
7.800000,5.533180,-0.062897,0.067214,0.519205,-0.339874,0.576095,481.707001,2.012177,0.000000,41.659763,44.965693,6999.782524,0.405045,0.210645,-0.512374,-0.135277
7.900000,5.541197,-0.074854,0.067992,0.610926,-0.995445,0.653910,481.632751,1.937927,0.000000,41.659763,44.965693,6999.757029,1.000000,-1.000000,0.632206,-0.319424
8.000000,5.549103,-0.082589,0.065043,0.540275,-1.183743,0.473219,481.500427,1.805603,0.000000,41.659764,44.965693,6999.757029,-0.384102,-1.000000,0.736599,0.132489
8.100000,5.551298,-0.076138,0.046445,-0.004770,-0.410029,-0.112819,481.414581,1.719757,0.000000,41.659764,44.965693,6999.730705,0.779864,0.869238,-0.506519,1.000000
8.200000,5.555843,-0.054069,0.024657,-0.385307,-0.004961,-0.443063,481.412170,1.717346,0.000000,41.659764,44.965693,6999.730705,-0.219248,-1.000000,1.000000,1.000000
8.300000,5.570093,-0.029249,0.006519,-0.337859,-0.338191,-0.469434,481.394073,1.699249,0.000000,41.659763,44.965693,6999.703552,0.469854,-1.000000,0.449245,-0.215657
8.400000,5.587187,-0.005250,-0.002830,-0.342336,-0.630766,-0.475476,481.350769,1.655945,0.000000,41.659763,44.965692,6999.703552,0.780427,0.032169,1.000000,-0.020816
8.500000,5.599659,0.022372,-0.005508,-0.467342,-0.495337,-0.111926,481.277313,1.582489,0.000000,41.659762,44.965692,6999.676814,-0.069290,-1.000000,0.926840,-1.000000
8.600000,5.598487,0.048830,-0.002847,-0.329227,0.125169,0.128075,481.253052,1.558228,0.000000,41.659762,44.965693,6999.676814,0.484288,0.165785,-1.000000,-0.020177
8.700000,5.593904,0.067697,0.005802,-0.240338,0.492441,0.143331,481.283630,1.588806,0.000000,41.659762,44.965693,6999.653267,-0.224120,-1.000000,0.438231,-0.126084
8.800000,5.588672,0.085108,0.011790,-0.258489,0.356153,0.131176,481.324127,1.629303,0.000000,41.659762,44.965693,6999.653267,-0.201165,-0.088098,-1.000000,-0.312895
8.900000,5.579494,0.098070,0.019296,-0.262270,0.354502,0.125293,481.359436,1.664612,0.000000,41.659762,44.965694,6999.632042,1.000000,-0.029665,-0.345758,-0.017662
9.000000,5.568197,0.106048,0.024016,-0.292578,-0.015647,0.044975,481.374359,1.679535,0.000000,41.659761,44.965694,6999.632042,0.673508,0.043752,-1.000000,-0.299315
9.100000,5.552425,0.110563,0.022216,-0.297753,-0.304068,-0.110809,481.351166,1.656342,0.000000,41.659761,44.965694,6999.612310,-0.837477,0.435217,-0.003180,-0.349840
9.200000,5.533299,0.110561,0.018582,-0.135291,0.134989,-0.140578,481.329712,1.634888,0.000000,41.659761,44.965694,6999.612310,-1.000000,-1.000000,-1.000000,1.000000
9.300000,5.520917,0.106015,0.015956,-0.080344,0.350891,-0.176003,481.356720,1.661896,0.000000,41.659761,44.965694,6999.594899,0.693525,0.229125,-0.402822,0.880526
9.400000,5.517312,0.097847,0.008776,-0.108700,0.112537,-0.213534,481.384125,1.689301,0.000000,41.659761,44.965694,6999.594899,0.665484,-0.226636,-0.790648,-0.810384
9.500000,5.517097,0.087704,-0.000387,-0.163276,-0.472262,-0.187563,481.363403,1.668579,0.000000,41.659760,44.965694,6999.578275,-0.776207,-1.000000,-0.309214,-0.181826
9.600000,5.511446,0.077058,-0.005469,0.014666,-0.460458,-0.104351,481.312317,1.617493,0.000000,41.659760,44.965694,6999.578275,1.000000,0.543650,-1.000000,-0.828535
9.700000,5.498972,0.065000,-0.004666,0.175662,-0.340747,0.043647,481.274139,1.579315,0.000000,41.659760,44.965693,6999.561445,0.570309,-1.000000,-0.289904,-0.921647
9.800000,5.487844,0.050458,0.003726,0.219142,0.169957,0.126628,481.265350,1.570526,0.000000,41.659761,44.965693,6999.561445,-0.547104,-0.114754,1.000000,-0.290502
9.900000,5.477545,0.037864,0.002680,0.142407,0.146249,0.114114,481.285065,1.590240,0.000000,41.659761,44.965693,6999.544241,0.653118,0.040944,-1.000000,0.901411
10.000000,5.468042,0.026089,0.000468,0.162965,0.039013,0.100891,481.292633,1.597809,0.000000,41.659761,44.965693,6999.544241,-0.267328,1.000000,-0.889029,-1.000000
10.100000,5.467471,0.018810,0.007170,0.110659,0.065739,0.126538,481.298431,1.603607,0.000000,41.659761,44.965693,6999.525254,-1.000000,0.868879,0.034118,-1.000000
10.200000,5.464403,0.012807,0.010990,0.114450,0.271937,0.172788,481.317535,1.622711,0.000000,41.659761,44.965693,6999.525254,0.564117,1.000000,-0.034660,0.076280
10.300000,5.455827,0.005544,0.017178,0.172539,0.284516,0.224995,481.346375,1.651550,0.000000,41.659761,44.965694,6999.504071,-0.936028,-0.548088,0.026836,-1.000000
10.400000,5.443722,-0.002749,0.026878,0.241681,0.416661,0.258534,481.378296,1.683472,0.000000,41.659762,44.965694,6999.504071,0.125888,0.993283,0.159859,1.000000
10.500000,5.435285,-0.011831,0.036934,0.314497,0.514491,0.275316,481.424225,1.729401,0.000000,41.659762,44.965694,6999.482473,-0.632168,1.000000,0.047291,-1.000000
10.600000,5.430125,-0.022562,0.048736,0.407903,0.707326,0.321045,481.479767,1.784943,0.000000,41.659762,44.965694,6999.482473,-0.843897,-0.209347,1.000000,-0.585002
10.700000,5.422651,-0.034672,0.064000,0.517547,0.966818,0.391613,481.566650,1.871826,0.000000,41.659763,44.965694,6999.460128,0.009147,0.862624,-0.625286,0.530888
10.800000,5.418490,-0.047141,0.079304,0.613204,0.962954,0.454648,481.655884,1.961060,0.000000,41.659764,44.965694,6999.460128,-0.520510,1.000000,-1.000000,-0.910949
10.900000,5.416914,-0.060966,0.095012,0.720644,0.800992,0.543497,481.738037,2.043213,0.000000,41.659765,44.965694,6999.436541,0.204398,0.369276,-0.251004,0.629467
11.000000,5.419552,-0.075261,0.108856,0.844060,0.671723,0.627079,481.799744,2.104919,0.000000,41.659766,44.965693,6999.436541,-0.621693,1.000000,-0.519704,-0.170046
11.100000,5.429282,-0.089211,0.117745,0.966013,0.446085,0.699614,481.840515,2.145691,0.000000,41.659767,44.965693,6999.412662,0.618718,0.337509,-0.182124,0.592848
11.200000,5.447608,-0.103861,0.121229,1.113707,0.277521,0.759293,481.854126,2.159302,0.000000,41.659768,44.965693,6999.412662,-1.000000,0.550963,-1.000000,0.455626
11.300000,5.474181,-0.118081,0.116965,1.294965,0.406481,0.810012,481.863861,2.169037,0.000000,41.659769,44.965693,6999.387499,0.356860,0.552522,1.000000,-0.523998
11.400000,5.501471,-0.130307,0.108045,1.473343,0.367796,0.860982,481.879608,2.184784,0.000000,41.659771,44.965693,6999.387499,-0.222537,0.782824,-0.346338,1.000000
11.500000,5.535620,-0.141738,0.092659,1.667792,0.230987,0.862073,481.874939,2.180145,0.000000,41.659772,44.965693,6999.360180,-0.151659,-1.000000,0.401359,0.740780
11.600000,5.578743,-0.151375,0.070116,1.889616,0.435515,0.809447,481.869934,2.175140,0.000000,41.659774,44.965692,6999.360180,-1.000000,-1.000000,-1.000000,-0.206221
11.700000,5.620748,-0.158596,0.048064,2.142321,0.859783,0.777889,481.898193,2.203369,0.000000,41.659776,44.965692,6999.333649,-0.167549,0.974580,-1.000000,0.091282
11.800000,5.660728,-0.165956,0.027943,2.430796,1.017686,0.763810,481.957611,2.262787,0.000000,41.659778,44.965691,6999.333649,0.235726,-0.166834,-1.000000,-1.000000
11.900000,5.692539,-0.172594,0.012246,2.650060,0.507150,0.765465,481.992126,2.297302,0.000000,41.659780,44.965691,6999.308320,1.000000,-1.000000,-0.097964,0.575605
12.000000,5.718549,-0.177250,-0.000234,2.839512,-0.091547,0.733423,481.962402,2.267578,0.000000,41.659783,44.965690,6999.308320,-0.734078,0.997631,0.317688,1.000000
12.100000,5.748979,-0.180030,-0.012300,3.047271,-0.122304,0.631897,481.890228,2.195404,0.000000,41.659786,44.965690,6999.283903,-0.177485,1.000000,-0.572377,-0.274946
12.200000,5.782597,-0.180113,-0.018474,3.263870,0.111336,0.524250,481.840485,2.145660,0.000000,41.659788,44.965689,6999.283903,1.000000,-0.214211,-1.000000,-1.000000
12.300000,5.807667,-0.178453,-0.016336,3.449502,-0.273982,0.518086,481.776917,2.082092,0.000000,41.659791,44.965688,6999.261476,-0.457879,0.807981,-1.000000,-0.458935
12.400000,5.820006,-0.175109,-0.003653,3.567199,-0.459811,0.547672,481.669159,1.974335,0.000000,41.659794,44.965687,6999.261476,-0.869801,1.000000,-0.254920,1.000000
12.500000,5.827433,-0.165824,0.014438,2.719229,0.477632,0.446675,481.623840,1.929016,0.000000,41.659797,44.965687,6999.239463,1.000000,0.012104,-1.000000,-1.000000
12.600000,5.835648,-0.153089,0.011024,2.526768,0.364918,0.403891,481.631195,1.936371,0.000000,41.659799,44.965686,6999.239463,0.300101,1.000000,-0.037567,0.307655
12.700000,5.840759,-0.137055,0.001574,2.436080,-0.047994,0.385419,481.606598,1.911774,0.000000,41.659802,44.965686,6999.217741,0.499935,1.000000,0.733672,0.141092
12.800000,5.847429,-0.117131,0.000066,2.200471,-0.114478,0.313673,481.564301,1.869446,0.000000,41.659804,44.965686,6999.217741,-0.463818,-0.542748,-1.000000,1.000000
12.900000,5.858878,-0.095552,0.002394,2.205098,0.063858,0.242045,481.538300,1.843475,0.000000,41.659806,44.965685,6999.197387,-0.276054,-0.843999,0.841757,0.023003
13.000000,5.876717,-0.074164,0.005572,2.370805,0.473833,0.158435,481.543060,1.848236,0.000000,41.659808,44.965685,6999.197387,-1.000000,0.763936,-0.354830,1.000000
13.100000,5.898879,-0.056007,0.010438,2.531409,0.577913,0.087422,481.588165,1.893341,0.000000,41.659810,44.965684,6999.177571,1.000000,0.376883,-0.235296,-0.513127
13.200000,5.920983,-0.041433,0.015710,2.620529,0.121230,0.063499,481.612213,1.917389,0.000000,41.659812,44.965683,6999.177571,0.269952,0.338004,0.554557,-1.000000
13.300000,5.935143,-0.027452,0.024068,2.670728,-0.564004,0.159655,481.578003,1.883179,0.000000,41.659814,44.965683,6999.158004,0.112659,0.605120,1.000000,-1.000000
13.400000,5.930935,-0.014695,0.037274,2.722664,-0.730185,0.300381,481.497803,1.802979,0.000000,41.659817,44.965682,6999.158004,-1.000000,-1.000000,0.372717,0.898416
13.500000,5.921072,-0.004525,0.049335,2.771263,-0.652602,0.362745,481.432343,1.737518,0.000000,41.659819,44.965682,6999.139723,1.000000,-0.838643,0.300306,0.835443
13.600000,5.917042,0.004638,0.051288,2.676884,-0.559520,0.352376,481.363861,1.669037,0.000000,41.659822,44.965682,6999.139723,-1.000000,1.000000,1.000000,-0.389821
13.700000,5.917925,0.012438,0.023915,2.541014,-0.163202,0.330612,481.332367,1.637573,0.000000,41.659824,44.965681,6999.120529,0.508278,-0.594513,-1.000000,-1.000000
13.800000,5.912664,0.017981,0.003956,2.581334,-0.219076,0.423220,481.322754,1.627930,0.000000,41.659826,44.965681,6999.120529,0.732224,-0.064127,-0.394982,-0.147309
13.900000,5.899759,0.022191,-0.005752,2.507422,-0.263455,0.486475,481.293335,1.598511,0.000000,41.659828,44.965681,6999.099636,-1.000000,-0.846881,0.258288,-0.665007
14.000000,5.884221,0.018606,0.005675,2.326106,0.334063,0.506053,481.301392,1.606598,0.000000,41.659831,44.965681,6999.099636,-1.000000,1.000000,0.080416,0.815273
14.100000,5.874451,0.009934,0.011080,2.431946,1.197577,0.466947,481.374573,1.679749,0.000000,41.659833,44.965681,6999.078286,-0.880542,-1.000000,0.477781,1.000000
14.200000,5.876386,-0.003593,0.014904,2.555711,2.217813,0.379048,481.550781,1.855957,0.000000,41.659835,44.965680,6999.078286,-1.000000,0.986010,-0.088559,-1.000000
14.300000,5.886159,-0.020616,0.018271,2.643694,2.733136,0.346537,481.806854,2.112030,0.000000,41.659837,44.965680,6999.056439,-0.244839,0.832368,0.458036,0.875748
14.400000,5.898303,-0.038212,0.021433,2.703775,2.801960,0.313731,482.067749,2.372925,0.000000,41.659840,44.965680,6999.056439,-0.436392,-0.882061,0.557267,1.000000
14.500000,5.920939,-0.057880,0.021039,2.796397,2.935114,0.209458,482.340759,2.645966,0.000000,41.659842,44.965679,6999.033556,-1.000000,-0.276535,-1.000000,0.774193
14.600000,5.956482,-0.078917,0.013904,2.907579,3.152759,0.085517,482.634735,2.939911,0.000000,41.659845,44.965679,6999.033556,0.027552,1.000000,-0.070067,0.479734
14.700000,5.996119,-0.098587,0.002853,2.991496,2.917641,0.016050,482.904388,3.209564,0.000000,41.659848,44.965678,6999.010466,0.847253,0.056206,-0.810540,-0.956099
14.800000,6.035092,-0.117732,-0.009179,3.067800,2.181808,0.007384,483.131378,3.436554,0.000000,41.659851,44.965678,6999.010466,1.000000,-0.380515,-1.000000,-0.995612
14.900000,6.060858,-0.134353,-0.016223,3.163018,1.229130,0.065559,483.263336,3.568512,0.000000,41.659854,44.965677,6998.985510,0.619992,0.054646,-1.000000,-0.852230
15.000000,6.072037,-0.147984,-0.016219,3.290703,0.448493,0.132738,483.296570,3.601776,0.000000,41.659857,44.965677,6998.985510,-1.000000,-0.387165,-1.000000,-0.647351
15.100000,6.075742,-0.160945,-0.009258,3.472803,0.096297,0.176319,483.264984,3.570129,0.000000,41.659860,44.965677,6998.958191,0.156766,1.000000,0.158991,0.746360
15.200000,6.082668,-0.172939,0.002271,3.687529,0.187723,0.166999,483.221405,3.526581,0.000000,41.659863,44.965677,6998.958191,-0.429572,0.180442,1.000000,-1.000000
15.300000,6.090811,-0.183246,0.016687,3.892021,0.380148,0.192144,483.179901,3.485077,0.000000,41.659866,44.965677,6998.930499,-0.438540,0.015704,0.176597,-0.303565
15.400000,6.093954,-0.192863,0.037238,4.122020,0.680878,0.242358,483.157349,3.462524,0.000000,41.659870,44.965677,6998.930499,-0.316300,-0.822835,0.144932,0.141328
15.500000,6.098623,-0.201477,0.056816,4.361555,0.864895,0.249981,483.150146,3.455322,0.000000,41.659874,44.965677,6998.902849,-0.249946,0.128044,0.337380,1.000000
15.600000,6.111756,-0.209038,0.069472,4.589819,0.878815,0.186396,483.144196,3.449371,0.000000,41.659878,44.965677,6998.902849,-0.146364,1.000000,0.431488,1.000000
15.700000,6.139688,-0.216406,0.073922,4.820965,0.550896,0.099181,483.117767,3.422943,0.000000,41.659882,44.965677,6998.873789,0.860287,1.000000,1.000000,-0.546104
15.800000,6.172433,-0.221713,0.074053,5.041822,-0.117831,0.048589,483.031708,3.336884,0.000000,41.659886,44.965678,6998.873789,1.000000,-0.922670,-1.000000,-0.157224
15.900000,6.197667,-0.223976,0.074678,5.245889,-0.766063,0.071230,482.876587,3.181763,0.000000,41.659891,44.965678,6998.845267,-0.840304,1.000000,0.016343,-0.630360
16.000000,6.215141,-0.222469,0.076839,5.437689,-0.775539,0.106392,482.670654,2.975830,0.000000,41.659895,44.965678,6998.845267,-1.000000,-0.991204,1.000000,-0.152860
16.100000,6.224844,-0.215022,0.078674,5.618303,0.355825,0.098064,482.517273,2.822449,0.000000,41.659900,44.965679,6998.817451,-1.000000,1.000000,-1.000000,0.035934
16.200000,6.230959,-0.204266,0.079418,5.882964,1.410524,0.111427,482.497101,2.802277,0.000000,41.659905,44.965680,6998.817451,0.197159,0.533265,-0.324416,-0.415710
16.300000,6.232290,-0.192194,0.082148,6.144702,1.287427,0.227322,482.515991,2.821167,0.000000,41.659911,44.965681,6998.790505,-0.207725,-0.440872,-1.000000,-0.427710
16.400000,6.226953,-0.179204,0.086831,6.375880,1.071740,0.373465,482.506653,2.811829,0.000000,41.659916,44.965682,6998.790505,-1.000000,-0.618678,0.950415,0.551421
16.500000,6.224076,-0.167137,0.089027,6.593773,1.045586,0.443373,482.500092,2.805237,0.000000,41.659922,44.965683,6998.766876,0.734231,0.735938,-0.978725,1.000000
16.600000,6.231093,-0.155186,0.085350,6.793544,0.628359,0.460415,482.474365,2.779541,0.000000,41.659928,44.965684,6998.766876,0.117991,-0.805050,-0.199245,-0.234137
16.700000,6.244032,-0.143323,0.077732,6.957962,-0.011407,0.482122,482.395752,2.700928,0.000000,41.659934,44.965686,6998.745236,0.472995,-0.278089,0.706428,-0.080914
16.800000,6.254302,-0.131402,0.070404,7.088062,-0.652901,0.540829,482.270142,2.575317,0.000000,41.659940,44.965687,6998.745236,1.000000,0.590234,-0.311233,-1.000000
16.900000,6.257062,-0.117628,0.065313,7.194978,-1.268439,0.666173,482.072388,2.377563,0.000000,41.659946,44.965689,6998.721731,-1.000000,1.000000,-1.000000,-0.059953
17.000000,6.250767,-0.102332,0.062693,7.278279,-1.057460,0.809233,481.858246,2.163422,0.000000,41.659952,44.965690,6998.721731,-0.609362,-0.128913,0.329159,-1.000000
17.100000,6.235365,-0.086323,0.062909,7.355394,-0.726793,1.035182,481.711578,2.016754,0.000000,41.659959,44.965692,7000.231565,1.000000,-0.077632,-1.000000,-1.000000
17.200000,6.204510,-0.068406,0.068221,7.387145,-1.172230,1.418766,481.552734,1.857910,0.000000,41.659965,44.965694,7000.231565,1.000000,-0.210636,-1.000000,1.000000
17.300000,6.172453,-0.048020,0.046923,6.679946,-1.148748,1.527134,481.371613,1.676788,0.000000,41.659971,44.965696,7000.206526,-0.883076,-0.946440,-0.739401,-1.000000
17.400000,6.149368,-0.023841,0.002126,5.354830,0.173373,1.285363,481.306152,1.611359,0.000000,41.659976,44.965698,7000.206526,-0.091440,-0.781541,0.848169,-0.246384
17.500000,6.120589,0.002018,-0.000855,5.185994,-0.149420,1.450065,481.314148,1.619293,0.000000,41.659981,44.965700,7000.181943,1.000000,0.003891,0.207689,0.289648
17.600000,6.094648,0.024455,0.001960,4.885474,-0.570647,1.519952,481.278809,1.583984,0.000000,41.659986,44.965701,7000.181943,1.000000,1.000000,0.294572,1.000000
17.700000,6.080790,0.034219,0.007443,4.080846,-0.187995,1.336667,481.246155,1.551300,0.000000,41.659990,44.965703,7000.159185,0.631642,-1.000000,-1.000000,0.138774
17.800000,6.077230,0.026948,0.005957,3.397672,0.128038,1.114760,481.262726,1.567902,0.000000,41.659993,44.965704,7000.159185,-1.000000,1.000000,1.000000,-0.413131
17.900000,6.072842,0.017559,0.003192,3.113991,0.200086,1.061905,481.284058,1.589233,0.000000,41.659996,44.965705,7000.137877,1.000000,1.000000,-0.495159,0.026318
18.000000,6.065163,0.007960,0.002063,2.979788,0.122290,1.047160,481.304382,1.609558,0.000000,41.659999,44.965706,7000.137877,-0.795267,-0.345448,-0.673915,1.000000
18.100000,6.058568,-0.001627,0.002795,2.825578,0.373899,0.975023,481.324066,1.629242,0.000000,41.660001,44.965707,7000.117274,-0.599225,-1.000000,-1.000000,-0.605497
18.200000,6.053118,-0.014078,0.006079,2.944866,0.857667,0.967846,481.383667,1.688843,0.000000,41.660004,44.965707,7000.117274,-0.734165,1.000000,-0.412668,0.063881
18.300000,6.045603,-0.029171,0.009953,3.038875,1.016491,0.980071,481.471741,1.776917,0.000000,41.660007,44.965708,7000.098826,0.233055,1.000000,-0.015795,1.000000
18.400000,6.041393,-0.047208,0.011894,3.118184,0.760904,0.978198,481.553009,1.858185,0.000000,41.660010,44.965709,7000.098826,-0.161580,0.150298,-0.736600,-0.443389
18.500000,6.040535,-0.065666,0.011573,3.193009,0.222736,1.000791,481.584900,1.890076,0.000000,41.660012,44.965710,7000.081539,1.000000,0.244927,-1.000000,0.608287
18.600000,6.042086,-0.082417,0.009839,3.276133,-0.422355,1.008139,481.552856,1.858032,0.000000,41.660015,44.965711,7000.081539,1.000000,-0.570068,0.670105,1.000000
18.700000,6.050544,-0.096255,0.005968,2.859061,-0.445137,0.795134,481.463867,1.769043,0.000000,41.660018,44.965711,7000.064045,-1.000000,0.852853,1.000000,0.290280
18.800000,6.063997,-0.099658,0.012034,2.042722,0.501459,0.501509,481.437286,1.742462,0.000000,41.660020,44.965712,7000.064045,-1.000000,-0.327517,-0.572099,-0.319598
18.900000,6.076560,-0.097584,0.014216,2.060180,1.031939,0.471018,481.491913,1.797119,0.000000,41.660022,44.965712,7000.045100,-0.993431,-0.831385,0.376797,-1.000000
19.000000,6.082003,-0.098198,0.023363,2.303303,1.757936,0.490595,481.618896,1.924072,0.000000,41.660024,44.965713,7000.045100,0.599731,0.012035,-0.078158,0.259642
19.100000,6.085396,-0.101122,0.035496,2.462515,1.536969,0.499162,481.766388,2.071564,0.000000,41.660027,44.965713,7000.023627,-0.209803,1.000000,-0.434943,0.991383
19.200000,6.095395,-0.104502,0.044142,2.585293,0.921408,0.491648,481.857819,2.162994,0.000000,41.660029,44.965714,7000.023627,1.000000,-0.493307,-1.000000,-0.256005
19.300000,6.114234,-0.108097,0.049651,2.710420,0.111793,0.474665,481.880402,2.185577,0.000000,41.660031,44.965714,7000.000288,0.600972,-0.719291,-0.882196,0.809855
19.400000,6.146400,-0.111414,0.047910,2.840842,-0.650063,0.412069,481.815582,2.120758,0.000000,41.660034,44.965715,7000.000288,-1.000000,0.137252,-0.556049,0.120913
19.500000,6.183330,-0.113583,0.041616,2.974288,-0.804676,0.328296,481.707092,2.012268,0.000000,41.660036,44.965715,6999.976078,-0.743150,-0.704963,1.000000,-1.000000
19.600000,6.223225,-0.114059,0.034488,3.145323,0.035583,0.237580,481.624573,1.929749,0.000000,41.660039,44.965716,6999.976078,-1.000000,-0.962601,0.766749,1.000000
19.700000,6.263353,-0.114443,0.029385,3.388261,1.210491,0.089926,481.653687,1.958862,0.000000,41.660042,44.965716,6999.950293,-0.897549,-0.089116,0.148864,-0.673538
19.800000,0.020107,-0.116938,0.024045,3.610176,1.810895,-0.029649,481.766937,2.072144,0.000000,41.660045,44.965717,6999.950293,0.057498,-0.349417,-0.764018,-1.000000
19.900000,0.057175,-0.120386,0.021111,3.778905,1.560310,-0.094311,481.899231,2.204407,0.000000,41.660049,44.965718,6999.922932,1.000000,-0.162093,0.387342,1.000000
20.000000,0.094132,-0.123324,0.018274,3.915034,0.870468,-0.184571,481.975220,2.280396,0.000000,41.660052,44.965719,6999.922932,-0.199142,0.045927,1.000000,-0.148374
20.100000,0.132396,-0.125172,0.013911,4.037046,0.283467,-0.293572,481.981354,2.286530,0.000000,41.660056,44.965720,6999.896567,0.738034,0.009278,0.062092,0.027642
20.200000,0.174417,-0.125744,0.009228,4.156816,-0.337104,-0.427079,481.928345,2.233551,0.000000,41.660059,44.965721,6999.896567,0.681284,0.103189,-0.329050,1.000000
20.300000,0.221597,-0.124602,0.002116,4.257522,-1.047814,-0.604180,481.801849,2.107025,0.000000,41.660063,44.965722,6999.869911,-0.079892,1.000000,1.000000,-0.325069
20.400000,0.268507,-0.121459,-0.005050,4.333713,-1.263935,-0.790744,481.636078,1.941254,0.000000,41.660066,44.965723,6999.869911,-0.160768,-1.000000,0.116761,1.000000
20.500000,0.319730,-0.112940,-0.004126,3.678235,-0.556470,-0.966872,481.488251,1.793427,0.000000,41.660070,44.965724,6999.841183,0.670865,-1.000000,-0.966310,0.327275
20.600000,0.373706,-0.095856,-0.001854,2.751452,0.153892,-1.080137,481.432648,1.737823,0.000000,41.660073,44.965724,6999.841183,-0.267881,-1.000000,-0.044910,1.000000
20.700000,0.425855,-0.074651,-0.001957,2.498389,0.217806,-1.206684,481.433594,1.738770,0.000000,41.660075,44.965725,6999.812704,-0.041661,-0.247678,-1.000000,0.567091
20.800000,0.481585,-0.053198,-0.004616,2.519946,-0.029718,-1.365963,481.428680,1.733856,0.000000,41.660078,44.965725,6999.812704,0.184428,-0.364342,1.000000,0.846594
20.900000,0.535109,-0.032326,-0.002931,2.322367,-0.375162,-1.461821,481.400085,1.705261,0.000000,41.660080,44.965726,6999.786131,1.000000,-0.933325,-1.000000,-0.551957
21.000000,0.580307,-0.012049,-0.000851,1.952851,-0.783655,-1.419897,481.339417,1.644592,0.000000,41.660082,44.965726,6999.786131,0.829846,-0.038315,-0.699090,-0.115548
21.100000,0.612468,0.008387,-0.010779,1.049802,-0.249532,-1.000693,481.269989,1.575165,0.000000,41.660084,44.965726,6999.761465,-0.210713,1.000000,-0.768153,-1.000000
21.200000,0.618554,0.016294,-0.032566,0.176390,0.634674,-0.456828,481.290771,1.595947,0.000000,41.660085,44.965726,6999.761465,-0.284513,-1.000000,0.299686,-0.676875
21.300000,0.605322,0.017852,-0.052547,0.197172,0.795683,-0.368642,481.357025,1.662170,0.000000,41.660085,44.965726,6999.740199,-0.817978,-0.700784,0.359523,-0.812696
21.400000,0.574528,0.015542,-0.066426,0.301504,1.274885,-0.339269,481.456268,1.761444,0.000000,41.660086,44.965725,6999.740199,-0.716210,-0.074374,-0.520487,-1.000000
21.500000,0.530564,0.008055,-0.072635,0.449968,2.100467,-0.363688,481.625275,1.930450,0.000000,41.660086,44.965725,6999.721171,-1.000000,0.038904,0.109556,1.000000
21.600000,0.490652,-0.003319,-0.074283,0.565693,2.574502,-0.443611,481.853943,2.159119,0.000000,41.660087,44.965725,6999.721171,0.068470,1.000000,1.000000,1.000000
21.700000,0.458262,-0.017415,-0.075711,0.628051,2.341192,-0.538249,482.105896,2.411102,0.000000,41.660088,44.965725,6999.703552,0.379249,1.000000,-1.000000,0.649240
21.800000,0.436519,-0.031679,-0.078538,0.665099,1.641221,-0.608991,482.303345,2.608551,0.000000,41.660089,44.965725,6999.703552,0.486007,-0.603692,-0.297900,-1.000000
21.900000,0.420204,-0.045018,-0.081078,0.718422,1.000892,-0.647802,482.420471,2.725647,0.000000,41.660090,44.965724,6999.687344,-0.088458,-0.640939,1.000000,1.000000
22.000000,0.404774,-0.059208,-0.082482,0.802462,0.426733,-0.700754,482.481567,2.786774,0.000000,41.660090,44.965724,6999.687344,0.248116,-0.150499,0.132832,-0.730390
22.100000,0.391781,-0.073357,-0.080921,0.917544,0.173128,-0.731376,482.496063,2.801239,0.000000,41.660091,44.965724,6999.668979,-0.652188,1.000000,0.858314,-0.102213
22.200000,0.377510,-0.086940,-0.072515,1.043226,-0.008006,-0.752039,482.492584,2.797760,0.000000,41.660093,44.965724,6999.668979,0.556360,0.369633,-0.794211,0.846596
22.300000,0.367063,-0.100823,-0.059779,1.179660,-0.345657,-0.790905,482.459412,2.764587,0.000000,41.660094,44.965724,6999.647215,-0.485436,0.053113,0.537252,-0.642958
22.400000,0.361536,-0.113871,-0.043949,1.332838,-0.438610,-0.790158,482.394409,2.699585,0.000000,41.660095,44.965723,6999.647215,-1.000000,-0.849481,-1.000000,-0.630916
22.500000,0.353291,-0.126068,-0.021978,1.520920,0.103710,-0.747277,482.360352,2.665527,0.000000,41.660096,44.965723,6999.623959,0.051035,-0.183343,-0.029114,1.000000
22.600000,0.345603,-0.139499,0.002468,1.728392,0.399274,-0.762504,482.364197,2.669373,0.000000,41.660098,44.965724,6999.623959,-1.000000,-0.624800,1.000000,0.483308
22.700000,0.348514,-0.153357,0.021436,1.926499,0.510749,-0.793481,482.385895,2.691040,0.000000,41.660100,44.965724,6999.598920,0.346826,0.156442,-0.323325,0.436351
22.800000,0.360211,-0.166279,0.034675,2.101801,0.374208,-0.799872,482.403351,2.708527,0.000000,41.660102,44.965724,6999.598920,0.728527,1.000000,1.000000,-0.367238
22.900000,0.375612,-0.178840,0.046205,2.274677,-0.217730,-0.725489,482.377502,2.682678,0.000000,41.660104,44.965725,6999.571477,0.333378,0.294899,-1.000000,-1.000000
23.000000,0.383117,-0.189016,0.059597,2.461891,-0.735449,-0.587550,482.284424,2.589600,0.000000,41.660106,44.965725,6999.571477,-0.918044,-0.371063,-0.142545,-0.176718
23.100000,0.385086,-0.195815,0.072623,2.648268,-0.513804,-0.505098,482.174591,2.479767,0.000000,41.660108,44.965726,6999.543619,-1.000000,-0.412523,-0.020217,0.433619
23.200000,0.391492,-0.200407,0.082403,2.873907,0.193677,-0.467931,482.114685,2.419830,0.000000,41.660110,44.965727,6999.543619,1.000000,0.254331,-0.171361,-0.921975
23.300000,0.398561,-0.203116,0.091011,3.093130,-0.051762,-0.351503,482.069550,2.374725,0.000000,41.660113,44.965729,6999.514683,-0.069196,0.364537,-1.000000,0.140918
23.400000,0.403566,-0.203771,0.098961,3.286462,-0.457911,-0.233228,481.983612,2.288788,0.000000,41.660115,44.965730,6999.514683,0.305121,-0.652723,0.546279,-0.507773
23.500000,0.407788,-0.202009,0.105616,3.481707,-0.902823,-0.074448,481.851715,2.156891,0.000000,41.660118,44.965732,6999.484089,1.000000,-0.047988,-0.672029,-0.905209
23.600000,0.408808,-0.198764,0.087746,2.789216,-0.754253,-0.047922,481.704865,2.010040,0.000000,41.660120,44.965733,6999.484089,-0.462237,-0.372849,0.344528,-0.407648
23.700000,0.410168,-0.195865,0.053735,2.017466,-0.192425,-0.161654,481.603821,1.908997,0.000000,41.660122,44.965735,6999.453744,0.495927,0.797011,1.000000,-0.026119
23.800000,0.409275,-0.195331,0.036732,0.850272,0.767863,-0.123125,481.615784,1.920959,0.000000,41.660123,44.965735,6999.453744,-1.000000,-0.555263,-0.533460,0.233787
23.900000,0.409956,-0.197548,0.031426,0.817886,0.745245,-0.118978,481.674255,1.979431,0.000000,41.660124,44.965736,6999.423192,0.976254,-1.000000,0.642778,1.000000
24.000000,0.420214,-0.200985,0.012784,0.821045,0.489774,-0.207898,481.723724,2.028900,0.000000,41.660124,44.965736,6999.423192,0.354439,0.610011,0.311666,-0.435138
24.100000,0.434661,-0.203878,-0.003469,0.898365,0.128645,-0.188767,481.728699,2.033875,0.000000,41.660125,44.965737,6999.393800,-0.768668,0.772587,-0.691657,-0.092861
24.200000,0.440222,-0.206379,-0.003482,0.915576,0.514091,-0.164739,481.739380,2.044556,0.000000,41.660126,44.965737,6999.393800,-1.000000,0.693110,1.000000,1.000000
24.300000,0.445656,-0.210087,0.001573,1.196813,0.877055,-0.183697,481.787811,2.092987,0.000000,41.660127,44.965738,6999.368306,0.078803,-0.135788,-1.000000,-1.000000
24.400000,0.449296,-0.216157,0.011448,1.481641,0.896846,-0.155442,481.852509,2.157684,0.000000,41.660128,44.965739,6999.368306,1.000000,-0.511315,-0.181411,-0.484714
24.500000,0.440199,-0.222850,0.027971,1.719384,0.342639,-0.028143,481.880981,2.186157,0.000000,41.660129,44.965740,6999.345422,0.094817,-1.000000,-1.000000,-1.000000
24.600000,0.417686,-0.228106,0.048084,1.932840,-0.263510,0.118286,481.843903,2.149078,0.000000,41.660131,44.965741,6999.345422,0.901373,-0.054747,-1.000000,0.420584
24.700000,0.394943,-0.233117,0.047439,1.440424,-0.390849,0.151719,481.765594,2.070801,0.000000,41.660132,44.965742,6999.324363,0.394987,-0.219411,0.301449,0.397634
24.800000,0.386429,-0.241714,0.021716,0.198608,0.189100,-0.256773,481.724976,2.030151,0.000000,41.660133,44.965742,6999.324363,-0.767450,-0.332348,-0.336856,-0.562285
24.900000,0.388206,-0.245797,0.008471,-0.080136,0.673040,-0.278854,481.774902,2.080048,0.000000,41.660133,44.965742,6999.305128,0.103582,-0.743545,-0.026318,1.000000
25.000000,0.394819,-0.249373,-0.005410,0.249662,0.764326,-0.283523,481.842133,2.147308,0.000000,41.660133,44.965742,6999.305128,-1.000000,-1.000000,-0.328422,-0.856921
25.100000,0.402186,-0.254818,-0.016317,0.579126,0.828983,-0.279774,481.913116,2.218292,0.000000,41.660134,44.965742,6999.285437,1.000000,1.000000,0.085481,0.133462
25.200000,0.404714,-0.260771,-0.020834,0.847185,0.418700,-0.232295,481.955688,2.260834,0.000000,41.660134,44.965742,6999.285437,1.000000,0.282353,-0.886692,-1.000000
25.300000,0.400594,-0.266585,-0.018082,1.117607,-0.107047,-0.183172,481.941650,2.246796,0.000000,41.660135,44.965743,6999.264627,-0.551463,0.215222,-0.011232,0.371881
25.400000,0.393311,-0.271099,-0.008429,1.382633,-0.477161,-0.149963,481.877472,2.182648,0.000000,41.660136,44.965743,6999.264627,0.915832,0.541397,-1.000000,0.204585
25.500000,0.391757,-0.274362,0.000192,0.832725,-0.277777,-0.048020,481.802063,2.107239,0.000000,41.660137,44.965744,6999.244272,0.275864,1.000000,0.814929,0.524836
25.600000,0.395938,-0.278511,0.001155,-0.147511,0.397031,-0.011518,481.804504,2.109680,0.000000,41.660137,44.965744,6999.244272,-1.000000,-0.453392,-0.635678,-0.822307
25.700000,0.398015,-0.275165,0.002853,-0.025074,0.494993,0.020712,481.851990,2.157166,0.000000,41.660137,44.965744,6999.222342,0.016814,1.000000,-0.224617,0.535615
25.800000,0.400216,-0.273071,0.008800,0.298850,0.564481,0.022356,481.901672,2.206848,0.000000,41.660137,44.965744,6999.222342,1.000000,0.006338,-1.000000,1.000000
25.900000,0.409969,-0.271528,0.013808,0.593192,0.053409,-0.000770,481.922455,2.227631,0.000000,41.660138,44.965745,6999.198257,1.000000,0.702161,-0.933358,1.000000
26.000000,0.431275,-0.269648,0.013970,0.861227,-0.616208,-0.014675,481.871338,2.176514,0.000000,41.660138,44.965745,6999.198257,-1.000000,-0.463279,-0.374625,-0.749260
26.100000,0.454858,-0.266655,0.014736,0.458863,-0.360715,-0.229605,481.796234,2.101410,0.000000,41.660139,44.965745,6999.174752,1.000000,-1.000000,1.000000,1.000000
26.200000,0.475847,-0.260105,0.011587,-0.101487,0.156786,-0.344573,481.795563,2.100739,0.000000,41.660139,44.965745,6999.174752,0.734174,-0.423874,-1.000000,-1.000000
26.300000,0.488607,-0.248235,0.002246,-0.172003,-0.242061,-0.303856,481.795410,2.100586,0.000000,41.660139,44.965744,6999.152035,0.495293,-0.947873,-1.000000,0.094912
26.400000,0.491306,-0.233328,-0.005661,-0.308364,-0.379688,-0.148903,481.768066,2.073242,0.000000,41.660139,44.965744,6999.152035,-1.000000,0.419242,-0.649657,1.000000
26.500000,0.491605,-0.212971,-0.007732,-0.316993,-0.119756,-0.028493,481.747833,2.053009,0.000000,41.660139,44.965744,6999.129359,-0.744651,-0.713866,-1.000000,-1.000000
26.600000,0.489779,-0.193944,-0.002481,-0.022135,0.531735,-0.027357,481.770569,2.075745,0.000000,41.660139,44.965744,6999.129359,-0.676174,-1.000000,-0.115332,0.203060
26.700000,0.482727,-0.179797,0.007499,0.251895,0.738024,-0.019509,481.835083,2.140259,0.000000,41.660139,44.965744,6999.108631,1.000000,-0.460136,0.433049,-0.521469
26.800000,0.471202,-0.167295,0.019006,0.464669,0.264300,0.043240,481.881165,2.186340,0.000000,41.660139,44.965744,6999.108631,-0.425854,-0.865454,0.495754,-1.000000
26.900000,0.450101,-0.155661,0.033685,0.645233,-0.117334,0.136850,481.876068,2.181244,0.000000,41.660140,44.965745,6999.089313,0.426184,0.786520,-0.439916,1.000000
27.000000,0.429685,-0.145312,0.046546,0.797337,-0.443389,0.196978,481.840118,2.145294,0.000000,41.660140,44.965745,6999.089313,0.141829,-1.000000,1.000000,-1.000000
27.100000,0.410758,-0.134817,0.057313,0.943089,-0.583829,0.266973,481.767303,2.072479,0.000000,41.660141,44.965746,6999.070617,-1.000000,-0.185405,-1.000000,0.966760
27.200000,0.394774,-0.124989,0.065618,1.122702,0.067056,0.316326,481.721863,2.027039,0.000000,41.660141,44.965747,6999.070617,-0.316713,0.487503,-1.000000,-1.000000
27.300000,0.381144,-0.118117,0.073261,1.337958,0.693264,0.406981,481.743958,2.049133,0.000000,41.660142,44.965748,6999.051175,-1.000000,0.668834,-1.000000,-0.321642
27.400000,0.361070,-0.114251,0.084948,1.554240,0.969160,0.541806,481.812897,2.118073,0.000000,41.660143,44.965749,6999.051175,0.519324,-0.739478,-0.412054,0.317454
27.500000,0.342957,-0.113742,0.095446,1.727558,0.831853,0.664523,481.880402,2.185608,0.000000,41.660144,44.965751,6999.029535,-0.799627,-0.234687,0.811052,-0.959296
27.600000,0.325691,-0.115378,0.104419,1.888167,0.824453,0.828157,481.927795,2.232971,0.000000,41.660145,44.965753,6999.029535,-0.270699,0.602556,-0.926090,-1.000000
27.700000,0.299819,-0.118689,0.116549,2.049353,0.810943,1.040964,481.982697,2.287872,0.000000,41.660146,44.965755,6999.005574,1.000000,-0.073440,0.819270,0.146903
27.800000,0.273225,-0.123078,0.127255,2.169175,0.397271,1.232457,482.001556,2.306732,0.000000,41.660148,44.965757,6999.005574,-0.939872,-1.000000,-0.520401,1.000000
27.900000,0.254572,-0.128379,0.131452,2.302188,0.460197,1.359557,481.992523,2.297668,0.000000,41.660149,44.965760,6998.980743,-0.241662,-0.445701,1.000000,-1.000000
28.000000,0.240191,-0.135251,0.128991,2.473007,0.776432,1.505050,482.009827,2.315002,0.000000,41.660151,44.965763,6998.980743,0.754613,-1.000000,1.000000,-0.038287
28.100000,0.226406,-0.142331,0.123952,2.611758,0.352430,1.685380,482.013672,2.318848,0.000000,41.660152,44.965766,6998.954377,0.602203,-0.130793,-1.000000,0.176409
28.200000,0.219693,-0.148999,0.114824,2.743698,-0.310520,1.805009,481.957825,2.263031,0.000000,41.660154,44.965769,6998.954377,0.574105,-1.000000,-0.629110,1.000000
28.300000,0.223671,-0.156003,0.098965,2.907188,-0.734866,1.843857,481.836090,2.141266,0.000000,41.660155,44.965772,6998.925856,-0.795192,0.366242,-1.000000,0.025319
28.400000,0.237368,-0.161080,0.077079,2.911605,-0.155225,1.664206,481.712769,2.017944,0.000000,41.660157,44.965775,6998.925856,-1.000000,1.000000,-0.877545,0.349369
28.500000,0.254713,-0.161322,0.052328,2.828878,0.831246,1.380725,481.701355,2.006500,0.000000,41.660159,44.965778,6998.897376,-0.225072,-0.858992,0.580500,1.000000
28.600000,0.281646,-0.161884,0.028494,3.110051,1.083523,1.317117,481.749359,2.054535,0.000000,41.660161,44.965781,6998.897376,-0.220099,-1.000000,-1.000000,-0.027997
28.700000,0.314174,-0.163194,0.008416,3.352764,0.731166,1.246273,481.788483,2.093658,0.000000,41.660163,44.965784,6998.869477,0.490221,0.000286,0.992541,0.127544
28.800000,0.343599,-0.163964,-0.006070,3.556881,0.213661,1.197206,481.780426,2.085602,0.000000,41.660166,44.965787,6998.869477,0.606979,-1.000000,-0.581849,-1.000000
28.900000,0.367655,-0.163993,-0.014588,3.750940,-0.563806,1.159786,481.703949,2.009125,0.000000,41.660168,44.965790,6998.842987,0.947225,1.000000,0.182178,1.000000
29.000000,0.385969,-0.162755,0.000328,2.815619,-0.252675,0.923047,481.583557,1.888733,0.000000,41.660170,44.965793,6998.842987,0.010779,1.000000,1.000000,1.000000
29.100000,0.399263,-0.164001,0.037090,1.722076,0.454398,0.729234,481.564819,1.869995,0.000000,41.660171,44.965795,6998.819358,-0.385441,1.000000,-1.000000,-1.000000
29.200000,0.411868,-0.168441,0.058814,1.381907,1.028932,0.529204,481.611481,1.916656,0.000000,41.660172,44.965797,6998.819358,-0.927227,0.389575,-0.551098,0.874058
29.300000,0.421209,-0.175725,0.075760,1.530422,1.582245,0.496423,481.711304,2.016479,0.000000,41.660173,44.965799,6998.797138,-0.319802,-1.000000,0.956387,0.911793
29.400000,0.432500,-0.185862,0.083651,1.759566,1.823230,0.499331,481.843750,2.148926,0.000000,41.660174,44.965801,6998.797138,-0.477292,-0.765204,-1.000000,-1.000000
29.500000,0.444005,-0.198315,0.089208,1.998132,1.601239,0.564437,481.979248,2.284393,0.000000,41.660176,44.965803,6998.775913,0.779357,-0.531001,1.000000,1.000000
29.600000,0.454866,-0.210923,0.091212,2.223309,1.023204,0.632589,482.061401,2.366577,0.000000,41.660177,44.965805,6998.775913,-0.011048,1.000000,0.330861,1.000000
29.700000,0.471080,-0.222666,0.086018,2.445478,0.477524,0.647733,482.076172,2.381348,0.000000,41.660178,44.965807,6998.756927,0.454806,-1.000000,1.000000,-0.528973
29.800000,0.493881,-0.234112,0.073566,2.693097,-0.052347,0.679611,482.033966,2.339142,0.000000,41.660180,44.965810,6998.756927,0.689257,-0.887407,0.045097,0.689590
29.900000,0.518631,-0.243418,0.057138,2.943500,-0.469994,0.657758,481.930725,2.235901,0.000000,41.660181,44.965812,6998.738148,-0.753232,-0.068206,-0.490748,1.000000
30.000000,0.549268,-0.249273,0.035486,2.996851,-0.189173,0.462836,481.817200,2.122375,0.000000,41.660183,44.965815,6998.738148,0.169652,0.263014,-0.782665,0.587541
30.100000,0.590141,-0.252167,0.008326,2.234137,0.528900,-0.054241,481.769196,2.074402,0.000000,41.660185,44.965817,6998.716550,0.260021,0.084287,0.861617,0.870463
30.200000,0.632116,-0.256688,0.002678,1.496973,0.747249,-0.321930,481.792236,2.097412,0.000000,41.660186,44.965818,6998.716550,0.173197,1.000000,0.891762,-0.793824
30.300000,0.668142,-0.262562,0.003770,1.326641,0.586243,-0.369325,481.820587,2.125763,0.000000,41.660187,44.965819,6998.693666,0.099023,0.542491,-0.399060,-0.330127
30.400000,0.695052,-0.269261,0.005623,1.192307,0.410292,-0.358436,481.835236,2.140411,0.000000,41.660188,44.965820,6998.693666,0.311941,-1.000000,0.639208,0.542823
30.500000,0.720104,-0.276772,0.002700,0.928523,0.379229,-0.408705,481.841858,2.147064,0.000000,41.660189,44.965821,6998.670410,-0.683545,0.446718,1.000000,-0.369992
30.600000,0.742261,-0.285121,0.000338,0.910777,0.684984,-0.403983,481.866608,2.171753,0.000000,41.660190,44.965822,6998.670410,-0.636214,-0.311830,-0.449607,-0.933265
30.700000,0.756583,-0.294943,0.003731,1.260593,0.851733,-0.377073,481.916473,2.221649,0.000000,41.660191,44.965822,6998.646988,0.394459,0.416489,1.000000,0.619192
30.800000,0.766475,-0.304975,0.008740,1.596110,0.801286,-0.381607,481.951355,2.256531,0.000000,41.660192,44.965824,6998.646988,-1.000000,-0.389617,-1.000000,1.000000
30.900000,0.780132,-0.314289,0.010019,1.925046,0.969882,-0.438213,481.978638,2.283813,0.000000,41.660194,44.965825,6998.625183,-0.400964,0.705774,1.000000,-0.661728
31.000000,0.799222,-0.324548,0.008604,2.304579,1.325559,-0.469935,482.027374,2.332550,0.000000,41.660195,44.965827,6998.625183,-0.075995,-0.818199,-0.013880,-1.000000
31.100000,0.809235,-0.334903,0.012497,2.661344,1.217812,-0.400684,482.069427,2.374573,0.000000,41.660197,44.965830,6998.604745,-0.199127,-0.870452,0.069770,-0.479177
31.200000,0.805012,-0.343647,0.024001,2.990788,0.986158,-0.295037,482.081360,2.386536,0.000000,41.660199,44.965832,6998.604745,0.370111,0.088800,-0.645638,-0.998395
31.300000,0.789805,-0.350903,0.041600,3.335117,0.667750,-0.171270,482.050568,2.355713,0.000000,41.660201,44.965835,6998.584225,-0.201880,-0.048897,-1.000000,0.525380
31.400000,0.775666,-0.356375,0.052151,3.293202,0.822362,-0.067131,481.991455,2.296631,0.000000,41.660202,44.965838,6998.584225,-0.482089,-1.000000,-0.366968,-0.705212
31.500000,0.774489,-0.364964,0.034180,2.917600,1.128098,-0.053746,481.982239,2.287415,0.000000,41.660204,44.965841,6998.563581,1.000000,1.000000,-0.468095,-0.434322
31.600000,0.776345,-0.378391,0.008084,2.556933,1.044028,-0.012153,481.981415,2.286591,0.000000,41.660206,44.965844,6998.563581,-0.341077,0.969036,1.000000,-0.745122
31.700000,0.771166,-0.399560,-0.004327,1.751997,1.133720,0.088412,482.000793,2.306000,0.000000,41.660207,44.965847,6998.540988,1.000000,1.000000,-0.644517,0.020069
31.800000,0.759678,-0.428503,-0.006948,1.134332,1.028378,0.220033,482.044220,2.349396,0.000000,41.660208,44.965848,6998.540988,1.000000,-1.000000,-1.000000,-0.600819
31.900000,0.741966,-0.465121,-0.002480,0.663686,0.807353,0.392334,482.088806,2.393982,0.000000,41.660208,44.965850,6998.515866,0.270055,0.248416,-0.393830,-0.988116
32.000000,0.723855,-0.496432,0.018429,0.314356,0.710742,0.406225,482.133148,2.438354,0.000000,41.660209,44.965851,6998.515866,1.000000,-1.000000,1.000000,1.000000
32.100000,0.712787,-0.514209,0.037367,0.097135,0.639006,0.382945,482.185059,2.490204,0.000000,41.660209,44.965851,6998.491076,-0.086450,-1.000000,-0.145505,-0.715509
32.200000,0.706466,-0.526583,0.053781,0.083086,0.400345,0.323371,482.223846,2.529022,0.000000,41.660209,44.965852,6998.491076,1.000000,-0.566431,0.834583,-1.000000
32.300000,0.699043,-0.533178,0.070286,0.021026,0.167215,0.317264,482.244232,2.549408,0.000000,41.660208,44.965852,6998.466990,0.122285,1.000000,0.583247,0.754805
32.400000,0.692916,-0.534148,0.082795,-0.028525,0.043654,0.257376,482.249634,2.554810,0.000000,41.660208,44.965853,6998.466990,0.118657,-1.000000,1.000000,-0.914667
32.500000,0.686137,-0.534316,0.093424,-0.022906,0.288337,0.236105,482.259399,2.564575,0.000000,41.660208,44.965853,6998.444107,-1.000000,0.971568,1.000000,-1.000000
32.600000,0.669306,-0.538451,0.109137,0.297710,0.960220,0.374389,482.303253,2.608429,0.000000,41.660208,44.965853,6998.444107,-0.578795,1.000000,-1.000000,0.356593
32.700000,0.647394,-0.544015,0.128512,0.880800,1.528391,0.460970,482.375519,2.680695,0.000000,41.660208,44.965855,6998.423919,-0.505568,-0.079376,-1.000000,-0.081924
32.800000,0.626837,-0.551517,0.148426,1.473149,1.777597,0.567550,482.453156,2.758331,0.000000,41.660209,44.965857,6998.423919,0.354877,0.650794,-0.066649,0.441036
32.900000,0.610823,-0.559416,0.164051,2.007425,1.440792,0.698369,482.491058,2.796204,0.000000,41.660210,44.965860,6998.405430,0.614752,-0.207666,-0.507370,0.242540
33.000000,0.600981,-0.565797,0.172441,2.494183,1.020825,0.840372,482.461975,2.767151,0.000000,41.660211,44.965863,6998.405430,-0.099635,-0.843938,0.857580,-0.047287
33.100000,0.594124,-0.570253,0.175938,2.887659,0.779419,0.965877,482.370697,2.675873,0.000000,41.660212,44.965866,6998.387645,-1.000000,1.000000,-0.146404,-0.393093
33.200000,0.590280,-0.581407,0.187783,1.378394,1.415689,0.509287,482.328827,2.634003,0.000000,41.660213,44.965868,6998.387645,1.000000,-0.557853,-0.780744,1.000000
33.300000,0.591414,-0.606861,0.209137,0.465869,1.471914,0.179528,482.399963,2.705139,0.000000,41.660214,44.965870,6998.369032,0.612228,1.000000,-0.273437,0.262159
33.400000,0.593040,-0.637268,0.226591,0.213234,1.032347,0.124283,482.480194,2.785370,0.000000,41.660214,44.965871,6998.369032,1.000000,1.000000,-1.000000,-1.000000
33.500000,0.588850,-0.659195,0.241151,0.125339,0.736593,0.209446,482.535706,2.840881,0.000000,41.660214,44.965872,6998.347766,-1.000000,-1.000000,0.947953,1.000000
33.600000,0.580243,-0.673936,0.254558,0.209513,0.830488,0.261588,482.576721,2.881897,0.000000,41.660215,44.965873,6998.347766,-0.582034,0.901944,-1.000000,0.473248
33.700000,0.571369,-0.688457,0.265052,0.611044,1.123901,0.325965,482.621307,2.926483,0.000000,41.660215,44.965874,6998.323597,0.268412,1.000000,0.131082,-1.000000
33.800000,0.555186,-0.700478,0.279855,0.923814,1.318475,0.486909,482.654572,2.959747,0.000000,41.660215,44.965875,6998.323597,-0.626560,-1.000000,1.000000,0.111837
33.900000,0.528644,-0.708092,0.301569,1.112754,1.340760,0.682677,482.672211,2.977386,0.000000,41.660216,44.965878,6998.298724,0.787106,0.464985,-1.000000,-1.000000
34.000000,0.491083,-0.712262,0.329529,1.114656,1.396507,0.886389,482.677399,2.982574,0.000000,41.660216,44.965880,6998.298724,-1.000000,-0.296201,-0.882663,0.986869
34.100000,0.454144,-0.714741,0.353145,1.271994,1.653831,1.027821,482.683899,2.989044,0.000000,41.660217,44.965882,6998.274017,0.570317,1.000000,-1.000000,1.000000
34.200000,0.432453,-0.714313,0.376214,1.327476,1.835891,1.975561,482.695587,3.000763,0.000000,41.660217,44.965885,6998.274017,-1.000000,-0.330982,0.252406,-0.634732
34.300000,0.401541,-0.718220,0.406370,1.382490,1.851995,1.131131,482.660675,2.965881,0.000000,41.660217,44.965889,6998.249351,1.000000,-1.000000,-0.859860,0.790711
34.400000,0.369015,-0.709536,0.425758,1.489034,1.674413,2.203540,482.657227,2.962402,0.000000,41.660218,44.965892,6998.249351,0.985780,-1.000000,-1.000000,1.000000
34.500000,0.332201,-0.710267,0.498388,0.440285,1.336376,1.895756,482.625946,2.931152,0.000000,41.660217,44.965895,6998.226220,1.000000,-0.291784,-0.126376,0.454855
34.600000,0.281075,-0.716372,0.579146,-0.269257,1.169485,1.448816,482.648376,2.953552,0.000000,41.660217,44.965897,6998.226220,-0.337494,0.761323,-0.575437,-0.690038
34.700000,0.228540,-0.711257,0.655529,-0.184344,1.080868,1.508170,482.667542,2.972717,0.000000,41.660216,44.965899,6998.204124,-1.000000,1.000000,0.595239,0.752716
34.800000,0.175927,-0.703018,0.720597,-0.189303,1.113232,1.515732,482.671051,2.976227,0.000000,41.660215,44.965901,6998.204124,1.000000,0.006075,-0.510670,1.000000
34.900000,0.123834,-0.692517,0.784469,-0.498045,1.086088,1.896599,482.663544,2.968719,0.000000,41.660214,44.965903,6998.181738,-1.000000,-0.410841,1.000000,-1.000000
35.000000,0.072465,-0.671779,0.879364,-0.123073,1.221781,2.168959,482.608276,2.913422,0.000000,41.660213,44.965906,6998.181738,-1.000000,0.383850,-0.556332,-1.000000
35.100000,0.015224,-0.645360,0.955897,-0.729175,1.372782,2.235651,482.579529,2.884735,0.000000,41.660212,44.965908,6998.160389,1.000000,0.343329,-0.938212,-1.000000
