t,yaw,pitch,roll,speed.x,speed.y,speed.z,altBar,altRad,egt,myloclat,myloclon,weightlb,collective,bank,pitch,rudder
0.100000,5.374699,0.031624,0.000931,-0.097073,0.517386,0.032737,481.239288,1.544464,0.000000,41.659724,44.965707,7004.964901,0.497981,-0.302945,-0.723920,-1.000000
0.200000,5.369006,0.037248,0.005318,-0.094319,0.088466,0.076919,481.265259,1.570435,0.000000,41.659724,44.965707,7004.964901,1.000000,0.411749,-1.000000,-0.631490
0.300000,5.359045,0.041047,0.010091,-0.107869,0.012925,0.047929,481.268250,1.573425,0.000000,41.659724,44.965707,7000.556034,0.046732,-0.163386,0.752024,-0.510916
0.400000,5.347579,0.041885,0.011315,-0.106947,0.041966,-0.061281,481.269806,1.574982,0.000000,41.659724,44.965707,7000.556034,0.601624,-1.000000,-0.225441,-0.317924
0.500000,5.337064,0.039019,0.008174,-0.061857,0.142079,-0.142977,481.277191,1.582397,0.000000,41.659724,44.965707,7000.556034,-1.000000,-1.000000,0.372268,1.000000
0.600000,5.330990,0.035415,-0.002130,-0.019219,0.178498,-0.139976,481.295135,1.600311,0.000000,41.659724,44.965707,7000.556034,0.716476,0.660056,-0.431383,-0.791246
0.700000,5.325801,0.030965,-0.010185,0.028191,-0.092810,-0.107606,481.303528,1.608704,0.000000,41.659724,44.965707,7000.541649,0.336688,-0.805777,-1.000000,-1.000000
0.800000,5.314646,0.030923,-0.003193,0.092351,-0.299504,0.164541,481.279572,1.584717,0.000000,41.659724,44.965707,7000.541649,0.210798,-1.000000,0.834740,-1.000000
0.900000,5.298388,0.032810,0.007015,-0.054135,-0.031000,0.202916,481.262451,1.567627,0.000000,41.659724,44.965707,7000.527098,0.480299,-0.075934,0.545381,-1.000000
1.000000,5.280163,0.034393,0.009412,-0.116337,0.126522,0.150657,481.271606,1.576752,0.000000,41.659724,44.965707,7000.527098,-0.016954,1.000000,-0.050918,1.000000
1.100000,5.265756,0.035252,0.008676,-0.135204,0.164592,0.040911,481.281525,1.586700,0.000000,41.659724,44.965707,7000.511096,-0.820904,-0.466945,1.000000,0.513293
1.200000,5.263253,0.034361,0.008675,-0.062702,0.643524,-0.005196,481.316681,1.621857,0.000000,41.659724,44.965708,7000.511096,-1.000000,-0.321741,-1.000000,0.794291
1.300000,5.272225,0.030173,0.011748,0.059330,1.567525,-0.056038,481.430176,1.735352,0.000000,41.659724,44.965708,7000.492110,-0.827522,-0.134913,-0.515170,-1.000000
1.400000,5.285110,0.021696,0.019219,0.151894,2.129731,-0.048570,481.628601,1.933777,0.000000,41.659724,44.965707,7000.492110,0.017381,0.898557,-1.000000,-0.650330
1.500000,5.292475,0.011838,0.029604,0.174642,1.860837,-0.001668,481.825317,2.130493,0.000000,41.659724,44.965707,7000.471424,1.000000,-1.000000,0.723083,0.265624
1.600000,5.301489,0.000987,0.039741,0.172423,1.097402,0.035818,481.978088,2.283264,0.000000,41.659724,44.965707,7000.471424,1.000000,-0.430123,1.000000,1.000000
1.700000,5.317878,-0.009485,0.046080,0.171869,0.114873,0.087353,482.039246,2.344421,0.000000,41.659725,44.965707,7000.448748,0.914684,0.029912,-1.000000,-1.000000
1.800000,5.336517,-0.018578,0.049501,0.195716,-0.710830,0.175132,482.006531,2.311707,0.000000,41.659725,44.965707,7000.448748,-0.151856,1.000000,0.521850,-0.506084
1.900000,5.352456,-0.027342,0.053605,0.260568,-1.065973,0.270299,481.908203,2.213379,0.000000,41.659725,44.965707,7000.423419,-1.000000,-0.308736,-1.000000,0.438403
2.000000,5.370802,-0.035971,0.057661,0.362296,-0.795201,0.312744,481.811554,2.116730,0.000000,41.659725,44.965707,7000.423419,0.648295,0.092684,0.172869,-0.590122
2.100000,5.390014,-0.043823,0.061422,0.442769,-0.943862,0.386042,481.729858,2.035034,0.000000,41.659726,44.965707,7000.397344,0.484239,-0.456293,0.951956,-0.022193
2.200000,5.409496,-0.050951,0.065333,0.520409,-1.378829,0.479114,481.603455,1.908630,0.000000,41.659726,44.965707,7000.397344,0.023172,-0.275896,-0.100215,-0.464200
2.300000,5.427584,-0.055128,0.066960,0.496262,-1.252474,0.346537,481.452179,1.757355,0.000000,41.659727,44.965707,7000.371352,0.020557,0.690919,1.000000,0.129292
2.400000,5.436318,-0.045431,0.047255,-0.001225,-0.263487,-0.260089,481.380066,1.685242,0.000000,41.659727,44.965707,7000.371352,0.155280,0.356000,1.000000,-0.705525
2.500000,5.439813,-0.024430,0.016470,-0.084696,0.088149,-0.364851,481.372345,1.677521,0.000000,41.659727,44.965707,7000.343867,-1.000000,0.445501,-0.670920,0.482521
2.600000,5.445994,-0.003952,-0.000316,0.009184,0.312898,-0.355721,481.397339,1.702515,0.000000,41.659726,44.965706,7000.343867,0.545955,1.000000,0.414829,0.067480
2.700000,5.457385,0.013401,-0.008632,0.066000,0.242924,-0.362606,481.427002,1.732178,0.000000,41.659726,44.965706,7000.316589,-0.423253,0.295189,0.101317,-0.942856
2.800000,5.467311,0.029984,-0.009633,0.103687,0.113636,-0.298255,481.438477,1.743622,0.000000,41.659726,44.965706,7000.316589,-1.000000,1.000000,1.000000,-0.628362
2.900000,5.466098,0.043332,0.000623,0.188410,0.760874,-0.267442,481.480652,1.785858,0.000000,41.659726,44.965705,7000.290639,-0.491533,-1.000000,-0.063693,-0.293905
3.000000,5.459775,0.052250,0.015841,0.250395,1.115557,-0.269540,481.578583,1.883759,0.000000,41.659726,44.965705,7000.290639,0.665103,0.416327,0.730187,0.976279
3.100000,5.455347,0.058938,0.031825,0.268039,0.919952,-0.266834,481.685486,1.990662,0.000000,41.659726,44.965704,7000.266097,-1.000000,0.476648,-1.000000,-0.891076
3.200000,5.453756,0.063017,0.047356,0.291282,0.878447,-0.223294,481.774017,2.079193,0.000000,41.659726,44.965704,7000.266097,-1.000000,0.673153,0.210715,-0.276032
3.300000,5.449160,0.063892,0.063190,0.328731,1.183088,-0.169448,481.877075,2.182251,0.000000,41.659726,44.965704,7000.244085,-0.157492,-0.998491,0.965187,0.073038
3.400000,5.444873,0.061856,0.079059,0.345334,1.280998,-0.100640,482.010071,2.315247,0.000000,41.659726,44.965704,7000.244085,-0.117154,-0.309695,0.652044,-1.000000
3.500000,5.437186,0.058169,0.093488,0.330638,0.931494,0.031917,482.127594,2.432770,0.000000,41.659727,44.965703,7000.222901,1.000000,-1.000000,-0.007311,-0.793682
3.600000,5.422248,0.054679,0.105870,0.299005,0.344946,0.196156,482.188446,2.493622,0.000000,41.659727,44.965703,7000.222901,-0.328404,-1.000000,0.092646,0.585547
3.700000,5.407205,0.050281,0.114789,0.290158,-0.003124,0.292739,482.198334,2.503510,0.000000,41.659727,44.965703,7000.199355,-1.000000,1.000000,0.500284,0.681928
3.800000,5.403493,0.042803,0.116275,0.357344,0.521575,0.327900,482.214264,2.519440,0.000000,41.659728,44.965703,7000.199355,-1.000000,-1.000000,0.133668,0.147700
3.900000,5.409046,0.031784,0.113102,0.438475,1.007580,0.398997,482.294159,2.599335,0.000000,41.659728,44.965703,7000.174730,1.000000,-0.464716,-0.901832,-1.000000
4.000000,5.416620,0.018480,0.107064,0.462373,0.644558,0.538497,482.378571,2.683746,0.000000,41.659729,44.965704,7000.174730,-0.253366,1.000000,0.602920,1.000000
4.100000,5.428250,0.005023,0.097575,0.496021,0.237565,0.642122,482.412170,2.717346,0.000000,41.659729,44.965704,7000.148489,-0.957440,-1.000000,-0.181657,-1.000000
4.200000,5.443118,-0.008100,0.086648,0.576562,0.328208,0.729847,482.433899,2.739075,0.000000,41.659730,44.965704,7000.148489,0.428056,0.470788,0.398702,-0.728966
4.300000,5.455699,-0.021932,0.076875,0.670409,0.366812,0.839326,482.461456,2.766632,0.000000,41.659731,44.965704,7000.120507,-1.000000,-0.935425,-1.000000,0.259706
4.400000,5.469034,-0.035903,0.068396,0.775480,0.356060,0.904544,482.490997,2.796173,0.000000,41.659732,44.965705,7000.120507,0.610300,-0.951563,0.825236,-0.169424
4.500000,5.485658,-0.049134,0.060567,0.880067,0.200807,0.957492,482.511261,2.816437,0.000000,41.659733,44.965705,7000.092649,0.491890,0.674114,-0.764579,-0.275817
4.600000,5.503388,-0.062220,0.053517,0.975691,-0.421513,1.042261,482.491394,2.796570,0.000000,41.659734,44.965705,7000.092649,1.000000,-1.000000,0.222029,-0.308321
4.700000,5.520384,-0.073701,0.047508,1.084179,-1.039863,1.084506,482.400604,2.705780,0.000000,41.659736,44.965705,7000.064750,-0.313648,-0.188984,1.000000,1.000000
4.800000,5.540628,-0.083250,0.040727,1.205217,-1.436051,1.095049,482.268127,2.573303,0.000000,41.659737,44.965706,7000.064750,1.000000,-0.164518,0.141761,-1.000000
4.900000,5.560649,-0.091547,0.034929,1.338954,-1.653824,1.142937,482.092499,2.397675,0.000000,41.659738,44.965706,7000.037265,-0.766338,0.826367,-1.000000,-0.234479
5.000000,5.569400,-0.097271,0.035487,1.463958,-1.444252,1.218951,481.908905,2.214081,0.000000,41.659740,44.965706,7000.037265,-0.485881,-1.000000,-0.809118,-0.858345
5.100000,5.569593,-0.100145,0.041827,1.575335,-1.106403,1.265848,481.777008,2.082184,0.000000,41.659741,44.965707,7000.012309,0.671432,-0.326326,1.000000,0.720840
5.200000,5.568735,-0.101327,0.049451,1.681925,-1.340180,1.307393,481.633881,1.939056,0.000000,41.659743,44.965707,7000.012309,1.000000,-0.510098,-1.000000,0.916533
5.300000,5.572090,-0.097359,0.042736,1.366017,-1.350279,0.960708,481.468658,1.773834,0.000000,41.659745,44.965707,6999.989592,-0.123076,-0.676156,1.000000,0.447369
5.400000,5.574913,-0.078325,0.031598,0.303965,-0.165840,0.273277,481.387695,1.692871,0.000000,41.659745,44.965707,6999.989592,0.744134,0.283324,1.000000,-1.000000
5.500000,5.573250,-0.046860,0.013112,-0.001642,0.030891,0.082260,481.389832,1.695007,0.000000,41.659746,44.965707,6999.968533,-0.700850,-0.431431,0.177793,0.553409
5.600000,5.567577,-0.016547,0.001350,0.058765,-0.011747,0.084201,481.385590,1.690765,0.000000,41.659746,44.965707,6999.968533,0.173804,-0.645525,-0.573697,0.483218
5.700000,5.566131,0.009032,-0.003399,0.111656,-0.171467,0.047098,481.382202,1.687378,0.000000,41.659746,44.965707,6999.949754,0.789833,1.000000,-0.766840,0.912543
5.800000,5.572808,0.033337,-0.005642,0.115188,-0.655805,0.000944,481.338165,1.643341,0.000000,41.659746,44.965707,6999.949754,-0.266639,-0.852768,-1.000000,1.000000
5.900000,5.588258,0.052213,-0.004424,-0.066395,-0.312205,0.042793,481.271240,1.576416,0.000000,41.659746,44.965707,6999.932260,-0.571801,1.000000,-0.198006,0.180707
6.000000,5.599593,0.056504,-0.001699,-0.084716,0.284838,0.065501,481.284119,1.589294,0.000000,41.659746,44.965707,6999.932260,0.625578,-0.331262,0.514022,-1.000000
6.100000,5.606011,0.057003,0.002020,-0.056463,-0.031483,0.109823,481.296448,1.601593,0.000000,41.659746,44.965707,6999.915180,-0.309262,-1.000000,0.261962,-0.128256
6.200000,5.601958,0.055803,0.006516,0.021840,-0.185072,0.057128,481.283691,1.588867,0.000000,41.659746,44.965708,6999.915180,1.000000,0.300623,0.477916,0.744358
6.300000,5.599587,0.052104,0.004141,0.088187,-0.050891,-0.105562,481.271698,1.576874,0.000000,41.659746,44.965708,6999.898681,-0.032223,0.451772,0.832202,0.429535
6.400000,5.601439,0.045890,-0.002119,0.106685,0.056467,-0.077210,481.273987,1.579163,0.000000,41.659746,44.965707,6999.898681,0.690330,-0.644911,-1.000000,-1.000000
6.500000,5.601499,0.038711,-0.002509,0.112974,0.043187,0.053471,481.278748,1.583923,0.000000,41.659746,44.965707,6999.881768,-1.000000,1.000000,-0.133860,0.118265
6.600000,5.597909,0.031679,0.000297,0.136175,0.237969,0.079120,481.291138,1.596313,0.000000,41.659746,44.965707,6999.881768,0.241865,-1.000000,1.000000,-0.369954
6.700000,5.592050,0.022418,0.005821,0.168097,0.143037,0.120364,481.318237,1.623444,0.000000,41.659746,44.965707,6999.862906,0.983980,1.000000,-0.014904,-0.625373
6.800000,5.580103,0.012570,0.012273,0.115504,-0.154325,0.182644,481.310638,1.615784,0.000000,41.659746,44.965707,6999.862906,-1.000000,-1.000000,1.000000,-0.173264
6.900000,5.565249,0.005005,0.005798,0.048322,0.282650,0.136027,481.314941,1.620087,0.000000,41.659747,44.965707,6999.843256,-0.472674,-0.124894,0.279143,-1.000000
7.000000,5.545061,-0.002673,0.002617,0.133007,0.691636,0.163333,481.371613,1.676788,0.000000,41.659747,44.965708,6999.843256,0.374952,0.114803,-0.159395,0.471599
7.100000,5.526480,-0.011408,0.003867,0.177804,0.296034,0.181056,481.426056,1.731232,0.000000,41.659747,44.965708,6999.822736,1.000000,0.963215,-1.000000,-0.559923
7.200000,5.512773,-0.019564,0.007241,0.203168,-0.439241,0.228916,481.420471,1.725647,0.000000,41.659747,44.965708,6999.822736,0.851170,-1.000000,1.000000,-1.000000
7.300000,5.496476,-0.025160,0.011309,0.116642,-0.749369,0.249696,481.343964,1.649139,0.000000,41.659747,44.965708,6999.800599,-0.985143,-0.567792,1.000000,0.790886
7.400000,5.489526,-0.014052,0.011439,-0.276086,0.172712,-0.061003,481.321320,1.626495,0.000000,41.659747,44.965708,6999.800599,0.445538,-0.567346,1.000000,0.561966
7.500000,5.493222,0.001720,0.006157,-0.234557,-0.016735,-0.106932,481.334991,1.640167,0.000000,41.659747,44.965708,6999.777964,0.604292,-0.964447,-1.000000,0.907225
7.600000,5.508568,0.017426,0.001309,-0.217640,-0.517354,-0.130318,481.304626,1.609863,0.000000,41.659747,44.965708,6999.777964,-0.122832,1.000000,-1.000000,0.138266
7.700000,5.525351,0.033767,-0.001648,-0.244810,-0.084116,-0.053481,481.267456,1.572601,0.000000,41.659747,44.965708,6999.753796,-0.189322,-0.512886,-0.375253,-0.486157
7.800000,5.530702,0.045093,-0.002782,-0.165193,0.146520,0.051062,481.277100,1.582245,0.000000,41.659747,44.965708,6999.753796,0.430283,0.590507,-1.000000,-1.000000
7.900000,5.526953,0.054582,0.002611,-0.131285,0.041133,0.112669,481.286438,1.591614,0.000000,41.659747,44.965708,6999.729047,0.323794,1.000000,-0.788457,0.443697
8.000000,5.521420,0.060965,0.007577,-0.084237,0.027358,0.035204,481.282959,1.588104,0.000000,41.659746,44.965709,6999.729047,-1.000000,-0.392906,-0.660828,0.324356
8.100000,5.518905,0.063625,0.005689,-0.017453,0.479086,-0.050974,481.306885,1.612061,0.000000,41.659746,44.965709,6999.705874,-1.000000,0.409083,0.821064,-0.987252
8.200000,5.513366,0.062364,0.006966,0.073527,1.389916,-0.045936,481.403076,1.708221,0.000000,41.659746,44.965709,6999.705874,-0.688282,1.000000,-1.000000,0.204453
8.300000,5.504665,0.056125,0.012367,0.164445,2.207166,-0.078848,481.588531,1.893707,0.000000,41.659746,44.965709,6999.684110,-1.000000,-0.280089,0.461002,1.000000
8.400000,5.502237,0.045559,0.017832,0.247302,3.022164,-0.143290,481.838684,2.143829,0.000000,41.659746,44.965708,6999.684110,-1.000000,0.603017,0.575426,-0.449339
8.500000,5.505459,0.029999,0.023607,0.285065,3.490249,-0.169794,482.182983,2.488159,0.000000,41.659746,44.965708,6999.663092,0.730748,-1.000000,-0.632535,0.328261
8.600000,5.510291,0.012890,0.028286,0.255299,3.070110,-0.132502,482.523651,2.828827,0.000000,41.659747,44.965708,6999.663092,0.135656,-1.000000,-0.723078,-1.000000
8.700000,5.513006,-0.002777,0.032188,0.227897,2.375237,-0.057829,482.784302,3.089478,0.000000,41.659747,44.965708,6999.643650,-0.207224,1.000000,-1.000000,-0.339410
8.800000,5.510654,-0.018648,0.037511,0.238687,1.781622,0.028618,482.995758,3.300934,0.000000,41.659747,44.965708,6999.643650,0.492352,1.000000,-0.623475,-0.422570
8.900000,5.506331,-0.033813,0.043608,0.270261,1.130644,0.119827,483.143799,3.448975,0.000000,41.659747,44.965708,6999.622466,1.000000,-0.912965,-0.023661,-0.749673
9.000000,5.499176,-0.046956,0.050717,0.313798,0.420211,0.221688,483.213806,3.518982,0.000000,41.659748,44.965708,6999.622466,-0.640290,-0.904728,1.000000,-0.117993
9.100000,5.492193,-0.059941,0.058721,0.391716,-0.107599,0.295369,483.225006,3.530182,0.000000,41.659748,44.965708,6999.598381,1.000000,-1.000000,-0.384180,1.000000
9.200000,5.494895,-0.072321,0.064089,0.485123,-0.655686,0.338984,483.182648,3.487823,0.000000,41.659748,44.965708,6999.598381,-0.073371,-0.592698,0.834837,-0.249685
9.300000,5.506673,-0.083126,0.066612,0.585860,-1.174860,0.407652,483.087311,3.392487,0.000000,41.659749,44.965708,6999.573176,0.765842,1.000000,1.000000,-0.565260
9.400000,5.519524,-0.092776,0.070645,0.702019,-1.752268,0.548837,482.932098,3.237274,0.000000,41.659749,44.965708,6999.573176,1.000000,1.000000,-1.000000,-0.831512
9.500000,5.526596,-0.100075,0.078256,0.818422,-2.628116,0.717186,482.698334,3.003510,0.000000,41.659750,44.965708,6999.546521,1.000000,-1.000000,-1.000000,-0.177549
9.600000,5.530725,-0.105196,0.086448,0.931079,-3.312121,0.859034,482.396240,2.701416,0.000000,41.659751,44.965708,6999.546521,-0.464200,-0.657134,0.046995,0.161796
9.700000,5.536774,-0.108488,0.091762,1.041469,-3.353675,0.956937,482.034607,2.339783,0.000000,41.659752,44.965708,6999.517917,0.590630,0.446326,0.645803,-1.000000
9.800000,5.538423,-0.107888,0.093322,1.132595,-3.102963,1.058808,481.687073,1.992218,0.000000,41.659752,44.965708,6999.517917,-0.487920,0.482155,-0.394214,-0.264704
9.900000,5.529374,-0.098211,0.078538,0.414542,-1.327274,0.482825,481.442230,1.747375,0.000000,41.659753,44.965708,6999.489147,0.017579,1.000000,0.792279,-1.000000
10.000000,5.506360,-0.067153,0.043771,-0.334771,0.300150,-0.005420,481.421753,1.726929,0.000000,41.659753,44.965709,6999.489147,-0.431934,-0.830759,0.222868,-0.844789
10.100000,5.474243,-0.033866,0.020013,-0.192277,0.563188,0.060789,481.464508,1.769684,0.000000,41.659753,44.965709,6999.461497,-0.479224,-0.605584,-0.377341,-0.019678
10.200000,5.442233,-0.006519,0.007399,-0.058555,0.897385,0.076502,481.533997,1.839172,0.000000,41.659753,44.965709,6999.461497,-0.769164,-0.164472,0.482629,-0.612179
10.300000,5.410406,0.018001,0.000070,0.044417,0.964977,0.065973,481.636169,1.941345,0.000000,41.659753,44.965709,6999.435587,0.757057,0.483781,0.464484,1.000000
10.400000,5.385804,0.039224,-0.004034,0.069485,0.478697,0.060698,481.712860,2.018036,0.000000,41.659753,44.965709,6999.435587,0.540832,-1.000000,1.000000,-1.000000
10.500000,5.366308,0.057087,-0.004242,0.051532,-0.088420,0.089701,481.730042,2.035217,0.000000,41.659753,44.965709,6999.412828,0.163412,0.194162,-1.000000,0.071971
10.600000,5.344465,0.073661,0.001493,0.020228,-0.516915,0.119786,481.696869,2.002045,0.000000,41.659753,44.965709,6999.412828,0.205114,-0.005827,0.996603,1.000000
10.700000,5.329374,0.087328,0.010530,-0.033285,-0.995634,0.108328,481.622528,1.927704,0.000000,41.659753,44.965709,6999.391645,1.000000,0.965788,-0.448456,0.001291
10.800000,5.324059,0.097893,0.019325,-0.113427,-1.657843,0.128119,481.496643,1.801819,0.000000,41.659753,44.965709,6999.391645,1.000000,0.189655,1.000000,-0.974182
10.900000,5.321846,0.105285,0.025215,-0.219415,-1.806559,0.039475,481.297729,1.602905,0.000000,41.659753,44.965709,6999.369259,-0.646981,0.469193,0.029493,1.000000
11.000000,5.320576,0.100988,0.013548,0.163171,0.391107,-0.346088,481.231018,1.536194,0.000000,41.659753,44.965709,6999.369259,1.000000,0.084823,1.000000,0.111752
11.100000,5.321867,0.090081,-0.004176,0.211148,0.512645,-0.251005,481.288788,1.593964,0.000000,41.659753,44.965709,6999.346666,-0.188138,-0.610576,-1.000000,-0.023683
11.200000,5.324770,0.076194,-0.017869,0.206326,0.168000,-0.153371,481.321045,1.626221,0.000000,41.659753,44.965708,6999.346666,-1.000000,0.712060,-1.000000,-0.791829
11.300000,5.322492,0.060726,-0.025108,0.242121,0.257593,-0.137781,481.345612,1.650787,0.000000,41.659753,44.965708,6999.324363,0.875578,1.000000,-0.556243,1.000000
11.400000,5.320220,0.044756,-0.027945,0.239551,-0.026105,-0.165748,481.360870,1.665985,0.000000,41.659753,44.965708,6999.324363,1.000000,1.000000,0.094553,-0.540861
11.500000,5.321423,0.027466,-0.029189,0.249952,-0.394502,-0.197113,481.335327,1.640503,0.000000,41.659753,44.965707,6999.302972,-1.000000,1.000000,-1.000000,1.000000
11.600000,5.327510,0.009863,-0.021901,0.220410,0.186232,0.076081,481.316986,1.622162,0.000000,41.659753,44.965707,6999.302972,-0.970535,-0.942474,0.139836,0.154299
11.700000,5.340166,-0.007405,-0.005399,0.297960,0.742334,0.015123,481.365479,1.670624,0.000000,41.659754,44.965707,6999.283530,0.981344,-0.453604,0.923988,-0.082902
11.800000,5.355588,-0.027065,0.009932,0.363077,0.559189,0.009776,481.435638,1.740814,0.000000,41.659754,44.965707,6999.283530,-1.000000,0.417623,0.126330,-0.178979
11.900000,5.368342,-0.046506,0.023275,0.441807,0.341316,0.041785,481.475464,1.780640,0.000000,41.659754,44.965706,6999.265041,-1.000000,1.000000,1.000000,-0.567544
12.000000,5.374848,-0.064237,0.035034,0.521475,0.510278,0.092971,481.517059,1.822235,0.000000,41.659755,44.965706,6999.265041,0.919669,-1.000000,1.000000,-0.596880
12.100000,5.372435,-0.080925,0.043053,0.526817,0.168271,0.208245,481.549713,1.854889,0.000000,41.659755,44.965706,6999.246552,1.000000,1.000000,0.626992,-1.000000
12.200000,5.359745,-0.092622,0.037809,0.351341,-0.288580,0.221986,481.536774,1.841949,0.000000,41.659755,44.965705,6999.246552,0.538032,-0.022637,-1.000000,1.000000
12.300000,5.348084,-0.097822,0.020425,0.255394,-0.654681,0.060087,481.483643,1.788818,0.000000,41.659756,44.965705,6999.227773,0.777955,0.238932,1.000000,0.162026
12.400000,5.346512,-0.089749,0.014704,-0.225258,-0.272988,-0.135488,481.437286,1.742493,0.000000,41.659756,44.965705,6999.227773,-0.891525,0.568681,0.155134,-0.159846
12.500000,5.349234,-0.069429,0.004630,-0.310220,0.055773,-0.198742,481.430939,1.736115,0.000000,41.659755,44.965706,6999.206838,-0.131235,-0.422728,-0.618155,0.186069
12.600000,5.355436,-0.050036,0.002809,-0.193202,0.280255,-0.188210,481.453674,1.758850,0.000000,41.659755,44.965706,6999.206838,-0.079224,-0.399880,-0.729444,-0.378890
12.700000,5.363781,-0.031202,0.008988,-0.102188,0.008295,-0.152139,481.471375,1.776550,0.000000,41.659755,44.965706,6999.183167,0.210494,1.000000,0.034206,-0.078711
12.800000,5.371607,-0.014067,0.021317,-0.045994,-0.390422,-0.097927,481.453918,1.759094,0.000000,41.659755,44.965705,6999.183167,0.528037,0.183366,1.000000,-0.388015
12.900000,5.377558,0.000629,0.035731,-0.021319,-0.827907,-0.019863,481.394867,1.700043,0.000000,41.659755,44.965705,6999.159911,0.248274,-0.867857,0.692280,-1.000000
13.000000,5.376855,0.015630,0.038835,-0.252508,-0.539347,-0.130342,481.311157,1.616333,0.000000,41.659755,44.965705,6999.159911,-1.000000,-0.203358,-0.899753,0.430825
13.100000,5.372786,0.031099,0.018679,-0.248756,0.275569,-0.328130,481.301086,1.606262,0.000000,41.659754,44.965705,6999.136821,-0.450781,-1.000000,1.000000,0.802118
13.200000,5.376025,0.042435,0.001999,-0.176128,0.740100,-0.368223,481.357086,1.662262,0.000000,41.659754,44.965705,6999.136821,0.874245,0.108034,1.000000,0.159656
13.300000,5.386335,0.052259,-0.012274,-0.175630,0.398697,-0.365254,481.418945,1.724121,0.000000,41.659753,44.965705,6999.113399,0.598842,-0.640027,-1.000000,-0.336322
13.400000,5.397638,0.061018,-0.022432,-0.204052,-0.155579,-0.353084,481.426300,1.731476,0.000000,41.659753,44.965705,6999.113399,-0.299172,-0.081921,-0.393649,0.321621
13.500000,5.409236,0.067887,-0.027275,-0.221779,-0.433808,-0.346934,481.394501,1.699677,0.000000,41.659753,44.965705,6999.091676,0.431487,-0.502873,-1.000000,-1.000000
13.600000,5.418546,0.072678,-0.024521,-0.206268,-0.326461,-0.258770,481.345093,1.650269,0.000000,41.659752,44.965705,6999.091676,-0.913726,0.473203,1.000000,0.345243
13.700000,5.423826,0.072801,-0.011082,-0.149133,0.286533,-0.214115,481.339783,1.644958,0.000000,41.659752,44.965705,6999.070907,-0.326736,-1.000000,-0.707808,-1.000000
13.800000,5.426226,0.068973,0.004814,-0.121237,0.606829,-0.228789,481.388214,1.693390,0.000000,41.659752,44.965705,6999.070907,0.860483,-1.000000,0.366993,1.000000
13.900000,5.431522,0.062345,0.019132,-0.145376,0.195214,-0.239668,481.432587,1.737762,0.000000,41.659752,44.965705,6999.049351,0.717965,-0.026804,-0.127748,0.575516
14.000000,5.446515,0.054406,0.028111,-0.176763,-0.402415,-0.248749,481.417786,1.722961,0.000000,41.659751,44.965704,6999.049351,-0.479930,1.000000,0.482988,1.000000
14.100000,5.470015,0.045512,0.032272,-0.160675,-0.354326,-0.262294,481.374359,1.679535,0.000000,41.659751,44.965704,6999.028582,-1.000000,-1.000000,1.000000,0.441749
14.200000,5.502828,0.033708,0.033938,-0.103312,0.246786,-0.277582,481.373077,1.678253,0.000000,41.659751,44.965704,6999.028582,0.112938,-1.000000,0.717513,0.079829
14.300000,5.537387,0.020308,0.033408,-0.080825,0.219887,-0.223497,481.405121,1.710297,0.000000,41.659751,44.965704,6999.007771,1.000000,-0.742521,0.637711,-0.838127
14.400000,5.562284,0.008157,0.032406,-0.067631,-0.177789,-0.115901,481.406036,1.711212,0.000000,41.659751,44.965704,6999.007771,-0.765080,0.171055,1.000000,-1.000000
14.500000,5.574908,-0.003669,0.033175,0.004504,-0.091954,-0.033027,481.382538,1.687714,0.000000,41.659751,44.965704,6998.985303,-0.385309,-0.475433,0.078999,1.000000
14.600000,5.582136,-0.012150,0.028364,0.137096,0.629380,-0.053869,481.410675,1.715851,0.000000,41.659751,44.965704,6998.985303,-1.000000,0.012346,0.250103,-1.000000
14.700000,5.591002,-0.021244,0.023798,0.262734,1.281013,-0.047701,481.499664,1.804840,0.000000,41.659751,44.965704,6998.963207,-1.000000,-0.129913,-0.082804,-0.096807
14.800000,5.598116,-0.033564,0.022567,0.426970,2.287455,-0.028799,481.683472,1.988647,0.000000,41.659751,44.965703,6998.963207,-0.832074,-0.725815,-1.000000,1.000000
14.900000,5.609332,-0.048428,0.023428,0.547073,2.674175,-0.063127,481.943115,2.248291,0.000000,41.659752,44.965703,6998.940655,-0.122537,0.800489,0.644647,0.715280
15.000000,5.631699,-0.063423,0.021780,0.627466,2.524403,-0.098006,482.193390,2.498596,0.000000,41.659752,44.965703,6998.940655,1.000000,1.000000,0.480341,0.807425
15.100000,5.666733,-0.078785,0.016118,0.688668,1.833285,-0.107329,482.412842,2.718018,0.000000,41.659753,44.965702,6998.917316,0.601194,0.487115,-1.000000,0.361919
15.200000,5.710401,-0.092365,0.006498,0.763128,0.985349,-0.117721,482.547119,2.852295,0.000000,41.659753,44.965701,6998.917316,-0.304560,0.081990,1.000000,0.617686
15.300000,5.757673,-0.103457,-0.005401,0.863357,0.374192,-0.151852,482.603668,2.908844,0.000000,41.659754,44.965701,6998.893480,0.955599,-1.000000,-0.723982,0.374908
15.400000,5.813057,-0.113028,-0.020283,0.977711,-0.257609,-0.204862,482.598999,2.904175,0.000000,41.659755,44.965700,6998.893480,-0.063414,-1.000000,-1.000000,-0.137212
15.500000,5.870232,-0.119887,-0.035288,1.097716,-0.884734,-0.266170,482.527283,2.832458,0.000000,41.659756,44.965700,6998.867985,1.000000,-0.925730,-1.000000,0.319782
15.600000,5.922910,-0.123850,-0.047701,1.213102,-1.396629,-0.315901,482.402496,2.707672,0.000000,41.659756,44.965699,6998.867985,-0.197462,-1.000000,-0.094432,-1.000000
15.700000,5.969737,-0.125869,-0.052978,1.338011,-1.620941,-0.318407,482.226440,2.531616,0.000000,41.659757,44.965699,6998.840417,0.081647,1.000000,-0.371824,-0.020405
15.800000,6.005893,-0.125784,-0.044640,1.460226,-1.528618,-0.313814,482.048248,2.353424,0.000000,41.659758,44.965698,6998.840417,-0.121765,0.497222,-0.815688,0.130649
15.900000,6.037618,-0.123675,-0.029740,1.567113,-1.460502,-0.323359,481.886719,2.191895,0.000000,41.659759,44.965698,6998.812684,0.087494,1.000000,0.259757,-0.601084
16.000000,6.064933,-0.119369,-0.008697,1.677173,-1.095287,-0.275991,481.729309,2.034485,0.000000,41.659761,44.965697,6998.812684,-1.000000,0.920171,0.577923,-0.877645
16.100000,6.079129,-0.113086,0.018760,1.839049,0.195390,-0.232892,481.656677,1.961853,0.000000,41.659762,44.965697,6998.785116,-0.810485,-0.213274,-0.657947,0.476868
16.200000,6.087615,-0.108215,0.044209,2.066410,1.110614,-0.248671,481.708923,2.014099,0.000000,41.659764,44.965696,6998.785116,-0.561599,-1.000000,0.045098,1.000000
16.300000,6.099986,-0.106021,0.063717,2.267151,1.214012,-0.280979,481.812134,2.117310,0.000000,41.659766,44.965696,6998.758958,0.971956,1.000000,0.568797,0.245869
16.400000,6.118472,-0.105133,0.074521,2.403711,0.667411,-0.265102,481.885956,2.191132,0.000000,41.659768,44.965696,6998.758958,-0.367991,-0.456533,-1.000000,-0.196239
16.500000,6.137429,-0.104063,0.079041,2.528622,0.308751,-0.237454,481.904541,2.209747,0.000000,41.659770,44.965695,6998.735951,-0.045702,-1.000000,-0.823164,1.000000
16.600000,6.161033,-0.102761,0.077558,2.664498,0.101827,-0.224184,481.904388,2.209564,0.000000,41.659773,44.965695,6998.735951,1.000000,0.002042,1.000000,-1.000000
16.700000,6.184548,-0.100471,0.071257,2.776133,-0.426838,-0.174220,481.859711,2.164917,0.000000,41.659775,44.965695,6998.714560,-0.603116,-0.915147,1.000000,-1.000000
16.800000,6.199839,-0.096610,0.064295,2.882666,-0.585683,-0.098332,481.780121,2.085297,0.000000,41.659778,44.965695,6998.714560,-0.751680,-1.000000,-0.028105,0.377094
16.900000,6.210107,-0.090969,0.056605,3.028508,0.104865,-0.073431,481.723358,2.028534,0.000000,41.659780,44.965695,6998.690930,-0.572832,0.774864,0.203320,0.790206
17.000000,6.222803,-0.085819,0.047666,3.224525,0.932314,-0.111806,481.748840,2.054016,0.000000,41.659783,44.965695,6998.690930,-1.000000,-0.932401,-1.000000,0.418277
17.100000,6.242157,-0.084009,0.038126,3.468763,1.830023,-0.166540,481.852173,2.157349,0.000000,41.659786,44.965696,7000.200640,-1.000000,0.418844,-1.000000,-1.000000
17.200000,6.263517,-0.086760,0.031020,3.728757,2.851626,-0.193866,482.060852,2.366058,0.000000,41.659789,44.965696,7000.200640,-1.000000,1.000000,-1.000000,1.000000
17.300000,0.003541,-0.094046,0.029073,3.960424,3.794810,-0.253550,482.365051,2.670227,0.000000,41.659793,44.965696,7000.175601,-1.000000,0.724417,-1.000000,-1.000000
17.400000,0.027305,-0.104523,0.031384,4.153423,4.617362,-0.328288,482.730072,3.035248,0.000000,41.659797,44.965697,7000.175601,-1.000000,-1.000000,-0.685773,0.418352
17.500000,0.052780,-0.118577,0.037227,4.310620,5.099503,-0.439426,483.182312,3.487488,0.000000,41.659801,44.965698,7000.150355,-0.398647,0.859286,0.090889,0.372383
17.600000,0.083826,-0.134182,0.041697,4.427323,5.131314,-0.566166,483.650452,3.955627,0.000000,41.659806,44.965699,7000.150355,-0.230409,1.000000,0.849363,-1.000000
17.700000,0.112823,-0.148832,0.045703,4.527918,4.887334,-0.638357,484.067749,4.372925,0.000000,41.659810,44.965700,7000.124736,0.579273,-0.715070,-0.090340,0.065825
17.800000,0.140347,-0.163544,0.050766,4.631034,4.296830,-0.689352,484.463501,4.768707,0.000000,41.659815,44.965701,7000.124736,0.825705,0.183778,1.000000,-0.092101
17.900000,0.168591,-0.176604,0.054067,4.735738,3.376952,-0.735638,484.772919,5.078125,0.000000,41.659819,44.965702,7000.097624,1.000000,0.405455,-0.325987,-1.000000
18.000000,0.192149,-0.186714,0.057073,4.861747,2.487066,-0.732801,484.967224,5.272400,0.000000,41.659824,44.965703,7000.097624,-1.000000,0.784634,-0.585625,0.849801
18.100000,0.218636,-0.196017,0.058393,5.045283,1.886014,-0.800629,485.089905,5.395081,0.000000,41.659829,44.965705,7000.068564,0.057165,-0.539678,0.074141,0.864488
18.200000,0.255503,-0.205366,0.053775,5.257375,1.627730,-0.959886,485.167267,5.472412,0.000000,41.659833,44.965706,7000.068564,-0.143370,1.000000,-1.000000,-1.000000
18.300000,0.296471,-0.213603,0.045249,5.444536,1.266390,-1.080277,485.200317,5.505493,0.000000,41.659838,44.965708,7000.039380,0.055129,-0.097856,-0.460606,-0.995572
18.400000,0.331039,-0.220820,0.041147,5.653786,0.843456,-1.118117,485.188934,5.494110,0.000000,41.659843,44.965710,7000.039380,0.182664,0.644077,-1.000000,1.000000
18.500000,0.363080,-0.226844,0.039558,5.874414,0.495985,-1.233162,485.127075,5.432251,0.000000,41.659848,44.965712,7000.010112,-0.324239,0.557532,-0.246474,-0.357819
18.600000,0.398788,-0.231974,0.036851,6.088474,0.449252,-1.385105,485.040741,5.345947,0.000000,41.659853,44.965714,7000.010112,-0.624234,-1.000000,1.000000,-0.074477
18.700000,0.436876,-0.236760,0.035810,6.313308,0.450748,-1.549793,484.949249,5.254425,0.000000,41.659859,44.965716,6999.979767,0.553785,-0.265529,-0.050171,0.236416
18.800000,0.477864,-0.240429,0.032879,6.505693,0.048433,-1.758173,484.828094,5.133270,0.000000,41.659864,44.965719,6999.979767,0.778672,-0.107096,-0.345138,0.921311
18.900000,0.521637,-0.242362,0.024909,6.660726,-0.509953,-2.009064,484.659332,4.964539,0.000000,41.659870,44.965722,6999.949505,-0.025337,-0.460541,-0.210768,0.376828
19.000000,0.571881,-0.242294,0.010063,6.801455,-0.995792,-2.306720,484.421692,4.726868,0.000000,41.659875,44.965724,6999.949505,0.520395,0.608213,1.000000,-0.453601
19.100000,0.618513,-0.239590,-0.007009,6.925373,-1.575866,-2.567998,484.130249,4.435425,0.000000,41.659881,44.965727,6999.919077,1.000000,1.000000,-1.000000,0.484198
19.200000,0.657004,-0.234986,-0.023510,7.032450,-2.287099,-2.810232,483.788239,4.093414,0.000000,41.659887,44.965730,6999.919077,0.650495,0.001066,1.000000,-0.065230
19.300000,0.692881,-0.228032,-0.040770,7.123609,-2.858534,-3.038136,483.353516,3.658691,0.000000,41.659892,44.965734,6999.889478,0.321361,-0.761147,-1.000000,-1.000000
19.400000,0.711408,-0.218785,-0.047730,7.226984,-3.316405,-3.102222,482.871948,3.177094,0.000000,41.659898,44.965737,6999.889478,1.000000,-0.112056,-0.139944,0.367984
19.500000,0.715556,-0.208061,-0.044628,7.326135,-3.552688,-3.069500,482.383057,2.688232,0.000000,41.659904,44.965740,6999.863569,-1.000000,-0.066097,-0.268159,-0.902983
19.600000,0.707743,-0.192768,-0.027270,7.396258,-2.978664,-2.897306,481.885254,2.190430,0.000000,41.659909,44.965744,6999.863569,-0.976429,-0.750667,-0.149103,-0.375823
19.700000,0.684445,-0.167989,0.004478,6.828052,-0.553516,-2.367575,481.563263,1.868439,0.000000,41.659915,44.965748,6999.840727,0.378998,-0.267219,0.205677,-1.000000
19.800000,0.655044,-0.135139,0.002014,6.076933,0.666097,-1.847455,481.492126,1.797302,0.000000,41.659920,44.965751,6999.840727,1.000000,0.915419,0.017720,0.162279
19.900000,0.617383,-0.099232,-0.006547,6.058183,0.431355,-1.486267,481.481049,1.786224,0.000000,41.659925,44.965755,6999.820000,-1.000000,0.357184,1.000000,-1.000000
20.000000,0.572764,-0.066280,-0.013307,6.181603,0.358099,-1.127162,481.462646,1.767822,0.000000,41.659930,44.965759,6999.820000,-0.016889,1.000000,-1.000000,-1.000000
20.100000,0.521330,-0.038733,-0.012232,6.325673,0.304605,-0.744732,481.470459,1.775635,0.000000,41.659935,44.965763,6999.802215,0.127368,-0.699300,-0.993476,0.896842
20.200000,0.468239,-0.013287,-0.006410,6.417371,-0.289603,-0.413723,481.456024,1.761230,0.000000,41.659940,44.965767,6999.802215,1.000000,-0.762595,0.149791,-0.177553
20.300000,0.422557,0.008828,-0.000517,6.435423,-1.088148,-0.100179,481.383484,1.688660,0.000000,41.659945,44.965770,6999.785550,0.143770,-1.000000,-1.000000,-1.000000
20.400000,0.377501,0.026436,0.006586,6.221710,-1.382192,0.279032,481.261108,1.566315,0.000000,41.659949,44.965774,6999.785550,0.751517,-0.522095,0.832833,-0.421663
20.500000,0.327874,0.027232,0.002825,4.744153,0.329537,0.526555,481.238617,1.543793,0.000000,41.659953,44.965778,6999.767435,0.284372,-0.395992,1.000000,1.000000
20.600000,0.286148,0.019078,-0.000870,4.431688,0.189922,0.709361,481.277649,1.582855,0.000000,41.659957,44.965781,6999.767435,-0.922486,1.000000,0.497571,-0.674700
20.700000,0.252763,0.011222,0.000665,4.365286,0.350835,0.859512,481.306702,1.611877,0.000000,41.659960,44.965784,6999.747453,-0.243155,1.000000,-1.000000,-0.488512
20.800000,0.215541,-0.000281,0.005301,4.418485,0.727041,1.059449,481.365997,1.671173,0.000000,41.659964,44.965787,6999.747453,-0.735548,0.304597,-0.658611,-0.631981
20.900000,0.176448,-0.014653,0.013491,4.440339,0.670637,1.268058,481.438995,1.744171,0.000000,41.659967,44.965790,6999.725399,1.000000,-1.000000,0.496233,-0.165185
21.000000,0.139921,-0.029232,0.022618,4.437073,0.285602,1.492381,481.472992,1.778168,0.000000,41.659970,44.965793,6999.725399,-0.572496,-0.353773,0.331465,-1.000000
21.100000,0.097685,-0.044761,0.035095,4.422174,0.238090,1.776827,481.468933,1.774109,0.000000,41.659974,44.965796,6999.700858,-0.254744,-0.713899,0.126864,-1.000000
21.200000,0.048808,-0.058106,0.040007,4.237393,0.665910,2.030569,481.491852,1.797028,0.000000,41.659977,44.965800,6999.700858,0.140699,1.000000,-0.541761,0.110282
21.300000,0.005091,-0.068695,0.035570,4.139306,0.534621,2.243664,481.518768,1.823944,0.000000,41.659981,44.965803,6999.675280,1.000000,0.503817,0.572614,-0.648368
21.400000,6.248902,-0.077584,0.024319,3.984668,0.020275,2.392835,481.511017,1.816223,0.000000,41.659984,44.965806,6999.675280,1.000000,-1.000000,1.000000,1.000000
21.500000,6.220896,-0.080969,0.003858,3.560335,-0.215554,2.263736,481.458893,1.764099,0.000000,41.659987,44.965809,6999.648293,0.423359,0.686870,-1.000000,-0.181024
21.600000,6.202122,-0.076117,0.010255,3.048943,-0.070871,2.079605,481.409393,1.714569,0.000000,41.659990,44.965812,6999.648293,-1.000000,-0.116561,1.000000,-0.472288
21.700000,6.184725,-0.061927,0.016641,2.642314,0.412487,1.912855,481.406982,1.712158,0.000000,41.659992,44.965815,6999.619316,-0.300727,1.000000,-0.399681,1.000000
21.800000,6.175183,-0.046448,0.014621,2.742735,0.553919,1.912048,481.445129,1.750305,0.000000,41.659995,44.965817,6999.619316,0.469300,-0.641817,-1.000000,-0.277195
21.900000,6.172831,-0.033638,0.015727,2.837037,0.452846,1.931655,481.476776,1.781952,0.000000,41.659997,44.965820,6999.590463,-1.000000,1.000000,0.871312,-1.000000
22.000000,6.166747,-0.021926,0.023295,2.919238,0.367675,2.011011,481.509430,1.814606,0.000000,41.660000,44.965822,6999.590463,0.858047,1.000000,0.685850,1.000000
22.100000,6.159840,-0.012109,0.033993,2.976718,0.175109,2.049194,481.525543,1.830719,0.000000,41.660002,44.965825,6999.563144,-1.000000,0.689383,1.000000,-0.523790
22.200000,6.156916,-0.004821,0.044006,3.044690,0.250072,2.082698,481.530273,1.835449,0.000000,41.660005,44.965827,6999.563144,-1.000000,0.978787,0.218727,-0.900723
22.300000,6.148227,0.000089,0.057460,3.151039,0.886501,2.197534,481.579285,1.884460,0.000000,41.660008,44.965830,6999.537359,0.731176,-1.000000,1.000000,-1.000000
22.400000,6.123846,0.002797,0.074867,3.160554,0.752314,2.419383,481.653900,1.959076,0.000000,41.660010,44.965832,6999.537359,0.555735,-0.297806,-0.495140,-1.000000
22.500000,6.087532,0.005134,0.092048,3.098413,0.321692,2.690632,481.685150,1.990356,0.000000,41.660013,44.965835,6999.514352,-0.122306,-0.408354,-1.000000,-0.954497
22.600000,6.038559,0.007652,0.108795,3.001923,0.096474,2.997077,481.673553,1.978729,0.000000,41.660016,44.965838,6999.514352,-0.636424,-0.671265,0.285055,-0.680754
22.700000,5.984612,0.009039,0.121826,2.924353,0.591925,3.263506,481.669983,1.975159,0.000000,41.660019,44.965842,6999.492712,-1.000000,0.381435,0.012900,0.285414
22.800000,5.938285,0.007041,0.130049,2.889394,1.383622,3.438742,481.729248,2.034424,0.000000,41.660022,44.965845,6999.492712,-0.440965,0.808094,0.432365,0.298320
22.900000,5.900827,0.000475,0.135691,2.841525,1.664035,3.631234,481.843872,2.149048,0.000000,41.660025,44.965849,6999.470617,-0.152018,-0.452438,-0.489050,-0.881927
23.000000,5.868650,-0.008155,0.139603,2.780550,1.586948,3.867359,481.955719,2.260895,0.000000,41.660029,44.965852,6999.470617,-0.285131,-1.000000,0.389137,-0.682152
23.100000,5.837908,-0.016730,0.142894,2.715450,1.449499,4.093202,482.042847,2.348022,0.000000,41.660032,44.965856,6999.447485,-0.113648,1.000000,-0.173541,1.000000
23.200000,5.814226,-0.027278,0.142933,2.678655,1.172143,4.247308,482.111115,2.416290,0.000000,41.660036,44.965860,6999.447485,0.176759,-0.412188,1.000000,1.000000
23.300000,5.809674,-0.040039,0.134750,2.731981,0.851912,4.311007,482.139313,2.444489,0.000000,41.660039,44.965864,6999.422819,-1.000000,-0.065478,-0.817024,0.622103
23.400000,5.822707,-0.054170,0.120308,2.913317,1.164026,4.317654,482.163910,2.469086,0.000000,41.660043,44.965868,6999.422819,-0.951907,-1.000000,1.000000,-1.000000
23.500000,5.846037,-0.071644,0.105132,3.206486,1.975397,4.352115,482.258575,2.563751,0.000000,41.660047,44.965872,6999.395749,-0.423118,-0.787333,-0.160613,-0.606870
23.600000,5.866584,-0.089910,0.096195,3.447762,2.200828,4.435979,482.403381,2.708557,0.000000,41.660051,44.965876,6999.395749,-0.225496,-1.000000,-0.696784,1.000000
23.700000,5.889087,-0.107028,0.089875,3.666516,1.902389,4.434788,482.529022,2.834229,0.000000,41.660055,44.965880,6999.368181,0.293941,-0.177058,-1.000000,1.000000
23.800000,5.926895,-0.125067,0.079179,3.959330,1.307278,4.340541,482.609772,2.914948,0.000000,41.660059,44.965884,6999.368181,1.000000,-0.312043,-1.000000,0.307700
23.900000,5.977894,-0.141717,0.063162,4.310367,0.532367,4.185345,482.614716,2.919891,0.000000,41.660064,44.965888,6999.339536,0.092050,0.596002,0.697736,1.000000
24.000000,6.034080,-0.155134,0.044146,4.685507,-0.052454,3.979350,482.548950,2.854126,0.000000,41.660068,44.965892,6999.339536,-0.901087,-0.433018,1.000000,-0.599735
24.100000,6.096020,-0.166014,0.023846,5.094142,-0.001104,3.705986,482.445435,2.750610,0.000000,41.660073,44.965896,6999.309191,0.128645,0.937970,1.000000,1.000000
24.200000,6.159151,-0.172768,0.007476,5.503258,0.417129,3.379334,482.369507,2.674683,0.000000,41.660078,44.965900,6999.309191,-1.000000,0.952995,-0.577836,-0.141375
24.300000,6.219709,-0.175909,-0.003039,5.885862,0.682706,3.038782,482.329681,2.634888,0.000000,41.660082,44.965904,6999.278970,0.678476,-0.575881,0.559486,-0.247181
24.400000,6.278395,-0.176546,-0.007501,6.250811,0.639078,2.731856,482.289063,2.594238,0.000000,41.660088,44.965909,6999.278970,-1.000000,0.640913,0.078209,-0.262301
24.500000,0.045642,-0.174829,-0.004786,6.581161,0.918743,2.406701,482.249634,2.554810,0.000000,41.660093,44.965913,6999.249620,-0.077535,-1.000000,1.000000,1.000000
24.600000,0.091990,-0.171407,-0.000034,6.888975,1.302530,2.064614,482.244873,2.550049,0.000000,41.660098,44.965917,6999.249620,-1.000000,-0.320440,0.226104,-0.256178
24.700000,0.138960,-0.166586,0.005862,7.210424,1.554323,1.722581,482.268707,2.573883,0.000000,41.660104,44.965921,6999.222052,0.019509,-1.000000,-0.672187,0.232760
24.800000,0.180956,-0.161460,0.012451,7.505082,1.516264,1.411555,482.305054,2.610229,0.000000,41.660110,44.965926,6999.222052,0.665860,1.000000,0.880472,0.161965
24.900000,0.218143,-0.155992,0.017207,7.731690,1.126940,1.158322,482.311584,2.616730,0.000000,41.660116,44.965930,6999.197843,-0.759258,0.268836,0.171335,-0.076438
25.000000,0.253108,-0.149042,0.023076,7.954552,0.965491,0.939338,482.288239,2.593414,0.000000,41.660122,44.965935,6999.197843,0.057429,-0.138381,0.277775,-0.650058
25.100000,0.279495,-0.141156,0.032498,8.167899,0.951011,0.788953,482.267395,2.572571,0.000000,41.660129,44.965940,6999.175706,1.000000,-0.191694,-1.000000,1.000000
25.200000,0.302358,-0.133198,0.040055,8.329852,0.368686,0.633785,482.222015,2.527191,0.000000,41.660135,44.965945,6999.175706,0.716418,-0.452693,0.972772,0.424383
25.300000,0.332453,-0.124201,0.041584,8.473503,-0.445903,0.411741,482.104187,2.409363,0.000000,41.660142,44.965950,6999.153651,0.396741,0.930396,0.677553,1.000000
25.400000,0.367844,-0.114396,0.036511,8.591365,-1.022838,0.144798,481.919678,2.224854,0.000000,41.660148,44.965955,6999.153651,-1.000000,-0.728751,0.796162,-0.465310
25.500000,0.404828,-0.103739,0.027314,8.682872,-0.768943,-0.181091,481.735596,2.040771,0.000000,41.660155,44.965960,6999.131929,-0.376021,-1.000000,-0.239616,-0.185021
25.600000,0.439575,-0.090487,0.020576,8.810156,0.237716,-0.449788,481.624207,1.929382,0.000000,41.660161,44.965965,6999.131929,-1.000000,-0.726806,-0.080527,1.000000
25.700000,0.470800,-0.077473,0.017994,8.954281,0.772678,-0.702176,481.606110,1.911316,0.000000,41.660168,44.965970,6999.109709,-0.203808,1.000000,1.000000,-1.000000
25.800000,0.497195,-0.066548,0.018950,9.087455,1.013577,-0.905381,481.632233,1.937408,0.000000,41.660175,44.965976,6999.109709,-1.000000,0.593493,-1.000000,0.951331
25.900000,0.522995,-0.057124,0.022324,9.227498,1.176593,-1.111571,481.688446,1.993622,0.000000,41.660182,44.965981,6999.087240,-0.268849,0.019436,-0.202502,0.408897
26.000000,0.551426,-0.050339,0.025211,9.338411,1.173768,-1.369839,481.766083,2.071259,0.000000,41.660189,44.965987,6999.087240,0.206932,-0.066836,0.708408,-0.048779
26.100000,0.579122,-0.045227,0.026557,9.380732,0.657081,-1.551766,481.815918,2.121094,0.000000,41.660197,44.965993,6999.066181,-0.062634,-0.769283,0.396263,-0.668571
26.200000,0.602609,-0.040117,0.029051,9.426689,0.293283,-1.690907,481.821838,2.127014,0.000000,41.660204,44.965999,6999.066181,-0.970119,1.000000,-0.816814,1.000000
26.300000,0.627893,-0.036304,0.031175,9.492238,0.398689,-1.906117,481.828583,2.133789,0.000000,41.660211,44.966005,6999.044127,0.743412,-0.133618,1.000000,1.000000
26.400000,0.659159,-0.033967,0.029960,9.498080,0.029653,-2.200285,481.826843,2.132050,0.000000,41.660218,44.966012,6999.044127,1.000000,0.549330,1.000000,1.000000
26.500000,0.702421,-0.031729,0.022312,9.435674,-0.751694,-2.581354,481.767181,2.072357,0.000000,41.660226,44.966018,6999.019379,1.000000,0.597767,-0.085949,0.044231
26.600000,0.749649,-0.028905,0.009801,9.332398,-1.604123,-2.994099,481.618652,1.923828,0.000000,41.660233,44.966024,6999.019379,0.049483,0.421896,-1.000000,1.000000
26.700000,0.795642,-0.025686,-0.003951,9.217990,-2.035726,-3.411204,481.416809,1.721954,0.000000,41.660240,44.966030,6998.993594,-0.214823,1.000000,1.000000,-1.000000
26.800000,0.839334,-0.024892,-0.020478,7.239510,0.437068,-3.127213,481.266144,1.571320,0.000000,41.660247,44.966036,6998.993594,-0.968261,-1.000000,-0.019762,-0.586354
26.900000,0.860171,-0.036998,-0.019718,6.714107,1.744060,-2.978653,481.365814,1.670990,0.000000,41.660253,44.966041,6998.966565,-0.702482,-1.000000,-0.665371,-1.000000
27.000000,0.862428,-0.051958,-0.009208,6.843110,2.247615,-2.951863,481.531769,1.836914,0.000000,41.660258,44.966046,6998.966565,0.221177,1.000000,-1.000000,-0.419095
27.100000,0.851125,-0.069754,0.003803,6.955655,1.965365,-2.821814,481.708405,2.013580,0.000000,41.660264,44.966051,6998.939122,0.721011,0.326685,-0.191844,-0.399680
27.200000,0.832510,-0.087379,0.016052,7.081898,1.364015,-2.638797,481.822693,2.127869,0.000000,41.660269,44.966056,6998.939122,-0.293758,0.959738,0.224809,0.244780
27.300000,0.814008,-0.103462,0.025446,7.231155,0.937787,-2.468249,481.869598,2.174774,0.000000,41.660275,44.966062,6998.914829,0.156626,1.000000,0.838382,0.056756
27.400000,0.796964,-0.119974,0.032773,7.401477,0.631799,-2.306667,481.875397,2.180573,0.000000,41.660280,44.966067,6998.914829,1.000000,0.592780,-1.000000,0.127352
27.500000,0.783535,-0.135178,0.036740,7.558504,-0.032670,-2.164930,481.817688,2.122864,0.000000,41.660286,44.966073,6998.892360,0.526710,1.000000,0.607204,0.769950
27.600000,0.775792,-0.147947,0.035942,7.709651,-0.582831,-2.060152,481.688843,1.994019,0.000000,41.660291,44.966078,6998.892360,0.398558,0.370096,-0.349303,-0.762595
27.700000,0.772651,-0.159633,0.002602,6.388523,0.186692,-1.753739,481.541718,1.846893,0.000000,41.660297,44.966084,6998.868399,1.000000,0.251115,-0.595308,-0.280310
27.800000,0.763238,-0.174853,-0.026280,5.029000,0.897818,-1.268696,481.486542,1.791718,0.000000,41.660301,44.966088,6998.868399,-0.186428,1.000000,0.964944,0.577919
27.900000,0.746743,-0.191677,-0.028207,3.944041,1.558714,-0.782067,481.530457,1.835632,0.000000,41.660304,44.966091,6998.844977,-0.318201,-1.000000,1.000000,-1.000000
28.000000,0.725574,-0.211476,-0.026563,3.584675,1.951981,-0.538334,481.628571,1.933746,0.000000,41.660307,44.966094,6998.844977,-0.084170,0.002022,1.000000,0.903181
28.100000,0.708197,-0.233038,-0.036053,3.286711,1.982679,-0.370189,481.740967,2.046143,0.000000,41.660309,44.966098,6998.822592,1.000000,1.000000,1.000000,0.436871
28.200000,0.695487,-0.254003,-0.038069,3.211710,1.574867,-0.308105,481.836151,2.141327,0.000000,41.660312,44.966100,6998.822592,-0.092974,-0.145718,-0.862175,-0.893678
28.300000,0.680211,-0.274512,-0.032245,3.366706,1.188265,-0.223033,481.878479,2.183655,0.000000,41.660314,44.966103,6998.801242,-0.790567,-0.901953,-0.209641,0.065484
28.400000,0.656902,-0.293450,-0.014600,3.656773,1.538399,-0.152816,481.905029,2.210236,0.000000,41.660316,44.966106,6998.801242,-0.693672,1.000000,1.000000,-0.257906
28.500000,0.631640,-0.310468,0.007743,3.991111,1.959117,-0.062933,481.960388,2.265564,0.000000,41.660319,44.966110,6998.782090,-0.232051,0.920653,-0.647024,-1.000000
28.600000,0.596149,-0.327551,0.038140,4.337835,2.102621,0.100332,482.026611,2.331818,0.000000,41.660322,44.966113,6998.782090,-0.241345,0.861899,1.000000,0.237792
28.700000,0.558216,-0.342654,0.070663,4.669421,2.152154,0.281445,482.078003,2.383179,0.000000,41.660325,44.966118,6998.763725,-0.324980,0.576009,0.398533,-0.462950
28.800000,0.523999,-0.354527,0.101534,4.988444,2.411311,0.484789,482.117859,2.423035,0.000000,41.660329,44.966122,6998.763725,-1.000000,-0.161434,-0.213906,-1.000000
28.900000,0.483326,-0.364908,0.138024,5.395961,3.371089,0.726286,482.192688,2.497864,0.000000,41.660332,44.966127,6998.745361,-1.000000,-0.615348,0.032981,1.000000
29.000000,0.447014,-0.376720,0.172049,5.827019,4.560772,0.902589,482.346924,2.652100,0.000000,41.660336,44.966133,6998.745361,-1.000000,0.350542,-0.684562,-0.087570
29.100000,0.421880,-0.389860,0.198351,6.182938,5.158671,1.072426,482.548309,2.853485,0.000000,41.660341,44.966140,6998.726167,0.171618,1.000000,1.000000,-0.495386
29.200000,0.397653,-0.402912,0.224200,6.513109,5.090160,1.346122,482.749664,3.054840,0.000000,41.660346,44.966147,6998.726167,-0.043878,1.000000,0.470663,-0.646160
29.300000,0.369724,-0.412291,0.251392,6.818043,4.555395,1.715006,482.886047,3.191223,0.000000,41.660351,44.966154,6998.704528,0.856544,0.168329,0.089349,-0.698382
29.400000,0.340185,-0.416957,0.278090,7.107422,4.012919,2.115707,482.934601,3.239807,0.000000,41.660356,44.966162,6998.704528,-0.179003,1.000000,-0.681860,-0.371997
29.500000,0.309544,-0.418100,0.304114,7.416956,3.678371,2.545183,482.909912,3.215088,0.000000,41.660360,44.966169,6998.680028,-0.381724,1.000000,-0.715933,-0.336040
29.600000,0.283345,-0.415578,0.322367,7.730338,3.549686,2.961179,482.842285,3.147461,0.000000,41.660366,44.966177,6998.680028,0.976170,1.000000,1.000000,0.101083
29.700000,0.267143,-0.411507,0.331064,8.046455,2.953442,3.342734,482.721466,3.026642,0.000000,41.660371,44.966186,6998.654450,0.873417,-0.330686,1.000000,0.401562
29.800000,0.261884,-0.407352,0.332675,8.417936,2.140373,3.697932,482.501892,2.807068,0.000000,41.660376,44.966194,6998.654450,-1.000000,0.671048,-0.168310,-0.515891
29.900000,0.263122,-0.401550,0.328388,8.151024,2.111997,3.663331,482.221893,2.527039,0.000000,41.660381,44.966202,6998.627546,-1.000000,0.554837,1.000000,-1.000000
30.000000,0.265868,-0.409210,0.347666,7.013886,3.114685,3.069083,482.068817,2.373962,0.000000,41.660386,44.966210,6998.627546,0.522720,-0.424780,0.356481,-0.768458
30.100000,0.267289,-0.435773,0.391979,5.271032,4.019156,2.111891,482.033478,2.338684,0.000000,41.660390,44.966217,6998.598486,-0.485551,-0.454155,-1.000000,1.000000
30.200000,0.269618,-0.491563,0.456276,3.431710,4.554281,1.024220,482.153961,2.459137,0.000000,41.660393,44.966223,6998.598486,0.947145,-1.000000,0.875824,-1.000000
30.300000,0.267116,-0.547760,0.502572,3.257493,4.291592,0.937317,482.287750,2.592957,0.000000,41.660396,44.966228,6998.569923,0.702652,0.324726,-0.948879,-0.806816
30.400000,0.249022,-0.606753,0.567620,1.059335,4.116397,0.289015,482.441956,2.747131,0.000000,41.660398,44.966233,6998.569923,0.169884,-0.970319,1.000000,-1.000000
30.500000,0.225231,-0.656115,0.676547,1.173527,3.878195,1.035699,482.610077,2.915253,0.000000,41.660399,44.966237,6998.540780,-1.000000,1.000000,1.000000,-1.000000
30.600000,0.182647,-0.682988,0.739436,1.525550,4.070193,1.401985,482.694183,2.999359,0.000000,41.660400,44.966242,6998.540780,-1.000000,-0.300956,-0.213261,0.407041
30.700000,0.130168,-0.700120,0.780849,1.361875,4.647449,2.215491,482.750671,3.055878,0.000000,41.660401,44.966248,6998.510104,-1.000000,-0.886571,0.099903,-0.376019
30.800000,0.062611,-0.701808,0.776710,2.113015,4.633192,2.609624,482.744995,3.050171,0.000000,41.660402,44.966255,6998.510104,0.401707,-1.000000,0.588961,0.190807
30.900000,0.001345,-0.691642,0.782723,1.543760,4.448485,3.316116,482.735291,3.040466,0.000000,41.660403,44.966261,6998.481417,-0.404362,0.836426,0.140707,1.000000
31.000000,6.210325,-0.683067,0.856116,1.572117,4.091477,2.694804,482.657379,2.962555,0.000000,41.660404,44.966268,6998.481417,-0.422152,-0.084408,1.000000,-0.718297
31.100000,6.112920,-0.662323,0.925543,0.735399,4.038279,3.416703,482.623291,2.928467,0.000000,41.660405,44.966273,6998.455217,1.000000,0.968082,0.223223,-0.958814
31.200000,5.995497,-0.634413,1.025755,0.549671,3.616849,2.845186,482.537476,2.842682,0.000000,41.660405,44.966279,6998.455217,0.467727,-0.513832,0.138324,-0.169409
31.300000,5.892922,-0.585419,1.089444,-0.230184,3.301670,3.696975,482.442749,2.747925,0.000000,41.660405,44.966285,6998.428479,-0.461602,-0.232210,0.942099,-1.000000
31.400000,5.813012,-0.534272,1.214236,-0.503240,3.095280,3.819446,482.281555,2.586731,0.000000,41.660405,44.966290,6998.428479,0.727078,-0.126896,1.000000,1.000000
31.500000,5.738876,-0.478630,1.342543,-0.581588,2.786428,3.253651,482.088715,2.393890,0.000000,41.660405,44.966295,6998.401160,-0.279439,-0.226765,0.471441,0.384097
31.600000,5.656965,-0.400379,1.455323,-0.796454,2.528666,3.053751,481.877075,2.182251,0.000000,41.660405,44.966300,6998.401160,0.124231,0.303579,0.059162,0.985409
31.700000,5.584540,-0.311023,1.537650,-0.960472,2.467530,3.208108,481.631683,1.936859,0.000000,41.660405,44.966303,6998.372804,-1.000000,-0.339353,0.026019,-0.480760
31.800000,5.526389,-0.213231,1.614077,-1.037947,2.603871,3.492715,481.346069,1.651245,0.000000,41.660405,44.966307,6998.372804,-0.349191,-1.000000,-0.320794,-1.000000
31.900000,5.472392,-0.089668,1.711578,-1.285738,2.833338,3.740303,480.972290,1.277466,0.000000,41.660405,44.966311,6998.342998,-1.000000,-0.467695,-1.000000,-1.000000
32.000000,5.428586,0.066714,1.832216,-2.055318,2.836752,3.363813,480.565674,0.870850,0.000000,41.660404,44.966314,6998.342998,-1.000000,-0.900768,-1.000000,-0.966935
32.100000,5.415025,0.206759,2.063252,-2.022509,3.472672,2.436543,480.178436,0.483612,0.000000,41.660405,44.966317,6312.000000,-1.000000,0.322706,-0.590105,1.000000
32.200000,5.429033,0.344174,2.338234,-2.015867,3.727708,1.641474,479.743622,0.048767,0.000000,41.660405,44.966319,6312.000000,0.421468,-0.516845,0.230677,0.213682
32.300000,5.459135,0.357041,2.580506,1.037316,-1.377185,-2.265940,479.885529,0.190704,0.000000,41.660406,44.966320,6998.323349,0.021303,1.000000,-1.000000,-1.000000
32.400000,5.502505,0.330682,2.702815,0.854625,-0.954156,-1.892488,480.097015,0.402191,0.000000,41.660407,44.966321,6998.323349,0.508725,-0.036798,-0.260594,-1.000000
32.500000,5.546069,0.299129,2.796829,0.689784,-0.368351,-1.575328,480.241974,0.547150,0.000000,41.660408,44.966323,6868.647163,-0.465506,1.000000,-0.271981,-1.000000
32.600000,5.588091,0.260523,2.884326,0.529518,0.132913,-1.252837,480.309570,0.614746,0.000000,41.660408,44.966324,6868.647163,0.173950,0.440624,0.835453,-0.471622
32.700000,5.628955,0.214831,2.948737,0.470346,0.631333,-1.108899,480.310059,0.615234,0.000000,41.660409,44.966324,6868.629338,0.161167,0.507648,-0.055260,0.462626
32.800000,5.668359,0.153966,3.012932,0.524795,1.058054,-0.947512,480.253387,0.558563,0.000000,41.660410,44.966325,6868.629338,-1.000000,0.993543,-0.931422,0.228214
32.900000,5.709228,0.079773,3.047483,0.551794,1.581412,-0.892199,480.136292,0.441467,0.000000,41.660411,44.966326,6868.613460,0.364011,-0.553442,-1.000000,0.797686
33.000000,5.746890,-0.005354,3.065959,0.594368,2.048778,-0.833986,479.971344,0.276520,0.000000,41.660412,44.966327,6868.613460,-0.959409,0.249355,1.000000,-1.000000
33.100000,5.785485,-0.112491,3.077423,0.660031,2.524103,-0.781319,479.740479,0.045654,0.000000,41.660413,44.966328,6312.000000,-0.913235,-0.262996,0.248599,-1.000000
33.200000,5.824299,-0.228742,3.077965,0.346932,-0.013242,-0.926485,479.694214,-0.000580,0.000000,41.660413,44.966329,6312.000000,-0.606989,-1.000000,0.020511,-0.101399
33.300000,5.863492,-0.332451,3.061388,0.371401,-0.046104,-0.915755,479.693420,-0.001434,0.000000,41.660414,44.966330,6312.000000,-0.630234,0.383484,-0.958124,0.470841
33.400000,5.908130,-0.436444,3.027258,0.393194,-0.071352,-0.904810,479.692566,-0.002258,0.000000,41.660415,44.966330,6312.000000,-0.987723,-1.000000,-0.405296,-0.315660
33.500000,5.940209,-0.449415,2.925172,-0.553499,-0.999460,0.500837,479.747986,0.053131,0.000000,41.660415,44.966330,6312.000000,-0.400619,-0.902128,-0.802927,-0.005987
33.600000,5.944315,-0.406357,2.927597,-0.512893,-0.729835,-0.052903,479.843048,0.148224,0.000000,41.660414,44.966330,6312.000000,-0.055120,0.867655,-1.000000,0.350578
33.700000,5.944157,-0.367669,2.929127,-0.357126,-0.586207,-0.157319,479.921722,0.226898,0.000000,41.660414,44.966330,6312.000000,-1.000000,-0.275404,-1.000000,-0.715709
33.800000,5.944360,-0.328652,2.934278,-0.344266,-0.532231,-0.175544,479.991821,0.296997,0.000000,41.660414,44.966330,6312.000000,-0.326596,-0.390797,0.903293,-1.000000
33.900000,5.943230,-0.296392,2.942816,-0.247186,-0.403760,-0.133564,480.045044,0.350220,0.000000,41.660414,44.966330,6312.000000,-0.050156,1.000000,-0.272115,1.000000
34.000000,5.946980,-0.266158,2.944566,-0.449862,-0.353039,-0.111826,480.099609,0.404785,0.000000,41.660414,44.966330,6312.000000,0.187764,0.457209,-0.786398,-0.150552
34.100000,5.952184,-0.234386,2.948441,-0.417450,-0.326995,-0.150775,480.149567,0.454742,0.000000,41.660414,44.966330,6312.000000,-0.631490,1.000000,-0.781357,-1.000000
34.200000,5.954663,-0.203359,2.960063,-0.390077,-0.297085,-0.154173,480.191986,0.497162,0.000000,41.660413,44.966330,6312.000000,-1.000000,-1.000000,0.673423,1.000000
34.300000,5.958393,-0.169072,2.973339,-0.353622,-0.322202,-0.182182,480.235168,0.540344,0.000000,41.660413,44.966331,6312.000000,-1.000000,-1.000000,1.000000,0.612570
34.400000,5.959131,-0.133786,2.993180,-0.266602,-0.268498,-0.199547,480.272980,0.578186,0.000000,41.660413,44.966331,6312.000000,0.385807,0.679156,0.342337,0.197750
34.500000,5.958146,-0.097302,3.016294,-0.268753,-0.277235,-0.250265,480.309174,0.614349,0.000000,41.660413,44.966331,6312.000000,0.680326,0.475958,0.041518,-0.741951
34.600000,5.957912,-0.060933,3.037068,-0.235807,-0.307599,-0.155101,480.343689,0.648865,0.000000,41.660412,44.966331,6312.000000,0.114568,0.419973,-1.000000,1.000000
34.700000,5.957471,-0.031533,3.051241,-0.168056,-0.223152,-0.108788,480.372742,0.677917,0.000000,41.660412,44.966331,6312.000000,1.000000,-1.000000,-0.489896,-1.000000
34.800000,5.957377,-0.011378,3.060585,-0.126768,-0.168524,-0.077123,480.392395,0.697540,0.000000,41.660412,44.966332,6312.000000,-0.242362,0.768800,-0.883919,1.000000
34.900000,5.957415,0.004301,3.067804,-0.094493,-0.125895,-0.055336,480.407684,0.712860,0.000000,41.660412,44.966332,6312.000000,-0.161472,1.000000,0.369248,-0.355194
35.000000,5.957488,0.015725,3.073049,-0.068901,-0.091655,-0.039624,480.418854,0.724030,0.000000,41.660412,44.966332,6312.000000,0.491055,-0.135258,1.000000,-0.528336
35.100000,5.957561,0.023635,3.076659,-0.052583,-0.069692,-0.029479,480.426666,0.731812,0.000000,41.660412,44.966332,6312.000000,-0.468484,0.525423,1.000000,1.000000
35.200000,5.957644,0.029816,3.079466,-0.038333,-0.052060,-0.021877,480.432800,0.738007,0.000000,41.660412,44.966332,6312.000000,-0.103078,0.397055,0.066740,-0.992308
35.300000,5.957646,0.034326,3.081532,-0.027772,-0.037992,-0.014654,480.437347,0.742523,0.000000,41.660412,44.966332,6312.000000,-1.000000,0.361343,0.921628,1.000000
35.400000,5.957661,0.037447,3.082928,-0.021319,-0.028874,-0.011163,480.440521,0.745667,0.000000,41.660412,44.966332,6312.000000,0.082890,-0.716092,-0.929316,0.186331
35.500000,5.957636,0.039898,3.084095,-0.002240,-0.020085,-0.007229,480.443024,0.748169,0.000000,41.660412,44.966332,6312.000000,0.198852,1.000000,-1.000000,-0.612688
35.600000,5.957904,0.045751,3.088687,-0.061531,-0.067570,-0.053718,480.450287,0.755432,0.000000,41.660412,44.966332,6312.000000,-0.921682,-1.000000,-1.000000,1.000000
35.700000,5.958318,0.052076,3.092901,-0.049704,-0.048211,-0.039022,480.455597,0.760773,0.000000,41.660412,44.966332,6312.000000,0.237282,1.000000,0.492241,-0.069365
35.800000,5.958519,0.057016,3.095583,-0.032071,-0.039986,-0.017523,480.459991,0.765167,0.000000,41.660412,44.966332,6312.000000,-0.257492,1.000000,-0.774679,-1.000000
35.900000,5.958540,0.060428,3.096995,-0.021513,-0.029399,-0.010211,480.463409,0.768585,0.000000,41.660412,44.966332,6312.000000,-0.151414,-0.694138,-0.752557,1.000000
36.000000,5.958550,0.062750,3.097832,-0.015280,-0.022386,-0.006778,480.465790,0.770966,0.000000,41.660412,44.966332,6312.000000,-0.916237,0.928595,0.049751,-0.978494
36.100000,5.958560,0.064543,3.098401,-0.010783,-0.016725,-0.004328,480.467712,0.772888,0.000000,41.660412,44.966332,6312.000000,-0.190126,-0.484366,1.000000,-1.000000
