t,yaw,pitch,roll,speed.x,speed.y,speed.z,altBar,altRad,egt,myloclat,myloclon,weightlb,collective,bank,pitch,rudder
0.100000,5.374699,0.031624,0.000931,-0.097073,0.517387,0.032737,481.239288,1.544464,0.000000,41.659724,44.965707,7004.964901,0.750291,1.000000,-1.000000,-1.000000
0.200000,5.368575,0.037203,0.005439,-0.100868,0.108519,0.082037,481.265594,1.570770,0.000000,41.659724,44.965707,7004.964901,-0.197408,0.683675,0.217423,-1.000000
0.300000,5.354622,0.039427,0.010153,-0.155381,0.082287,0.011817,481.273285,1.578430,0.000000,41.659724,44.965707,7000.556034,0.314627,-0.384920,-0.743497,0.586223
0.400000,5.338862,0.037688,0.011742,-0.124919,0.071557,-0.056903,481.280975,1.586151,0.000000,41.659724,44.965707,7000.556034,0.219202,0.215889,0.661207,-1.000000
0.500000,5.322553,0.033738,0.009458,-0.126079,0.087192,-0.097363,481.283417,1.588562,0.000000,41.659724,44.965707,7000.556034,-0.769880,1.000000,1.000000,-0.108807
0.600000,5.301471,0.027755,0.005447,-0.087876,0.201690,-0.057587,481.298065,1.603271,0.000000,41.659724,44.965707,7000.556034,0.436485,-0.351507,-0.983938,0.345329
0.700000,5.279896,0.020528,-0.002038,-0.040246,0.176013,-0.063617,481.317017,1.622192,0.000000,41.659724,44.965707,7000.541649,-0.795573,-0.037860,0.941088,-0.555090
0.800000,5.259313,0.011948,-0.006497,0.005537,0.044894,-0.046665,481.330902,1.636078,0.000000,41.659724,44.965707,7000.541649,0.777436,0.173358,-1.000000,-0.604963
0.900000,5.237636,0.004005,-0.006170,0.056534,-0.288959,0.025783,481.319733,1.624908,0.000000,41.659724,44.965707,7000.526684,1.000000,-0.681204,-0.928214,0.096228
1.000000,5.225134,0.006267,-0.000261,-0.125575,-0.117012,0.179566,481.291748,1.596924,0.000000,41.659724,44.965707,7000.526684,-0.220806,-0.683098,-0.065361,-0.200706
1.100000,5.222573,0.016718,0.003671,-0.198540,0.035885,0.012234,481.292450,1.597626,0.000000,41.659724,44.965707,7000.509936,-0.129783,-1.000000,0.886505,-0.590750
1.200000,5.221143,0.025950,0.003376,-0.149753,0.253885,0.009053,481.303802,1.609009,0.000000,41.659724,44.965708,7000.509936,-0.756798,0.210410,-0.288297,-0.274070
1.300000,5.218967,0.033510,0.009474,-0.050731,0.863032,0.018066,481.354523,1.659698,0.000000,41.659724,44.965708,7000.489789,-1.000000,0.224484,0.361660,-0.288504
1.400000,5.219025,0.036691,0.022384,0.081446,1.845025,-0.015493,481.491089,1.796265,0.000000,41.659724,44.965708,7000.489789,-1.000000,-0.419571,0.934987,1.000000
1.500000,5.228554,0.035347,0.036578,0.158529,2.386273,-0.085377,481.703217,2.008392,0.000000,41.659724,44.965708,7000.467900,-0.114496,0.784655,-0.159145,1.000000
1.600000,5.254894,0.031006,0.049593,0.185170,2.336174,-0.142665,481.949646,2.254822,0.000000,41.659724,44.965708,7000.467900,0.216735,-0.869821,0.835768,1.000000
1.700000,5.296606,0.024976,0.057596,0.177479,1.823342,-0.162369,482.163239,2.468414,0.000000,41.659724,44.965708,7000.444354,-0.203297,-0.878400,-0.380336,1.000000
1.800000,5.346842,0.018589,0.058987,0.189282,1.467489,-0.153260,482.318420,2.623596,0.000000,41.659724,44.965707,7000.444354,-0.418075,-0.131457,-0.950532,-0.062174
1.900000,5.404355,0.010683,0.055455,0.256080,1.499435,-0.108105,482.467010,2.772186,0.000000,41.659724,44.965707,7000.418444,-0.753649,0.087287,-1.000000,0.061529
2.000000,5.460732,0.000819,0.048957,0.364065,1.909903,-0.077388,482.635071,2.940247,0.000000,41.659724,44.965707,7000.418444,-1.000000,-0.374965,-1.000000,1.000000
2.100000,5.516340,-0.010857,0.039420,0.457265,2.193729,-0.069962,482.838562,3.143738,0.000000,41.659725,44.965707,7000.391830,0.076706,-1.000000,0.645874,-0.199593
2.200000,5.577987,-0.024081,0.024388,0.521506,2.026098,-0.040713,483.057465,3.362671,0.000000,41.659725,44.965706,7000.391830,1.000000,0.270013,-0.179731,-0.566123
2.300000,5.635176,-0.036150,0.008136,0.559868,1.361636,0.042142,483.229462,3.534668,0.000000,41.659725,44.965706,7000.363890,-0.353416,-0.907043,0.453576,-0.075175
2.400000,5.683495,-0.045836,-0.006232,0.620616,0.790721,0.073512,483.327301,3.632477,0.000000,41.659726,44.965706,7000.363890,-1.000000,0.219063,1.000000,0.831874
2.500000,5.735964,-0.055306,-0.021128,0.748894,0.835438,0.041458,483.399506,3.704681,0.000000,41.659727,44.965705,7000.334083,-0.795714,-0.516893,-0.128679,-1.000000
2.600000,5.787794,-0.065721,-0.033158,0.916896,1.306749,-0.013541,483.510559,3.815735,0.000000,41.659727,44.965705,7000.334083,0.294379,-0.634959,1.000000,1.000000
2.700000,5.837378,-0.075644,-0.043134,1.027558,1.122738,-0.087662,483.622131,3.927307,0.000000,41.659728,44.965704,7000.304277,-0.621447,-0.664925,-1.000000,1.000000
2.800000,5.897370,-0.085043,-0.056886,1.157408,1.012845,-0.243025,483.715820,4.020996,0.000000,41.659729,44.965704,7000.304277,-1.000000,-0.209837,0.032211,1.000000
2.900000,5.965268,-0.093887,-0.074790,1.327153,1.365823,-0.431970,483.822815,4.127991,0.000000,41.659730,44.965703,7000.273808,-0.311046,-0.828464,-0.722861,0.389613
3.000000,6.032332,-0.102053,-0.094797,1.459607,1.510007,-0.616793,483.946686,4.251862,0.000000,41.659731,44.965702,7000.273808,-0.180982,-0.511418,0.582325,0.917045
3.100000,6.106044,-0.109244,-0.118274,1.568800,1.436040,-0.837086,484.069550,4.374725,0.000000,41.659733,44.965701,7000.242758,-0.576849,1.000000,-0.601011,1.000000
3.200000,6.183356,-0.114488,-0.143018,1.674531,1.520138,-1.100169,484.184235,4.489410,0.000000,41.659734,44.965699,7000.242758,-0.562656,0.459327,-0.017587,1.000000
3.300000,6.257812,-0.118244,-0.166145,1.786197,1.967359,-1.373490,484.307587,4.612762,0.000000,41.659736,44.965698,7000.213491,-1.000000,-1.000000,-0.251793,0.383053
3.400000,0.052721,-0.122345,-0.188588,1.901719,2.766651,-1.682766,484.489594,4.794769,0.000000,41.659738,44.965696,7000.213491,-1.000000,-0.823498,0.522596,0.684730
3.500000,0.130023,-0.127059,-0.208760,1.986300,3.746710,-2.036103,484.752106,5.057281,0.000000,41.659741,44.965694,7000.185965,-1.000000,-0.275854,-0.057646,1.000000
3.600000,0.204598,-0.130978,-0.228278,2.005333,4.530164,-2.383675,485.068848,5.374023,0.000000,41.659744,44.965691,7000.185965,-0.828834,1.000000,-0.225428,0.809529
3.700000,0.284981,-0.133733,-0.248512,1.963389,5.073971,-2.728454,485.455750,5.760925,0.000000,41.659747,44.965688,7000.159309,-0.756343,0.093383,-0.135852,-1.000000
3.800000,0.359570,-0.136365,-0.263821,1.903877,5.559904,-3.048321,485.873627,6.178802,0.000000,41.659751,44.965685,7000.159309,-1.000000,1.000000,-0.645350,0.876821
3.900000,0.424689,-0.139099,-0.272055,1.829239,5.939646,-3.377200,486.299622,6.604828,0.000000,41.659755,44.965682,7000.134892,-0.127590,0.739289,-0.326446,-0.292391
4.000000,0.491306,-0.140833,-0.275147,1.703351,5.866924,-3.747259,486.751495,7.056671,0.000000,41.659759,44.965679,7000.134892,-1.000000,1.000000,-0.513849,0.362280
4.100000,0.554600,-0.141374,-0.272371,1.575990,5.788433,-4.121473,487.186584,7.491760,0.000000,41.659764,44.965675,7000.109480,-0.192177,-1.000000,1.000000,-0.290999
4.200000,0.610548,-0.141132,-0.264500,1.455884,5.616110,-4.468711,487.582092,7.887268,0.000000,41.659768,44.965672,7000.109480,-0.600271,0.575705,1.000000,-0.394854
4.300000,0.662834,-0.141010,-0.250748,1.351170,5.305896,-4.810873,487.975494,8.280670,0.000000,41.659773,44.965669,7000.081747,-1.000000,-0.367803,1.000000,-0.247148
4.400000,0.708392,-0.141152,-0.233278,1.273088,4.948227,-5.140175,488.339722,8.644897,0.000000,41.659778,44.965665,7000.081747,0.400050,0.272704,0.255144,-0.216414
4.500000,0.745555,-0.141050,-0.214879,1.206737,4.333036,-5.386918,488.645020,8.950195,0.000000,41.659783,44.965662,7000.053640,1.000000,1.000000,0.369402,-1.000000
4.600000,0.773825,-0.140980,-0.192349,1.190672,3.440093,-5.579678,488.897949,9.203125,0.000000,41.659789,44.965659,7000.053640,-1.000000,-0.927328,0.448802,-0.239885
4.700000,0.793502,-0.140736,-0.168335,1.261476,2.962602,-5.781881,489.091095,9.396271,0.000000,41.659794,44.965656,7000.024497,0.346013,-0.040528,0.239336,0.602822
4.800000,0.816603,-0.139001,-0.149222,1.303005,2.543801,-5.998257,489.247528,9.552704,0.000000,41.659799,44.965653,7000.024497,0.466996,-1.000000,-0.248234,0.748738
4.900000,0.849691,-0.134288,-0.135087,1.256017,1.671409,-6.181612,489.355438,9.660614,0.000000,41.659805,44.965650,6999.993696,1.000000,-0.753830,0.038444,-0.726580
5.000000,0.884923,-0.126836,-0.125736,1.181467,0.764863,-6.285365,489.375946,9.681091,0.000000,41.659810,44.965648,6999.993696,-0.586306,-1.000000,0.559330,-0.011863
5.100000,0.912361,-0.118918,-0.118224,1.164088,0.327104,-6.378720,489.335571,9.640747,0.000000,41.659815,44.965645,6999.963102,-1.000000,-0.135419,-0.083611,0.979161
5.200000,0.942845,-0.109986,-0.114444,1.155081,0.313280,-6.515668,489.281952,9.587097,0.000000,41.659821,44.965642,6999.963102,1.000000,0.101729,1.000000,-1.000000
5.300000,0.972398,-0.100670,-0.114546,1.109519,-0.083795,-6.620998,489.205353,9.510529,0.000000,41.659826,44.965640,6999.932011,-1.000000,0.013283,0.877281,1.000000
5.400000,0.998159,-0.091645,-0.118265,1.081374,-0.241921,-6.726149,489.100739,9.405914,0.000000,41.659832,44.965638,6999.932011,-0.653732,-1.000000,-1.000000,-0.212927
5.500000,1.023798,-0.083135,-0.124636,1.090314,0.032958,-6.853233,488.997620,9.302795,0.000000,41.659838,44.965636,6999.901542,-0.250539,1.000000,0.652503,0.695129
5.600000,1.046312,-0.076552,-0.132265,1.095341,0.092346,-6.972617,488.910461,9.215637,0.000000,41.659844,44.965633,6999.901542,0.264346,-0.888080,0.639577,-0.669853
5.700000,1.064003,-0.071331,-0.141165,1.082143,-0.236433,-7.064029,488.804932,9.110107,0.000000,41.659850,44.965632,6999.875093,-0.028250,0.708579,0.048011,-1.000000
5.800000,1.068746,-0.067961,-0.148018,1.168288,-0.499657,-7.097036,488.651276,8.956451,0.000000,41.659856,44.965630,6999.875093,-0.738391,0.158206,0.172577,1.000000
5.900000,1.066018,-0.067155,-0.152078,1.361042,0.045455,-7.240082,488.502350,8.807526,0.000000,41.659862,44.965628,6999.851671,-1.000000,-0.027800,0.537393,0.260481
6.000000,1.067028,-0.068527,-0.153515,1.529261,0.670760,-7.386347,488.428436,8.733612,0.000000,41.659869,44.965627,6999.851671,0.825388,-0.115838,1.000000,0.110212
6.100000,1.066852,-0.071857,-0.152593,1.657339,0.423509,-7.471287,488.362885,8.668060,0.000000,41.659875,44.965625,6999.830032,-0.378908,-0.323858,-0.818987,-0.782651
6.200000,1.057489,-0.076844,-0.148377,1.847601,-0.019610,-7.525849,488.251068,8.556244,0.000000,41.659882,44.965624,6999.830032,-1.000000,1.000000,-1.000000,0.631447
6.300000,1.047453,-0.082433,-0.142913,2.059738,-0.287219,-7.621609,488.119232,8.424408,0.000000,41.659889,44.965623,6999.810631,1.000000,0.686826,-1.000000,-0.217232
6.400000,1.041725,-0.088492,-0.137140,2.248431,-0.684187,-7.711249,487.942383,8.247559,0.000000,41.659896,44.965621,6999.810631,-1.000000,-1.000000,0.008439,1.000000
6.500000,1.041948,-0.094798,-0.131071,2.421582,-0.766398,-7.832121,487.736603,8.041779,0.000000,41.659903,44.965620,6999.791520,0.164474,0.482796,-1.000000,0.154903
6.600000,1.049352,-0.101456,-0.124777,2.550293,-0.627694,-7.951634,487.551483,7.856659,0.000000,41.659910,44.965620,6999.791520,-0.916815,-0.668829,1.000000,-0.034459
6.700000,1.058980,-0.109748,-0.115180,2.657304,-0.807917,-7.998900,487.359680,7.664886,0.000000,41.659917,44.965619,6999.769549,1.000000,1.000000,-0.963994,-1.000000
6.800000,1.058808,-0.119515,-0.099928,2.827555,-1.378710,-7.980309,487.132996,7.438171,0.000000,41.659925,44.965618,6999.769549,0.403889,-0.126495,-1.000000,1.000000
6.900000,1.059137,-0.128386,-0.086743,2.980963,-2.124510,-8.006048,486.861053,7.166229,0.000000,41.659932,44.965618,6999.746002,0.803450,1.000000,0.734055,0.229791
7.000000,1.066761,-0.136598,-0.077144,3.103088,-2.766520,-8.055500,486.503448,6.808624,0.000000,41.659939,44.965617,6999.746002,-1.000000,-0.530318,0.139812,1.000000
7.100000,1.081152,-0.143975,-0.069579,3.208431,-2.752453,-8.118321,486.112854,6.418030,0.000000,41.659947,44.965617,6999.720673,-0.255506,1.000000,-0.339030,-0.034014
7.200000,1.098937,-0.150929,-0.059613,3.305488,-2.095544,-8.178565,485.786133,6.091309,0.000000,41.659954,44.965617,6999.720673,-1.000000,0.175932,0.625167,0.499011
7.300000,1.118924,-0.159089,-0.044498,3.418580,-1.123657,-8.245054,485.524750,5.829926,0.000000,41.659962,44.965617,6999.693313,-0.639604,-0.947056,1.000000,-0.475163
7.400000,1.140208,-0.168732,-0.027490,3.535153,-0.145918,-8.327729,485.375519,5.680695,0.000000,41.659970,44.965618,6999.693313,-1.000000,0.419003,0.270692,0.811645
7.500000,1.161764,-0.179710,-0.013063,3.653397,0.852196,-8.453900,485.332123,5.637299,0.000000,41.659978,44.965619,6999.667362,-1.000000,-1.000000,1.000000,0.831180
7.600000,1.192369,-0.193950,-0.004884,3.708907,1.740334,-8.639825,485.390533,5.695709,0.000000,41.659986,44.965621,6999.667362,-0.647394,-1.000000,1.000000,1.000000
7.700000,1.231287,-0.209647,-0.003611,3.666475,2.384748,-8.820671,485.518585,5.823761,0.000000,41.659994,44.965624,6999.643277,-1.000000,-1.000000,0.057077,0.183555
7.800000,1.272599,-0.225196,-0.006053,3.595425,3.090326,-8.984069,485.694153,5.999329,0.000000,41.660003,44.965627,6999.643277,-0.947612,-0.861942,0.099734,0.273648
7.900000,1.316968,-0.242319,-0.009302,3.482899,3.499174,-9.126990,485.940155,6.245361,0.000000,41.660011,44.965630,6999.619440,1.000000,0.430353,0.445855,-0.232644
8.000000,1.359128,-0.257955,-0.013470,3.345725,3.089980,-9.228444,486.173950,6.479126,0.000000,41.660020,44.965634,6999.619440,0.776332,-0.652297,-0.521880,0.309369
8.100000,1.396231,-0.270201,-0.018413,3.240848,2.345803,-9.280412,486.330780,6.635956,0.000000,41.660028,44.965638,6999.594692,0.689379,-0.937797,-0.770206,-1.000000
8.200000,1.429340,-0.280410,-0.023082,3.211815,1.533612,-9.309827,486.409912,6.715088,0.000000,41.660037,44.965642,6999.594692,-0.614802,0.577461,-0.072466,0.586117
8.300000,1.460433,-0.288421,-0.028619,3.246528,1.162477,-9.378089,486.420471,6.725647,0.000000,41.660045,44.965646,6999.568368,-0.059801,1.000000,1.000000,-0.606914
8.400000,1.490776,-0.294719,-0.033922,3.303641,1.227759,-9.440260,486.410675,6.715851,0.000000,41.660053,44.965651,6999.568368,-0.908775,-1.000000,0.282710,-0.853373
8.500000,1.515521,-0.301286,-0.032788,3.468999,1.687442,-9.498388,486.414642,6.719818,0.000000,41.660061,44.965656,6999.539929,-0.763580,0.324527,-0.060705,0.641121
8.600000,1.541658,-0.308949,-0.030008,3.652763,2.419643,-9.633509,486.476257,6.781433,0.000000,41.660070,44.965662,6999.539929,-0.967174,-0.703019,1.000000,-0.051904
8.700000,1.571474,-0.317513,-0.027687,3.774913,3.226561,-9.787515,486.597534,6.902710,0.000000,41.660078,44.965668,6999.511616,-1.000000,1.000000,1.000000,0.230253
8.800000,1.606941,-0.327878,-0.023961,3.863795,4.096684,-9.973236,486.804291,7.109467,0.000000,41.660086,44.965675,6999.511616,-1.000000,-0.797379,-0.016156,-0.204855
8.900000,1.645034,-0.339570,-0.019003,3.911021,4.756204,-10.171282,487.085571,7.390778,0.000000,41.660094,44.965684,6999.482597,0.353026,-0.761315,-1.000000,-0.614400
9.000000,1.677559,-0.350681,-0.012067,3.933150,4.591877,-10.284001,487.368927,7.674103,0.000000,41.660102,44.965693,6999.482597,-1.000000,-0.522378,-0.195695,-1.000000
9.100000,1.701139,-0.361891,0.000429,4.096011,4.604211,-10.350537,487.652435,7.957611,0.000000,41.660109,44.965702,6999.451796,-1.000000,0.505134,0.161295,-0.655972
9.200000,1.714403,-0.374102,0.018485,4.399213,5.072517,-10.409591,487.971313,8.276489,0.000000,41.660117,44.965712,6999.451796,-0.395940,-0.024449,-0.159499,-0.402999
9.300000,1.722975,-0.386245,0.036419,4.702821,5.252152,-10.479529,488.294952,8.600128,0.000000,41.660124,44.965722,6999.421244,-1.000000,0.019501,0.146332,1.000000
9.400000,1.740344,-0.399972,0.048748,4.968313,5.719381,-10.626342,488.659393,8.964569,0.000000,41.660131,44.965734,6999.421244,-1.000000,-0.476546,-0.495948,1.000000
9.500000,1.774199,-0.415544,0.050367,5.086037,6.484074,-10.868504,489.077972,9.383148,0.000000,41.660138,44.965746,6999.390111,-0.922635,-0.782997,0.788000,1.000000
9.600000,1.821132,-0.431203,0.041994,5.034438,7.164646,-11.136165,489.520233,9.825409,0.000000,41.660144,44.965759,6999.390111,-1.000000,-0.325074,-0.115132,-0.552516
9.700000,1.877784,-0.447756,0.029195,4.917204,7.887730,-11.392520,490.035675,10.340851,0.000000,41.660150,44.965773,6999.357527,-1.000000,1.000000,-1.000000,0.403997
9.800000,1.934975,-0.464033,0.017803,4.765576,8.289749,-11.673023,490.591064,10.896240,0.000000,41.660156,44.965787,6999.357527,1.000000,1.000000,0.704215,0.235075
9.900000,1.992689,-0.477189,0.003003,4.524853,7.899568,-11.942714,491.095398,11.400574,0.000000,41.660161,44.965802,6999.325524,0.432407,-1.000000,0.760714,0.603968
10.000000,2.059148,-0.486778,-0.019606,4.220181,7.173619,-12.214496,491.559570,11.864746,0.000000,41.660167,44.965818,6999.325524,-0.258702,1.000000,-1.000000,0.637176
10.100000,2.131581,-0.491195,-0.049849,3.886632,6.624090,-12.477407,491.944489,12.249664,0.000000,41.660172,44.965833,6999.293231,-0.268589,-0.209316,0.650614,-0.277616
10.200000,2.200429,-0.490978,-0.080825,3.581664,6.247659,-12.704961,492.251373,12.556519,0.000000,41.660177,44.965849,6999.293231,1.000000,-0.496528,0.321768,1.000000
10.300000,2.274269,-0.485641,-0.116603,3.218944,5.532793,-12.947054,492.503448,12.808624,0.000000,41.660182,44.965864,6999.259652,0.298683,0.954079,-1.000000,0.060134
10.400000,2.348501,-0.474583,-0.155770,2.833289,4.851495,-13.166716,492.662811,12.967987,0.000000,41.660186,44.965880,6999.259652,0.295164,-1.000000,0.454986,-0.789794
10.500000,2.411316,-0.460507,-0.189557,2.527381,4.244084,-13.344144,492.735809,13.040985,0.000000,41.660191,44.965896,6999.226820,1.000000,0.947584,-0.359529,0.402773
10.600000,2.470014,-0.442570,-0.221754,2.263293,3.627949,-13.542189,492.727844,13.033020,0.000000,41.660196,44.965911,6999.226820,-0.520662,1.000000,-1.000000,0.374653
10.700000,2.523300,-0.422646,-0.250986,2.058646,3.406551,-13.766924,492.650665,12.955841,0.000000,41.660200,44.965927,6999.193821,-0.431363,1.000000,-1.000000,-0.184758
10.800000,2.568249,-0.404690,-0.272806,1.955359,3.836590,-14.016971,492.559937,12.865112,0.000000,41.660204,44.965943,6999.193821,-1.000000,0.385412,-0.164341,0.861652
10.900000,2.613360,-0.387734,-0.290379,1.834240,4.184421,-14.301632,492.482513,12.787689,0.000000,41.660208,44.965960,6999.160036,0.322097,0.998308,0.405484,-0.463889
11.000000,2.652866,-0.373015,-0.301619,1.716863,4.034355,-14.581639,492.392883,12.698059,0.000000,41.660212,44.965978,6999.160036,0.779899,0.041405,1.000000,0.119024
11.100000,2.682759,-0.361279,-0.307703,1.668670,3.684898,-14.849733,492.266388,12.571594,0.000000,41.660215,44.965995,6999.129442,-1.000000,-1.000000,0.251117,0.729572
11.200000,2.711280,-0.350441,-0.312614,1.667095,3.618518,-15.150989,492.096954,12.402100,0.000000,41.660218,44.966013,6999.129442,-0.675560,-0.844912,0.824917,-0.377369
11.300000,2.735343,-0.343343,-0.313212,1.765739,4.121266,-15.466053,491.939911,12.245117,0.000000,41.660221,44.966031,6999.102372,0.724491,1.000000,-1.000000,0.724863
11.400000,2.753641,-0.340208,-0.310607,1.862475,3.901999,-15.740761,491.798401,12.103577,0.000000,41.660223,44.966050,6999.102372,-0.195074,1.000000,0.429875,-1.000000
11.500000,2.763148,-0.340674,-0.304142,2.102048,3.480780,-15.954403,491.603882,11.909058,0.000000,41.660226,44.966069,6999.077747,-0.199604,1.000000,-0.635312,-0.497708
11.600000,2.752870,-0.348127,-0.287618,2.669726,3.149289,-16.108745,491.378845,11.684021,0.000000,41.660228,44.966089,6999.077747,0.103217,-0.980119,0.165064,-0.403535
11.700000,2.730680,-0.359275,-0.267099,3.394423,2.664317,-16.244780,491.131470,11.436646,0.000000,41.660229,44.966108,6999.056356,0.026943,-1.000000,1.000000,1.000000
11.800000,2.706819,-0.371153,-0.248978,4.176551,2.177451,-16.386094,490.819763,11.124908,0.000000,41.660231,44.966128,6999.056356,0.307220,-0.531977,-1.000000,0.685602
11.900000,2.687922,-0.381829,-0.237322,4.917096,2.030245,-16.504868,490.461792,10.766968,0.000000,41.660232,44.966148,6999.036500,-0.975338,0.096467,-0.610884,-0.751695
12.000000,2.668784,-0.393274,-0.225455,5.683290,2.411119,-16.531878,490.119873,10.425049,0.000000,41.660233,44.966168,6999.036500,-1.000000,-0.605555,-0.496407,-0.268765
12.100000,2.635438,-0.409945,-0.200136,6.710868,2.963195,-16.427718,489.798187,10.103363,0.000000,41.660234,44.966189,6999.016352,-0.075337,0.909444,0.928853,-1.000000
12.200000,2.586700,-0.429630,-0.161352,7.942019,3.153473,-16.167035,489.501282,9.806458,0.000000,41.660234,44.966210,6999.016352,-0.859169,0.314515,0.934813,-1.000000
12.300000,2.527322,-0.448949,-0.113995,9.267143,3.172047,-15.751749,489.231659,9.536804,0.000000,41.660234,44.966232,6998.995998,0.085779,-0.382607,-0.638679,-0.257423
12.400000,2.456691,-0.467618,-0.057646,10.728172,2.994016,-15.160496,488.942596,9.247772,0.000000,41.660233,44.966254,6998.995998,-0.197719,0.988556,-0.970449,1.000000
12.500000,2.391004,-0.482497,-0.006219,12.053759,2.445807,-14.545216,488.615906,8.921112,0.000000,41.660232,44.966276,6998.975105,1.000000,-0.034271,-1.000000,1.000000
12.600000,2.343242,-0.493211,0.029350,13.083930,1.835122,-14.022596,488.246155,8.551300,0.000000,41.660231,44.966298,6998.975105,0.404892,-0.042919,-1.000000,-1.000000
12.700000,2.301107,-0.501913,0.058171,14.065074,1.354282,-13.437773,487.777344,8.082520,0.000000,41.660229,44.966320,6998.951807,-1.000000,-0.214069,-0.473975,0.926929
12.800000,2.261395,-0.508568,0.083828,15.032123,1.536084,-12.849329,487.264069,7.569214,0.000000,41.660228,44.966343,6998.951807,-0.034395,-1.000000,-1.000000,0.422658
12.900000,2.232339,-0.513954,0.102114,15.842526,2.082658,-12.405395,486.790009,7.095215,0.000000,41.660226,44.966365,6998.927266,0.681090,0.577799,-1.000000,-0.260237
13.000000,2.207557,-0.518353,0.116855,16.598820,1.992218,-11.928033,486.274445,6.579620,0.000000,41.660223,44.966389,6998.927266,0.085318,0.954871,0.612052,0.545296
13.100000,2.185376,-0.520802,0.128219,17.314482,1.682799,-11.441888,485.702698,6.007874,0.000000,41.660220,44.966412,6998.901149,0.625663,1.000000,1.000000,-0.622694
13.200000,2.162628,-0.520782,0.138874,18.001470,1.510202,-10.905459,485.112396,5.417572,0.000000,41.660217,44.966435,6998.901149,-0.421015,0.336559,-0.895608,-1.000000
13.300000,2.125620,-0.516394,0.158751,18.841853,1.744732,-10.067039,484.454102,4.759277,0.000000,41.660214,44.966459,6998.873374,-0.945652,0.844587,-0.932149,-0.659606
13.400000,2.073432,-0.505262,0.189394,19.775799,2.853602,-8.987214,483.832733,4.137909,0.000000,41.660210,44.966483,6998.873374,-0.699452,0.420433,1.000000,0.355975
13.500000,2.024504,-0.488556,0.216899,20.607882,4.094407,-7.974834,483.340820,3.645996,0.000000,41.660205,44.966508,6998.845848,-1.000000,-0.554556,0.575095,-0.145102
13.600000,1.979844,-0.465364,0.238698,21.435303,4.841034,-6.894589,482.913116,3.218292,0.000000,41.660199,44.966533,6998.845848,0.633566,-0.361962,-0.989242,-1.000000
13.700000,1.936371,-0.437565,0.257920,22.230699,4.574071,-5.681723,482.504791,2.809967,0.000000,41.660193,44.966559,6998.819275,-0.922104,0.259659,0.346165,0.953413
13.800000,1.904917,-0.412924,0.262815,21.932688,4.603686,-4.693895,482.111542,2.416718,0.000000,41.660186,44.966585,6998.819275,1.000000,0.414963,0.334112,0.917811
13.900000,1.920648,-0.422601,0.195549,19.679377,5.914244,-4.625597,481.808289,2.113464,0.000000,41.660180,44.966610,6998.793988,-0.913970,0.862801,-0.313721,1.000000
14.000000,1.988342,-0.486364,0.095340,13.308797,9.389648,-4.927965,481.846497,2.151672,0.000000,41.660175,44.966631,6998.793988,0.419385,-1.000000,0.157800,-0.361933
14.100000,2.040871,-0.559380,0.032209,12.017013,10.173601,-4.936179,482.088104,2.393280,0.000000,41.660170,44.966649,6998.769446,0.723992,0.857445,1.000000,-0.800137
14.200000,2.085390,-0.624874,-0.020547,11.679697,10.247204,-4.941794,482.279602,2.584778,0.000000,41.660166,44.966668,6998.769446,-1.000000,-1.000000,1.000000,-0.497878
14.300000,2.118014,-0.676350,-0.055444,11.154690,10.576493,-4.875725,482.396790,2.701965,0.000000,41.660161,44.966686,6998.743330,0.525773,1.000000,0.684324,0.725365
14.400000,2.149240,-0.714809,-0.080645,10.557751,10.868248,-4.909037,482.493683,2.798859,0.000000,41.660156,44.966704,6998.743330,-0.917191,-0.089063,1.000000,-0.177787
14.500000,2.194415,-0.748305,-0.110912,9.997945,11.350040,-5.111465,482.592041,2.897217,0.000000,41.660151,44.966721,6998.715264,-1.000000,1.000000,-0.783856,1.000000
14.600000,2.249354,-0.776478,-0.142902,10.170974,12.180458,-5.627638,482.696899,3.002045,0.000000,41.660146,44.966740,6998.715264,0.755180,-0.913255,0.634000,-0.604966
14.700000,2.300693,-0.797441,-0.167423,10.214180,12.123331,-6.102062,482.754852,3.060028,0.000000,41.660140,44.966758,6998.688692,-0.874601,-0.423973,-0.886909,-0.261244
14.800000,2.367251,-0.813197,-0.160244,9.472106,11.633449,-6.011759,482.796814,3.101990,0.000000,41.660135,44.966776,6998.688692,0.640164,-0.124574,-0.236448,0.146633
14.900000,2.470895,-0.838809,-0.176950,7.947060,11.082859,-6.778089,482.851196,3.156342,0.000000,41.660129,44.966793,6998.664150,0.220317,0.479925,-0.306997,0.411316
15.000000,2.589150,-0.862051,-0.247277,6.820415,10.660904,-7.342387,482.897736,3.202942,0.000000,41.660123,44.966809,6998.664150,-0.528226,-0.930870,0.158500,1.000000
15.100000,2.728852,-0.874692,-0.352079,5.864242,10.650684,-7.687770,482.928009,3.233215,0.000000,41.660118,44.966825,6998.641019,-0.949428,-0.087112,-0.918414,0.163395
15.200000,2.877839,-0.874213,-0.476415,4.801337,11.075734,-7.953005,482.951202,3.256378,0.000000,41.660112,44.966840,6998.641019,-0.622990,0.733877,0.106320,-0.739406
15.300000,3.013152,-0.863011,-0.594847,4.003064,11.385473,-7.964222,482.971771,3.276947,0.000000,41.660107,44.966856,6998.619089,-0.606499,1.000000,0.848369,0.282019
15.400000,3.147485,-0.841652,-0.689791,3.657279,11.158967,-7.764107,482.970673,3.275848,0.000000,41.660101,44.966870,6998.619089,-0.819649,-1.000000,-0.475580,-0.545687
15.500000,3.299184,-0.806667,-0.831911,1.942771,11.309596,-7.955152,482.942932,3.248108,0.000000,41.660095,44.966885,6998.597201,0.002598,0.382531,0.097761,1.000000
15.600000,3.418144,-0.762270,-0.906349,2.110935,10.967227,-8.448458,482.876495,3.181671,0.000000,41.660089,44.966899,6998.597201,-0.550415,0.682054,0.138008,0.163301
15.700000,3.541711,-0.702981,-1.036347,0.365805,11.211437,-8.151115,482.735657,3.040833,0.000000,41.660083,44.966914,6998.573986,-0.524099,-0.415545,-0.456145,-1.000000
15.800000,3.641277,-0.637505,-1.099948,0.344440,11.100705,-8.696739,482.554016,2.859192,0.000000,41.660076,44.966928,6998.573986,-1.000000,-1.000000,1.000000,1.000000
15.900000,3.737609,-0.560572,-1.170742,-1.401751,11.188501,-8.128769,482.343567,2.648712,0.000000,41.660070,44.966942,6998.549652,-0.335309,-0.053740,1.000000,-0.455627
16.000000,3.839630,-0.469216,-1.277226,-2.034826,11.108706,-6.941769,482.138580,2.443756,0.000000,41.660064,44.966956,6998.549652,-1.000000,0.098185,0.265836,-0.642818
16.100000,3.933041,-0.374092,-1.390186,-2.974724,10.954479,-6.078588,481.893280,2.198456,0.000000,41.660057,44.966968,6998.523618,-1.000000,0.343642,1.000000,0.631776
16.200000,4.008543,-0.280363,-1.490323,-3.917276,10.676765,-5.124847,481.622986,1.928162,0.000000,41.660051,44.966981,6998.523618,-1.000000,0.272565,0.309394,-0.776268
16.300000,4.079110,-0.174587,-1.587720,-4.800346,10.204821,-3.972780,481.303497,1.608673,0.000000,41.660046,44.966992,6998.495428,-0.169394,-0.591352,-1.000000,-0.217743
16.400000,4.144575,-0.060106,-1.674342,-5.516385,9.455394,-2.697290,480.967499,1.272675,0.000000,41.660040,44.967003,6998.495428,0.720884,1.000000,-0.741646,1.000000
16.500000,4.202196,0.064620,-1.747277,-6.017923,8.516804,-1.475687,480.651062,0.956238,0.000000,41.660035,44.967013,6312.000000,0.670874,-0.612406,-1.000000,0.205416
16.600000,4.221469,0.184102,-1.926055,-4.867125,6.329789,1.336800,480.390930,0.696106,0.000000,41.660031,44.967022,6312.000000,-0.595990,-0.274979,1.000000,-0.770881
16.700000,4.216775,0.311625,-2.115156,-5.123718,6.037267,2.271293,480.157379,0.462555,0.000000,41.660027,44.967030,6868.662211,-0.538748,-0.402251,-1.000000,1.000000
16.800000,4.212594,0.433211,-2.308019,-4.578756,4.751986,3.335650,479.884979,0.190155,0.000000,41.660023,44.967037,6868.662211,-1.000000,0.459200,-0.021029,-0.542259
16.900000,4.182515,0.563476,-2.569605,0.388502,-0.211072,4.943503,479.716217,0.021393,0.000000,41.660020,44.967043,6868.637919,-1.000000,0.000517,0.283701,0.231786
17.000000,4.021065,0.580892,-2.790173,2.285447,-1.587964,4.300615,480.130157,0.435333,0.000000,41.660017,44.967045,6868.637919,-0.169631,-1.000000,1.000000,1.000000
17.100000,3.870561,0.573691,-2.947916,2.195237,-1.297121,3.738371,480.448853,0.754028,0.000000,41.660014,44.967047,6868.613668,-1.000000,1.000000,-0.148741,-0.592953
17.200000,3.722545,0.549440,-3.088311,2.045625,-0.756495,3.314137,480.689117,0.994263,0.000000,41.660011,44.967049,6868.613668,-0.600959,-0.085090,0.785420,-0.206481
17.300000,3.590178,0.512317,3.077274,1.884900,-0.126010,3.072986,480.827209,1.132385,0.000000,41.660009,44.967051,6868.590660,-0.486823,-0.654348,1.000000,0.484519
17.400000,3.479315,0.467969,2.986013,1.736060,0.428284,2.953254,480.865509,1.170685,0.000000,41.660006,44.967053,6868.590660,-1.000000,0.494856,0.223459,-0.138705
17.500000,3.368575,0.403562,2.922111,1.594595,0.919128,2.842568,480.825165,1.130341,0.000000,41.660003,44.967055,6868.569891,0.045202,-0.211928,0.411185,0.952270
17.600000,3.263302,0.319691,2.901314,1.527873,1.479605,2.732445,480.708618,1.013824,0.000000,41.660001,44.967057,6868.569891,-0.319035,-0.926453,0.034314,0.592502
17.700000,3.171126,0.223767,2.915905,1.509359,1.971028,2.564293,480.534973,0.840149,0.000000,41.659999,44.967059,6312.000000,0.076456,1.000000,-1.000000,0.111170
17.800000,3.087048,0.104801,2.933057,1.530155,2.385574,2.356907,480.291809,0.596985,0.000000,41.659997,44.967061,6312.000000,-0.564929,-0.910199,-0.301147,0.198664
17.900000,3.016032,-0.029700,2.940111,1.666527,2.768746,2.234863,479.992279,0.297455,0.000000,41.659995,44.967063,6312.000000,-0.114831,-0.831206,1.000000,-0.671188
18.000000,2.956139,-0.170347,2.949296,1.255579,-0.489542,1.428931,479.694824,0.000000,0.000000,41.659994,44.967065,6312.000000,-0.481845,-1.000000,0.221815,0.050870
18.100000,2.893557,-0.320465,2.983110,1.296511,-0.639156,1.328761,479.693970,-0.000854,0.000000,41.659993,44.967067,6312.000000,-1.000000,0.173513,-1.000000,-0.724989
18.200000,2.850870,-0.423873,3.124993,0.283819,-1.003840,-0.617895,479.725952,0.031128,0.000000,41.659992,44.967067,6312.000000,-0.681569,0.316046,0.374186,-0.548616
18.300000,2.853303,-0.408109,-3.134726,-0.440892,-1.257386,-0.039657,479.879333,0.184509,0.000000,41.659992,44.967067,6312.000000,-0.032947,0.748947,0.113295,1.000000
18.400000,2.856192,-0.382477,-3.136465,-0.553194,-0.869346,-0.018268,479.997284,0.302460,0.000000,41.659992,44.967067,6312.000000,0.027978,-1.000000,0.808777,-1.000000
18.500000,2.857669,-0.349859,-3.137597,-0.464889,-0.677860,-0.018811,480.090668,0.395844,0.000000,41.659992,44.967067,6312.000000,1.000000,0.136066,-0.589551,0.282311
18.600000,2.858814,-0.317287,-3.138117,-0.375641,-0.533763,-0.013666,480.160278,0.465454,0.000000,41.659992,44.967067,6312.000000,-1.000000,0.388990,1.000000,-0.445320
18.700000,2.860217,-0.289210,-3.138820,-0.374282,-0.415671,0.003856,480.217438,0.522614,0.000000,41.659992,44.967067,6312.000000,-0.525483,0.179145,0.212059,-1.000000
18.800000,2.863073,-0.258963,-3.140093,-0.287736,-0.322674,-0.015797,480.266510,0.571686,0.000000,41.659993,44.967067,6312.000000,0.648571,0.699509,-0.937422,0.297112
18.900000,2.865727,-0.227916,-3.141005,-0.325686,-0.288953,-0.007925,480.305634,0.610809,0.000000,41.659993,44.967067,6312.000000,-0.827458,0.831735,-0.162244,0.630266
19.000000,2.868150,-0.192709,3.141488,-0.293218,-0.245649,-0.011224,480.340668,0.645844,0.000000,41.659993,44.967067,6312.000000,-0.460710,-0.739899,0.285584,-0.037483
19.100000,2.869529,-0.153310,3.139112,-0.365437,-0.217383,-0.015547,480.373260,0.678467,0.000000,41.659993,44.967067,6312.000000,-0.644298,-0.678215,1.000000,-0.528763
19.200000,2.868543,-0.117527,3.139532,-0.334041,-0.197124,-0.000549,480.397186,0.702362,0.000000,41.659994,44.967067,6312.000000,-1.000000,0.562559,-0.411703,-0.607856
19.300000,2.867430,-0.079819,3.140229,-0.295798,-0.163461,-0.001074,480.420197,0.725372,0.000000,41.659994,44.967067,6312.000000,0.135469,-0.441599,0.166180,-0.105514
19.400000,2.865667,-0.048113,3.140697,-0.234133,-0.130586,0.002039,480.436798,0.741974,0.000000,41.659994,44.967067,6312.000000,-0.765833,0.468153,-0.488722,-0.216171
19.500000,2.864399,-0.024638,3.140995,-0.180917,-0.103358,0.000953,480.448730,0.753906,0.000000,41.659994,44.967067,6312.000000,-0.571749,0.516460,-1.000000,1.000000
19.600000,2.863479,-0.006024,3.141266,-0.128045,-0.076269,-0.000177,480.458069,0.763245,0.000000,41.659994,44.967067,6312.000000,0.748254,0.423624,1.000000,0.543157
19.700000,2.862893,0.006402,3.141511,-0.077967,-0.050505,-0.000865,480.464508,0.769684,0.000000,41.659994,44.967067,6312.000000,-0.562981,0.871852,-0.243519,-1.000000
19.800000,2.862589,0.012759,-3.141548,-0.036602,-0.035733,-0.000601,480.468353,0.773529,0.000000,41.659995,44.967067,6312.000000,0.145128,-1.000000,-0.291514,-1.000000
19.900000,2.862593,0.016258,3.141440,-0.020419,-0.029972,0.000712,480.471680,0.776855,0.000000,41.659995,44.967067,6312.000000,0.666599,-0.734881,0.186417,1.000000
20.000000,2.862625,0.019004,3.141428,-0.021637,-0.023977,-0.001645,480.474609,0.779785,0.000000,41.659995,44.967067,6312.000000,-1.000000,0.045959,-0.223007,1.000000
20.100000,2.862584,0.022400,-3.140940,-0.036303,-0.043232,-0.010941,480.478149,0.783295,0.000000,41.659995,44.967067,6312.000000,-0.426083,-0.142513,0.223022,-0.052719
20.200000,2.862549,0.027714,-3.140163,-0.042067,-0.028145,-0.004418,480.481537,0.786713,0.000000,41.659995,44.967067,6312.000000,-0.042817,-1.000000,0.675989,-0.250989
20.300000,2.862805,0.034371,-3.140388,-0.076476,-0.067882,-0.002398,480.485565,0.790741,0.000000,41.659995,44.967067,6312.000000,-0.059447,-0.194773,-0.093644,1.000000
20.400000,2.862968,0.045072,-3.140858,-0.089978,-0.024387,0.009779,480.488983,0.794159,0.000000,41.659995,44.967067,6312.000000,-0.206989,0.706901,1.000000,-0.067407
20.500000,2.863225,0.053949,3.141050,-0.063059,-0.021490,0.001466,480.490479,0.795685,0.000000,41.659995,44.967067,6312.000000,-0.497715,0.486861,-1.000000,0.339422
20.600000,2.863099,0.059930,-3.141562,-0.033571,-0.020312,-0.002728,480.492584,0.797760,0.000000,41.659995,44.967067,6312.000000,-0.656999,1.000000,-0.115900,-0.405344
20.700000,2.862960,0.063150,-3.141406,-0.017411,-0.017245,-0.000568,480.494263,0.799438,0.000000,41.659995,44.967067,6312.000000,-0.151787,0.548791,-0.209995,-1.000000
20.800000,2.862913,0.064995,-3.141388,-0.008406,-0.013659,0.000054,480.495728,0.800903,0.000000,41.659995,44.967067,6312.000000,-0.868313,0.230737,0.532062,0.808480
20.900000,2.862910,0.065964,-3.141438,-0.003949,-0.010261,0.000498,480.496918,0.802094,0.000000,41.659995,44.967067,6312.000000,-1.000000,-0.085909,-0.996476,0.668414
21.000000,2.862912,0.066448,-3.141518,-0.001850,-0.007827,0.000737,480.497742,0.802917,0.000000,41.659995,44.967067,6312.000000,0.102732,-1.000000,-1.000000,0.833681
21.100000,2.862913,0.066715,3.141568,-0.000735,-0.005779,0.000813,480.498413,0.803589,0.000000,41.659995,44.967067,6312.000000,-1.000000,1.000000,0.399422,1.000000
21.200000,2.862912,0.066847,3.141469,-0.000211,-0.004155,0.000775,480.498932,0.804108,0.000000,41.659995,44.967067,6312.000000,-0.817671,0.891346,-0.745055,1.000000
21.300000,2.862910,0.066905,3.141383,0.000016,-0.003079,0.000705,480.499268,0.804474,0.000000,41.659995,44.967067,6312.000000,-0.138013,-1.000000,-0.540584,-0.312759
21.400000,2.862907,0.066931,3.141303,0.000116,-0.002228,0.000607,480.499542,0.804718,0.000000,41.659995,44.967067,6312.000000,-0.875318,-0.638162,1.000000,-0.660280
21.500000,2.862903,0.066937,3.141234,0.000143,-0.001581,0.000504,480.499725,0.804901,0.000000,41.659995,44.967067,6312.000000,-0.430882,-0.887211,-0.041085,-0.168279
21.600000,2.862900,0.066935,3.141181,0.000140,-0.001163,0.000419,480.499847,0.805023,0.000000,41.659995,44.967067,6312.000000,1.000000,0.316229,-0.777277,-1.000000
21.700000,2.862896,0.066930,3.141133,0.000124,-0.000837,0.000337,480.499939,0.805115,0.000000,41.659995,44.967067,6312.000000,0.206319,-0.209551,-0.132684,1.000000
21.800000,2.862893,0.066923,3.141096,0.000103,-0.000593,0.000266,480.500031,0.805206,0.000000,41.659995,44.967067,6312.000000,0.584668,0.481035,0.979365,0.557488
21.900000,2.862890,0.066916,3.141068,0.000085,-0.000436,0.000214,480.500061,0.805237,0.000000,41.659995,44.967067,6312.000000,-0.456185,0.683496,-0.473083,0.303735
22.000000,2.862888,0.066911,3.141044,0.000067,-0.000314,0.000167,480.500122,0.805298,0.000000,41.659995,44.967067,6312.000000,-1.000000,-0.896589,-0.607084,-0.184905
22.100000,2.862886,0.066906,3.141025,0.000052,-0.000223,0.000129,480.500153,0.805328,0.000000,41.659995,44.967067,6312.000000,0.332447,0.908043,0.290003,0.656797
22.200000,2.862884,0.066902,3.141011,0.000041,-0.000164,0.000101,480.500153,0.805328,0.000000,41.659995,44.967067,6312.000000,-0.122335,-1.000000,-1.000000,1.000000
22.300000,2.862882,0.066898,3.141000,0.000032,-0.000119,0.000077,480.500183,0.805359,0.000000,41.659995,44.967067,6312.000000,-0.056162,0.028819,-0.323252,-0.601068
22.400000,2.862880,0.066896,3.140991,0.000024,-0.000085,0.000058,480.500183,0.805359,0.000000,41.659995,44.967067,6312.000000,-0.196728,0.410801,0.079982,-1.000000
22.500000,2.862879,0.066894,3.140985,0.000019,-0.000063,0.000045,480.500183,0.805389,0.000000,41.659995,44.967067,6312.000000,0.401062,-0.990718,-0.124688,0.236506
22.600000,2.862877,0.066892,3.140980,0.000014,-0.000046,0.000034,480.500183,0.805359,0.000000,41.659995,44.967067,6312.000000,0.279453,-0.610988,0.217741,0.091067
22.700000,2.862876,0.066891,3.140976,0.000011,-0.000033,0.000025,480.500214,0.805389,0.000000,41.659995,44.967067,6312.000000,-0.119153,0.499656,-0.034646,-1.000000
22.800000,2.862875,0.066890,3.140973,0.000008,-0.000024,0.000019,480.500214,0.805389,0.000000,41.659995,44.967067,6312.000000,-1.000000,0.354350,0.338842,-0.243858
22.900000,2.862873,0.066890,3.140971,0.000006,-0.000018,0.000014,480.500214,0.805389,0.000000,41.659995,44.967067,6312.000000,-0.577220,-0.024578,-1.000000,-0.381008
23.000000,2.862872,0.066889,3.140970,0.000005,-0.000013,0.000010,480.500214,0.805389,0.000000,41.659995,44.967067,6312.000000,-0.839971,1.000000,-1.000000,-0.550247
23.100000,2.862871,0.066889,3.140969,0.000004,-0.000010,0.000007,480.500214,0.805389,0.000000,41.659995,44.967067,6312.000000,-0.753102,0.796349,1.000000,0.646924
23.200000,2.862870,0.066888,3.140967,0.000003,-0.000007,0.000005,480.500214,0.805389,0.000000,41.659995,44.967067,6312.000000,1.000000,-1.000000,-0.590679,-0.256507
23.300000,2.862868,0.066888,3.140967,0.000002,-0.000005,0.000004,480.500214,0.805389,0.000000,41.659995,44.967067,6312.000000,-1.000000,1.000000,-0.542004,-1.000000
23.400000,2.862867,0.066888,3.140966,0.000002,-0.000004,0.000003,480.500214,0.805389,0.000000,41.659995,44.967067,6312.000000,-0.044783,-0.658801,-0.714993,-0.052237
23.500000,2.862865,0.066888,3.140966,0.000001,-0.000002,0.000003,480.500214,0.805389,0.000000,41.659995,44.967067,6312.000000,0.785711,0.419817,0.889472,-1.000000
23.600000,2.862864,0.066888,3.140966,0.000001,-0.000002,0.000002,480.500214,0.805389,0.000000,41.659995,44.967067,6312.000000,-0.052387,0.824527,-0.290924,0.293994
23.700000,2.862863,0.066887,3.140965,0.000001,-0.000002,0.000001,480.500214,0.805420,0.000000,41.659995,44.967067,6312.000000,-1.000000,0.952657,-0.567726,-0.245895
23.800000,2.862862,0.066887,3.140965,0.000000,-0.000001,0.000001,480.500214,0.805389,0.000000,41.659995,44.967067,6312.000000,-0.109940,0.782974,-0.124379,-0.564502
23.900000,2.862860,0.066888,3.140965,0.000000,-0.000001,0.000001,480.500214,0.805389,0.000000,41.659995,44.967067,6312.000000,0.607514,0.240008,-0.866096,-0.463632
24.000000,2.862859,0.066887,3.140965,0.000000,-0.000001,-0.000000,480.500214,0.805389,0.000000,41.659995,44.967067,6312.000000,-0.619461,-1.000000,-0.695886,-0.773196
24.100000,2.862858,0.066887,3.140965,0.000000,-0.000000,0.000000,480.500214,0.805389,0.000000,41.659995,44.967067,6312.000000,-1.000000,0.977402,-0.647562,0.459004
24.200000,2.862856,0.066887,3.140965,0.000000,-0.000001,-0.000000,480.500214,0.805359,0.000000,41.659995,44.967067,6312.000000,0.736763,0.060249,0.447869,0.275182
24.300000,2.862855,0.066887,3.140965,0.000000,-0.000000,-0.000001,480.500214,0.805389,0.000000,41.659995,44.967067,6312.000000,0.789312,-0.477497,-0.744629,1.000000
24.400000,2.862854,0.066887,3.140965,0.000000,0.000001,-0.000001,480.500214,0.805389,0.000000,41.659995,44.967067,6312.000000,-0.066427,1.000000,-1.000000,0.254473
24.500000,2.862853,0.066887,3.140965,-0.000000,-0.000000,-0.000001,480.500214,0.805389,0.000000,41.659995,44.967067,6312.000000,0.693377,0.488802,0.380247,0.666230
24.600000,2.862851,0.066887,3.140965,-0.000000,0.000000,-0.000001,480.500214,0.805389,0.000000,41.659995,44.967067,6312.000000,0.854859,0.729815,1.000000,1.000000
24.700000,2.862850,0.066887,3.140965,-0.000000,0.000000,-0.000000,480.500214,0.805389,0.000000,41.659995,44.967067,6312.000000,-0.223976,-0.190099,1.000000,0.002370
24.800000,2.862849,0.066887,3.140965,0.000000,-0.000001,-0.000000,480.500214,0.805389,0.000000,41.659995,44.967067,6312.000000,-1.000000,0.671418,0.517930,1.000000
24.900000,2.862848,0.066887,3.140965,0.000001,-0.000001,-0.000000,480.500214,0.805389,0.000000,41.659995,44.967067,6312.000000,0.463601,-0.793395,-0.226500,-1.000000
25.000000,2.862846,0.066887,3.140965,0.000000,0.000001,-0.000001,480.500214,0.805389,0.000000,41.659995,44.967067,6312.000000,-0.134136,1.000000,0.499197,0.095917
25.100000,2.862845,0.066887,3.140965,0.000000,-0.000001,-0.000000,480.500214,0.805389,0.000000,41.659995,44.967067,6312.000000,-0.255818,0.184028,0.237423,1.000000
25.200000,2.862844,0.066887,3.140965,0.000000,-0.000000,-0.000001,480.500214,0.805389,0.000000,41.659995,44.967067,6312.000000,-1.000000,0.225178,-0.532129,-0.047383
25.300000,2.862842,0.066887,3.140965,-0.000000,-0.000000,-0.000001,480.500214,0.805389,0.000000,41.659995,44.967067,6312.000000,1.000000,-0.337704,-1.000000,1.000000
25.400000,2.862841,0.066887,3.140965,-0.000000,-0.000000,-0.000001,480.500214,0.805389,0.000000,41.659995,44.967067,6312.000000,0.385939,-0.176988,0.315350,0.500959
25.500000,2.862840,0.066887,3.140965,-0.000000,-0.000000,-0.000000,480.500214,0.805389,0.000000,41.659995,44.967067,6312.000000,0.326265,-0.020411,0.217351,0.182911
25.600000,2.862839,0.066887,3.140965,0.000001,-0.000000,-0.000000,480.500214,0.805359,0.000000,41.659995,44.967067,6312.000000,-0.592878,1.000000,0.241064,-1.000000
25.700000,2.862837,0.066887,3.140965,0.000002,-0.000000,0.000000,480.500214,0.805389,0.000000,41.659995,44.967067,6312.000000,0.203600,-1.000000,0.497317,-0.020716
25.800000,2.862836,0.066887,3.140964,0.000001,0.000000,0.000001,480.500214,0.805389,0.000000,41.659995,44.967067,6312.000000,-0.170346,0.064731,0.262187,0.069139
25.900000,2.862835,0.066887,3.140964,0.000000,-0.000001,0.000000,480.500214,0.805389,0.000000,41.659995,44.967067,6312.000000,1.000000,0.741803,0.438195,0.327428
26.000000,2.862833,0.066887,3.140964,-0.000000,-0.000000,0.000000,480.500214,0.805389,0.000000,41.659995,44.967067,6312.000000,-0.155781,0.259175,0.679832,0.326665
26.100000,2.862832,0.066887,3.140964,0.000000,0.000000,-0.000000,480.500214,0.805389,0.000000,41.659995,44.967067,6312.000000,-0.322843,0.317739,0.159306,-0.321241
26.200000,2.862831,0.066887,3.140964,-0.000000,0.000000,-0.000001,480.500214,0.805389,0.000000,41.659995,44.967067,6312.000000,0.275714,0.465137,0.807369,0.303118
26.300000,2.862829,0.066887,3.140964,-0.000000,-0.000000,-0.000000,480.500214,0.805389,0.000000,41.659995,44.967067,6312.000000,-0.689460,0.154616,0.197011,-0.438287
26.400000,2.862828,0.066887,3.140964,0.000000,-0.000000,0.000000,480.500214,0.805389,0.000000,41.659995,44.967067,6312.000000,-0.946523,1.000000,0.270967,-0.581612
26.500000,2.862827,0.066887,3.140964,0.000000,-0.000000,0.000000,480.500214,0.805389,0.000000,41.659995,44.967067,6312.000000,-1.000000,0.888597,-0.502848,1.000000
26.600000,2.862825,0.066887,3.140964,0.000001,-0.000000,0.000000,480.500214,0.805389,0.000000,41.659995,44.967067,6312.000000,0.158885,0.417437,-0.161663,-1.000000
26.700000,2.862824,0.066887,3.140963,0.000000,-0.000000,0.000000,480.500214,0.805389,0.000000,41.659995,44.967067,6312.000000,-1.000000,0.953574,-0.038758,-0.251229
26.800000,2.862823,0.066887,3.140964,0.000000,-0.000001,-0.000000,480.500214,0.805389,0.000000,41.659995,44.967067,6312.000000,0.398225,1.000000,0.968267,1.000000
26.900000,2.862821,0.066886,3.140964,0.000000,-0.000000,0.000001,480.500214,0.805389,0.000000,41.659995,44.967067,6312.000000,-1.000000,-0.637425,-1.000000,0.342950
27.000000,2.862820,0.066887,3.140963,0.000000,-0.000000,-0.000000,480.500214,0.805389,0.000000,41.659995,44.967067,6312.000000,-0.677156,1.000000,-0.587242,-1.000000
27.100000,2.862818,0.066887,3.140963,0.000000,-0.000001,0.000000,480.500214,0.805359,0.000000,41.659995,44.967067,6312.000000,-1.000000,1.000000,0.576809,-0.207133
27.200000,2.862817,0.066887,3.140963,0.000001,0.000001,-0.000000,480.500214,0.805389,0.000000,41.659995,44.967067,6312.000000,-0.251038,-0.411983,-0.236041,0.294725
27.300000,2.862816,0.066886,3.140963,0.000001,0.000000,0.000000,480.500214,0.805389,0.000000,41.659995,44.967067,6312.000000,-0.364988,0.242640,-1.000000,-1.000000
27.400000,2.862815,0.066886,3.140963,0.000001,-0.000000,0.000000,480.500214,0.805389,0.000000,41.659995,44.967067,6312.000000,-0.273465,1.000000,-0.943279,0.913059
27.500000,2.862813,0.066886,3.140963,0.000000,0.000000,-0.000000,480.500214,0.805389,0.000000,41.659995,44.967067,6312.000000,0.046504,1.000000,0.544459,-0.250235
27.600000,2.862812,0.066886,3.140963,0.000000,-0.000000,0.000000,480.500214,0.805389,0.000000,41.659995,44.967067,6312.000000,0.304619,-1.000000,-1.000000,-0.934540
27.700000,2.862811,0.066886,3.140963,0.000000,0.000001,-0.000000,480.500214,0.805389,0.000000,41.659995,44.967067,6312.000000,-1.000000,0.258425,0.577714,-1.000000
27.800000,2.862809,0.066886,3.140963,0.000000,-0.000000,-0.000000,480.500214,0.805389,0.000000,41.659995,44.967067,6312.000000,-0.558418,-1.000000,-1.000000,-0.451275
27.900000,2.862808,0.066886,3.140963,0.000000,0.000000,-0.000001,480.500214,0.805389,0.000000,41.659995,44.967067,6312.000000,-0.171693,-1.000000,0.174242,0.809517
28.000000,2.862807,0.066886,3.140963,0.000001,-0.000001,0.000000,480.500214,0.805389,0.000000,41.659995,44.967067,6312.000000,1.000000,-0.328674,0.882594,-0.504186
28.100000,2.862805,0.066886,3.140963,0.000001,-0.000000,0.000000,480.500214,0.805359,0.000000,41.659995,44.967067,6312.000000,0.003405,0.025329,0.025820,-0.852579
28.200000,2.862804,0.066886,3.140962,0.000001,0.000000,-0.000000,480.500214,0.805389,0.000000,41.659995,44.967067,6312.000000,-1.000000,1.000000,0.149330,-0.431675
28.300000,2.862803,0.066886,3.140962,0.000000,-0.000001,0.000000,480.500214,0.805389,0.000000,41.659995,44.967067,6312.000000,-1.000000,1.000000,-1.000000,-0.633731
28.400000,2.862801,0.066886,3.140962,0.000000,-0.000001,0.000000,480.500214,0.805389,0.000000,41.659995,44.967067,6312.000000,0.891461,-1.000000,0.151508,-0.608952
28.500000,2.862800,0.066886,3.140962,0.000000,0.000000,-0.000001,480.500214,0.805359,0.000000,41.659995,44.967067,6312.000000,-1.000000,1.000000,-1.000000,0.415277
28.600000,2.862798,0.066886,3.140962,0.000001,-0.000001,-0.000000,480.500214,0.805389,0.000000,41.659995,44.967067,6312.000000,-0.376219,0.911391,-1.000000,-0.025664
28.700000,2.862797,0.066886,3.140962,0.000001,-0.000000,-0.000000,480.500214,0.805389,0.000000,41.659995,44.967067,6312.000000,-0.770929,-0.457910,0.363592,-0.706450
28.800000,2.862796,0.066886,3.140962,0.000001,-0.000001,-0.000000,480.500214,0.805389,0.000000,41.659995,44.967067,6312.000000,0.713824,0.085821,-0.515056,0.494685
28.900000,2.862794,0.066886,3.140962,0.000000,-0.000001,-0.000000,480.500214,0.805389,0.000000,41.659995,44.967067,6312.000000,-0.733022,-0.565184,-0.142528,0.493656
29.000000,2.862793,0.066886,3.140962,0.000001,-0.000000,-0.000000,480.500214,0.805359,0.000000,41.659995,44.967067,6312.000000,-1.000000,-1.000000,-0.415242,-0.929615
29.100000,2.862792,0.066885,3.140962,0.000001,-0.000000,-0.000000,480.500214,0.805389,0.000000,41.659995,44.967067,6312.000000,-0.389724,1.000000,0.923627,0.073754
29.200000,2.862791,0.066885,3.140962,0.000001,-0.000001,-0.000000,480.500214,0.805389,0.000000,41.659995,44.967067,6312.000000,-0.483892,0.334520,-0.369857,0.402294
29.300000,2.862789,0.066885,3.140962,0.000001,-0.000000,0.000000,480.500214,0.805389,0.000000,41.659995,44.967067,6312.000000,-1.000000,-0.916057,1.000000,-0.884569
29.400000,2.862788,0.066885,3.140962,-0.000000,-0.000000,-0.000000,480.500214,0.805389,0.000000,41.659995,44.967067,6312.000000,0.147501,1.000000,-1.000000,0.348575
29.500000,2.862787,0.066885,3.140962,-0.000000,-0.000001,0.000000,480.500214,0.805389,0.000000,41.659995,44.967067,6312.000000,0.404696,-1.000000,0.990689,-0.568246
29.600000,2.862785,0.066885,3.140962,-0.000001,0.000001,-0.000000,480.500214,0.805389,0.000000,41.659995,44.967067,6312.000000,-1.000000,1.000000,0.565990,0.062268
29.700000,2.862784,0.066885,3.140962,-0.000001,0.000002,-0.000001,480.500214,0.805389,0.000000,41.659995,44.967067,6312.000000,-1.000000,-0.830337,0.313681,1.000000
29.800000,2.862783,0.066886,3.140961,-0.000002,0.000003,-0.000001,480.500214,0.805389,0.000000,41.659995,44.967067,6312.000000,-0.020219,-1.000000,-1.000000,-1.000000
29.900000,2.862781,0.066886,3.140962,-0.000003,0.000003,-0.000000,480.500214,0.805389,0.000000,41.659995,44.967067,6312.000000,-1.000000,-0.019463,1.000000,-1.000000
30.000000,2.862780,0.066886,3.140962,-0.000002,0.000001,-0.000001,480.500214,0.805389,0.000000,41.659995,44.967067,6312.000000,0.811728,0.364110,1.000000,-0.239790
30.100000,2.862778,0.066886,3.140962,-0.000001,0.000000,-0.000001,480.500214,0.805389,0.000000,41.659995,44.967067,6312.000000,-1.000000,0.598451,0.389994,-0.956569
30.200000,2.862777,0.066886,3.140962,-0.000001,0.000001,0.000001,480.500214,0.805359,0.000000,41.659995,44.967067,6312.000000,-0.238997,0.769956,1.000000,0.335480
30.300000,2.862776,0.066887,3.140961,-0.000001,0.000001,0.000002,480.500214,0.805389,0.000000,41.659995,44.967067,6312.000000,-0.671796,-0.344659,0.145080,1.000000
30.400000,2.862774,0.066887,3.140961,-0.000001,0.000001,0.000000,480.500214,0.805389,0.000000,41.659995,44.967067,6312.000000,-0.491407,0.087298,0.857367,1.000000
30.500000,2.862773,0.066887,3.140961,-0.000002,0.000002,-0.000001,480.500214,0.805389,0.000000,41.659995,44.967067,6312.000000,-1.000000,-0.447248,-1.000000,-0.504162
30.600000,2.862772,0.066887,3.140961,-0.000002,0.000002,-0.000000,480.500214,0.805389,0.000000,41.659995,44.967067,6312.000000,-1.000000,1.000000,-0.408201,0.375095
30.700000,2.862770,0.066887,3.140961,-0.000002,0.000003,-0.000000,480.500214,0.805389,0.000000,41.659995,44.967067,6312.000000,-0.440393,0.606142,-0.695965,-0.731800
30.800000,2.862769,0.066887,3.140961,-0.000001,0.000001,-0.000001,480.500214,0.805389,0.000000,41.659995,44.967067,6312.000000,0.064476,0.902216,-0.252907,1.000000
30.900000,2.862767,0.066888,3.140961,-0.000001,0.000001,-0.000001,480.500214,0.805420,0.000000,41.659995,44.967067,6312.000000,0.848446,-0.257130,0.236276,0.356245
31.000000,2.862766,0.066888,3.140961,-0.000001,0.000001,0.000000,480.500214,0.805389,0.000000,41.659995,44.967067,6312.000000,0.079125,0.834341,-0.838619,-0.439584
31.100000,2.862764,0.066888,3.140961,-0.000001,0.000002,0.000001,480.500214,0.805389,0.000000,41.659995,44.967067,6312.000000,-1.000000,-1.000000,-1.000000,-1.000000
31.200000,2.862763,0.066888,3.140961,-0.000002,0.000002,0.000001,480.500214,0.805389,0.000000,41.659995,44.967067,6312.000000,1.000000,1.000000,1.000000,-1.000000
31.300000,2.862761,0.066888,3.140961,-0.000002,0.000001,-0.000001,480.500214,0.805420,0.000000,41.659995,44.967067,6312.000000,-1.000000,0.695197,0.882195,-0.335208
31.400000,2.862760,0.066888,3.140961,-0.000002,0.000001,-0.000001,480.500214,0.805389,0.000000,41.659995,44.967067,6312.000000,-0.254273,0.189296,0.116868,0.490802
31.500000,2.862759,0.066888,3.140961,-0.000001,0.000000,-0.000001,480.500214,0.805389,0.000000,41.659995,44.967067,6312.000000,-0.792416,-0.138172,0.446388,-0.788218
31.600000,2.862757,0.066888,3.140961,-0.000000,-0.000001,0.000000,480.500214,0.805389,0.000000,41.659995,44.967067,6312.000000,-1.000000,-1.000000,0.350316,1.000000
31.700000,2.862756,0.066888,3.140961,0.000001,-0.000001,0.000000,480.500214,0.805389,0.000000,41.659995,44.967067,6312.000000,-0.908496,-0.178666,-1.000000,-0.307886
31.800000,2.862755,0.066888,3.140961,0.000001,-0.000001,-0.000000,480.500214,0.805359,0.000000,41.659995,44.967067,6312.000000,-1.000000,1.000000,-1.000000,0.734033
31.900000,2.862753,0.066888,3.140961,0.000001,-0.000002,0.000000,480.500214,0.805389,0.000000,41.659995,44.967067,6312.000000,-0.625388,0.845711,-1.000000,0.674345
32.000000,2.862752,0.066888,3.140960,0.000001,-0.000001,-0.000000,480.500214,0.805389,0.000000,41.659995,44.967067,6312.000000,0.988134,-0.334080,0.953987,-0.457052
32.100000,2.862751,0.066888,3.140960,0.000002,-0.000001,-0.000000,480.500214,0.805389,0.000000,41.659995,44.967067,6312.000000,1.000000,-0.837002,-0.901887,1.000000
32.200000,2.862749,0.066888,3.140960,0.000002,-0.000001,-0.000000,480.500214,0.805389,0.000000,41.659995,44.967067,6312.000000,-1.000000,-0.154589,-0.988575,0.972736
32.300000,2.862748,0.066887,3.140960,0.000001,-0.000002,0.000000,480.500214,0.805389,0.000000,41.659995,44.967067,6312.000000,-0.383549,0.443040,0.201229,0.166044
32.400000,2.862746,0.066888,3.140960,0.000001,-0.000001,-0.000000,480.500214,0.805389,0.000000,41.659995,44.967067,6312.000000,-1.000000,-0.121940,0.132103,0.540583
32.500000,2.862745,0.066887,3.140960,0.000001,0.000000,-0.000000,480.500214,0.805389,0.000000,41.659995,44.967067,6312.000000,-1.000000,-0.304888,1.000000,1.000000
32.600000,2.862744,0.066887,3.140960,0.000002,-0.000001,0.000000,480.500214,0.805389,0.000000,41.659995,44.967067,6312.000000,0.266937,1.000000,-1.000000,-0.143660
32.700000,2.862742,0.066887,3.140960,0.000002,-0.000001,-0.000000,480.500214,0.805389,0.000000,41.659995,44.967067,6312.000000,-0.354112,-0.825124,-0.476102,0.102266
32.800000,2.862741,0.066887,3.140960,0.000002,-0.000002,0.000000,480.500214,0.805389,0.000000,41.659995,44.967067,6312.000000,-0.517297,1.000000,0.859788,1.000000
32.900000,2.862740,0.066887,3.140960,0.000002,-0.000001,-0.000000,480.500214,0.805389,0.000000,41.659995,44.967067,6312.000000,-1.000000,1.000000,0.621414,0.137544
33.000000,2.862739,0.066886,3.140960,0.000001,-0.000001,0.000000,480.500214,0.805420,0.000000,41.659995,44.967067,6312.000000,0.148107,0.524736,0.501522,0.028436
33.100000,2.862737,0.066886,3.140960,0.000001,-0.000001,0.000000,480.500214,0.805389,0.000000,41.659995,44.967067,6312.000000,0.498707,-0.918772,-0.354275,0.377580
33.200000,2.862736,0.066886,3.140960,0.000001,-0.000001,-0.000000,480.500214,0.805389,0.000000,41.659995,44.967067,6312.000000,-0.769084,1.000000,1.000000,0.501560
