t,yaw,pitch,roll,speed.x,speed.y,speed.z,altBar,altRad,egt,myloclat,myloclon,weightlb,collective,bank,pitch,rudder
0.100000,5.374699,0.031624,0.000931,-0.097073,0.517387,0.032737,481.239288,1.544464,0.000000,41.659724,44.965707,7004.964901,1.000000,0.244952,1.000000,-0.640717
0.200000,5.369190,0.037244,0.005276,-0.091593,0.095458,0.073247,481.265442,1.570618,0.000000,41.659724,44.965707,7004.964901,0.338208,-0.698084,-0.645473,-0.864567
0.300000,5.357454,0.040486,0.010175,-0.135334,0.064188,0.056895,481.270477,1.575653,0.000000,41.659724,44.965707,7000.556034,-0.882302,-0.553647,0.084686,-1.000000
0.400000,5.335411,0.038968,0.013952,-0.105880,0.440646,0.040181,481.290466,1.595673,0.000000,41.659724,44.965707,7000.556034,-0.202338,-0.047515,-0.226007,0.131145
0.500000,5.310758,0.035581,0.019147,-0.058859,0.497576,0.042947,481.342896,1.648102,0.000000,41.659724,44.965707,7000.556034,-0.111321,1.000000,-0.425396,-0.237691
0.600000,5.287903,0.030654,0.023295,-0.041886,0.211081,0.073336,481.379944,1.685120,0.000000,41.659724,44.965707,7000.556034,0.727869,-0.710928,-0.518413,-0.851305
0.700000,5.258858,0.024705,0.028395,-0.030352,-0.227454,0.145551,481.376709,1.681885,0.000000,41.659724,44.965708,7000.541649,-0.420738,-0.262205,-1.000000,-0.221477
0.800000,5.225821,0.018180,0.033822,-0.031911,-0.554060,0.224380,481.334686,1.639862,0.000000,41.659724,44.965708,7000.541649,1.000000,0.217810,-1.000000,-0.305901
0.900000,5.195835,0.012483,0.015659,-0.249955,-0.244060,0.090957,481.295441,1.600586,0.000000,41.659724,44.965708,7000.526849,-1.000000,-0.258322,0.534186,-0.931305
1.000000,5.168343,0.012621,-0.001368,-0.126496,0.237219,0.012366,481.299591,1.604767,0.000000,41.659724,44.965708,7000.526849,0.187839,-0.824449,-0.601387,1.000000
1.100000,5.150516,0.014810,-0.003843,-0.051762,0.368849,-0.020300,481.334503,1.639679,0.000000,41.659724,44.965708,7000.509397,0.161262,-0.487648,-0.682216,-0.211074
1.200000,5.142426,0.015535,-0.004410,-0.014527,0.124364,-0.039647,481.355743,1.660919,0.000000,41.659724,44.965708,7000.509397,-0.421937,0.653182,-1.000000,-0.098182
1.300000,5.140185,0.014861,-0.001143,0.059283,0.357033,-0.057570,481.373566,1.678741,0.000000,41.659724,44.965708,7000.488545,-0.866179,-0.047863,1.000000,0.198791
1.400000,5.146058,0.011537,0.006403,0.142245,0.616320,-0.094513,481.430817,1.735992,0.000000,41.659724,44.965708,7000.488545,1.000000,-0.006482,1.000000,0.617673
1.500000,5.162264,0.006867,0.013649,0.169219,0.195771,-0.122078,481.473114,1.778290,0.000000,41.659724,44.965708,7000.465952,1.000000,0.657032,-1.000000,0.715055
1.600000,5.191854,0.001523,0.019589,0.179572,-0.521376,-0.119335,481.455933,1.761108,0.000000,41.659724,44.965708,7000.465952,0.100860,0.486078,0.410473,-0.333990
1.700000,5.228035,-0.003840,0.025186,0.203212,-1.084133,-0.079441,481.370605,1.675781,0.000000,41.659724,44.965707,7000.441411,-1.000000,-0.341631,-0.323936,-1.000000
1.800000,5.252886,-0.001040,0.014827,0.049477,-0.288164,-0.388410,481.296112,1.601288,0.000000,41.659724,44.965707,7000.441411,1.000000,0.829381,0.264887,1.000000
1.900000,5.268465,0.010855,-0.002460,-0.228607,-0.009122,-0.375496,481.294952,1.600128,0.000000,41.659724,44.965707,7000.414423,-0.026695,1.000000,-1.000000,0.769831
2.000000,5.290997,0.024081,-0.002772,-0.295012,-0.177618,-0.317807,481.281036,1.586212,0.000000,41.659723,44.965707,7000.414423,-1.000000,1.000000,0.581035,-1.000000
2.100000,5.310961,0.035700,-0.004345,-0.283900,0.045000,-0.149541,481.272064,1.577240,0.000000,41.659723,44.965707,7000.387312,0.938986,1.000000,0.331768,1.000000
2.200000,5.325731,0.045612,-0.002965,-0.291655,0.058426,-0.041719,481.282654,1.587830,0.000000,41.659723,44.965707,7000.387312,0.741358,0.372662,0.460399,1.000000
2.300000,5.341480,0.053354,-0.002817,-0.273174,-0.160951,0.051132,481.273102,1.578247,0.000000,41.659723,44.965707,7000.361361,1.000000,0.395574,-0.919581,0.354394
2.400000,5.351646,0.060651,-0.000441,-0.108833,0.078871,0.066446,481.266754,1.571930,0.000000,41.659723,44.965707,7000.361361,-1.000000,-0.165499,0.630615,-1.000000
2.500000,5.352044,0.066007,0.003326,-0.053506,0.327604,0.052117,481.287201,1.592407,0.000000,41.659723,44.965708,7000.336737,-0.245948,-0.303422,-1.000000,0.270153
2.600000,5.344108,0.069076,0.007738,-0.043243,0.356965,0.074252,481.325500,1.630707,0.000000,41.659723,44.965708,7000.336737,0.285952,1.000000,-0.886118,-0.990899
2.700000,5.329683,0.069563,0.014297,-0.046413,0.163939,0.129600,481.349213,1.654388,0.000000,41.659723,44.965708,7000.315138,-0.413400,-1.000000,-0.879802,-0.269086
2.800000,5.304595,0.067684,0.023164,-0.030218,0.227486,0.170511,481.362946,1.668121,0.000000,41.659723,44.965708,7000.315138,-0.551337,0.679044,0.480064,-0.182211
2.900000,5.278460,0.061817,0.032654,0.049056,0.879877,0.151567,481.416199,1.721375,0.000000,41.659723,44.965708,7000.295696,-1.000000,1.000000,-1.000000,0.885731
3.000000,5.260025,0.051315,0.041745,0.145825,1.735508,0.101199,481.538208,1.843384,0.000000,41.659723,44.965708,7000.295696,-1.000000,1.000000,-0.346040,1.000000
3.100000,5.251922,0.035004,0.049241,0.208900,2.346855,0.039745,481.756561,2.061737,0.000000,41.659723,44.965708,7000.277456,-0.190706,1.000000,0.366020,0.529244
3.200000,5.254784,0.015881,0.052336,0.235173,2.491718,0.028506,482.003906,2.309082,0.000000,41.659723,44.965708,7000.277456,-1.000000,-0.662844,0.615339,-0.573589
3.300000,5.262435,-0.003545,0.052319,0.274082,2.762100,0.040396,482.253693,2.558899,0.000000,41.659724,44.965708,7000.260418,-0.460617,0.029818,-0.117255,1.000000
3.400000,5.275804,-0.025075,0.048451,0.314379,2.892613,0.051393,482.547211,2.852386,0.000000,41.659724,44.965708,7000.260418,0.050220,1.000000,-0.864175,0.947434
3.500000,5.299277,-0.046221,0.039089,0.341719,2.435130,0.072551,482.818909,3.124084,0.000000,41.659724,44.965708,7000.242136,-0.135718,0.776522,0.509413,0.525587
3.600000,5.330910,-0.064911,0.026096,0.387680,1.845204,0.091260,483.023315,3.328491,0.000000,41.659725,44.965707,7000.242136,1.000000,-0.047199,-0.411346,1.000000
3.700000,5.374718,-0.082787,0.008164,0.466163,1.171307,0.077065,483.170593,3.475769,0.000000,41.659725,44.965707,7000.220455,-1.000000,-0.164051,-0.099448,1.000000
3.800000,5.429384,-0.098553,-0.013322,0.595565,0.804518,0.030671,483.260376,3.565552,0.000000,41.659726,44.965707,7000.220455,-0.601952,-0.093129,-0.175561,-0.564831
3.900000,5.482745,-0.112094,-0.031462,0.759424,0.906212,0.005134,483.334198,3.639374,0.000000,41.659726,44.965706,7000.197282,-0.592165,1.000000,1.000000,0.430506
4.000000,5.537006,-0.125660,-0.044351,0.958703,1.214534,-0.040136,483.427002,3.732178,0.000000,41.659727,44.965705,7000.197282,-1.000000,-0.902438,0.675096,-1.000000
4.100000,5.586632,-0.139462,-0.048797,1.176391,1.667352,-0.100002,483.560364,3.865540,0.000000,41.659728,44.965704,7000.172243,-0.346761,0.800429,-0.545936,-0.309254
4.200000,5.625674,-0.152787,-0.044313,1.360937,1.731481,-0.138231,483.707977,4.013153,0.000000,41.659729,44.965703,7000.172243,0.086132,-1.000000,-0.808453,-1.000000
4.300000,5.657165,-0.166653,-0.031825,1.556452,1.591963,-0.149624,483.847534,4.152710,0.000000,41.659730,44.965702,7000.144841,-1.000000,0.630150,1.000000,-1.000000
4.400000,5.676471,-0.180527,-0.012317,1.779073,1.575156,-0.150898,483.977020,4.282196,0.000000,41.659731,44.965701,7000.144841,0.143847,0.709887,0.245433,-0.358183
4.500000,5.689635,-0.193310,0.007872,1.983964,1.307504,-0.163481,484.083466,4.388641,0.000000,41.659733,44.965700,7000.117025,-0.023403,-0.015869,0.785719,0.075683
4.600000,5.706107,-0.205544,0.026315,2.192225,0.698354,-0.157431,484.142822,4.447998,0.000000,41.659735,44.965698,7000.117025,0.949003,-0.984507,0.327254,-0.580784
4.700000,5.722531,-0.215601,0.042879,2.405928,-0.015343,-0.086951,484.127350,4.432526,0.000000,41.659737,44.965697,7000.088131,-0.023324,0.699944,0.822792,-0.605082
4.800000,5.734002,-0.222601,0.058774,2.620522,-0.549753,0.007821,484.045349,4.350525,0.000000,41.659738,44.965696,7000.088131,-0.900424,-0.316803,-0.375485,-0.310591
4.900000,5.746012,-0.227351,0.074209,2.857545,-0.662362,0.068752,483.919647,4.224823,0.000000,41.659741,44.965695,7000.057454,0.574395,-0.967357,1.000000,1.000000
5.000000,5.766697,-0.229457,0.083890,3.094980,-0.637561,0.078924,483.784943,4.090118,0.000000,41.659743,44.965693,7000.057454,-1.000000,-0.222730,-0.948847,-1.000000
5.100000,5.790195,-0.228583,0.089971,3.333054,-0.303146,0.110110,483.666565,3.971710,0.000000,41.659745,44.965692,7000.026985,-0.096829,0.243174,0.374321,-0.515029
5.200000,5.808545,-0.224303,0.098367,3.597738,0.017591,0.193223,483.577087,3.882294,0.000000,41.659748,44.965691,7000.026985,-0.279294,1.000000,-1.000000,-0.560240
5.300000,5.823400,-0.217528,0.106306,3.843400,-0.205302,0.267201,483.484985,3.790161,0.000000,41.659751,44.965690,6999.995976,0.298916,0.863007,-0.346612,0.721974
5.400000,5.842223,-0.209907,0.108200,4.063454,-0.339533,0.277556,483.372467,3.677643,0.000000,41.659755,44.965689,6999.995976,-0.720485,1.000000,1.000000,0.485114
5.500000,5.870227,-0.200650,0.101598,4.283946,-0.382637,0.240600,483.248627,3.553802,0.000000,41.659758,44.965688,6999.963475,0.509742,0.402929,-0.125311,-0.183667
5.600000,5.901111,-0.189447,0.089135,4.485865,-0.518658,0.205135,483.115692,3.420868,0.000000,41.659762,44.965687,6999.963475,-0.605066,-0.807811,-0.077036,0.112030
5.700000,5.928031,-0.176914,0.075324,4.655562,-0.847991,0.189714,482.971619,3.276794,0.000000,41.659766,44.965686,6999.932260,1.000000,-1.000000,-1.000000,-0.442298
5.800000,5.951011,-0.161681,0.060962,4.809431,-1.168184,0.188436,482.785339,3.090515,0.000000,41.659770,44.965685,6999.932260,-0.970208,-0.100393,0.310039,-0.227452
5.900000,5.965111,-0.144591,0.049029,4.939161,-1.330811,0.211815,482.582001,2.887177,0.000000,41.659774,44.965684,6999.902537,0.384879,0.769915,0.942538,-0.559081
6.000000,5.970941,-0.127347,0.040170,5.040001,-1.590445,0.242265,482.380524,2.685699,0.000000,41.659778,44.965683,6999.902537,0.858087,-1.000000,-0.872141,1.000000
6.100000,5.977502,-0.109068,0.029299,5.119659,-2.366072,0.209219,482.121399,2.426575,0.000000,41.659782,44.965682,6999.874679,1.000000,-0.202274,-0.004846,1.000000
6.200000,5.992409,-0.091742,0.013843,5.168063,-3.117863,0.088248,481.784576,2.089752,0.000000,41.659786,44.965681,6999.874679,-0.414675,-0.656358,1.000000,-0.045981
6.300000,6.008553,-0.075375,0.001255,4.938030,-2.803170,-0.025414,481.440948,1.746124,0.000000,41.659791,44.965681,6999.850552,-0.757001,-0.261946,0.062338,-1.000000
6.400000,6.014844,-0.047210,0.002252,2.837808,0.662682,0.014919,481.312469,1.617615,0.000000,41.659794,44.965680,6999.850552,0.033546,-1.000000,0.080034,-1.000000
6.500000,6.000426,-0.018474,0.004497,2.883677,0.721830,0.153737,481.380585,1.685730,0.000000,41.659796,44.965680,6999.828995,-0.467762,0.372210,-1.000000,1.000000
6.600000,5.976249,0.004287,0.011426,2.961120,0.531959,0.239223,481.439148,1.744324,0.000000,41.659799,44.965679,6999.828995,0.152768,0.799967,-0.513554,1.000000
6.700000,5.954626,0.024177,0.018083,3.021607,0.411870,0.259429,481.489594,1.794739,0.000000,41.659802,44.965679,6999.809221,-0.673421,0.675222,0.347184,1.000000
6.800000,5.944056,0.039393,0.021645,3.087748,0.559501,0.242702,481.542664,1.847809,0.000000,41.659804,44.965679,6999.809221,-0.996013,1.000000,1.000000,-0.380028
6.900000,5.938726,0.048703,0.024862,3.180160,1.260734,0.239703,481.641785,1.946960,0.000000,41.659807,44.965678,6999.791935,-0.726095,-0.986233,0.321311,0.645609
7.000000,5.934584,0.053424,0.029722,3.268276,2.021181,0.239056,481.826385,2.131592,0.000000,41.659810,44.965678,6999.791935,-1.000000,-1.000000,-1.000000,-0.584373
7.100000,5.930760,0.053431,0.035327,3.316494,2.257485,0.265927,482.070068,2.375275,0.000000,41.659813,44.965677,6999.775187,0.806156,0.779661,-0.255635,0.366445
7.200000,5.927071,0.050647,0.039049,3.304024,1.837379,0.309057,482.284454,2.589630,0.000000,41.659816,44.965677,6999.775187,-0.712789,-0.792745,1.000000,0.867531
7.300000,5.928466,0.045559,0.038944,3.300864,1.546361,0.324273,482.465149,2.770294,0.000000,41.659818,44.965677,6999.756283,-0.939402,-0.179317,0.737683,-0.514623
7.400000,5.934017,0.037603,0.035668,3.348107,1.884871,0.331254,482.650848,2.956024,0.000000,41.659821,44.965676,6999.756283,-0.487450,-0.050484,-1.000000,0.197255
7.500000,5.940836,0.027141,0.031573,3.410273,2.281580,0.330745,482.860107,3.165283,0.000000,41.659824,44.965676,6999.735307,-1.000000,-0.072737,-0.357577,-0.084293
7.600000,5.951220,0.012613,0.026309,3.496730,2.906580,0.326068,483.125977,3.431152,0.000000,41.659827,44.965676,6999.735307,-1.000000,0.022981,0.995896,-0.708155
7.700000,5.961939,-0.005045,0.021848,3.546382,3.295405,0.318565,483.452271,3.757477,0.000000,41.659831,44.965675,6999.712092,0.412709,-1.000000,1.000000,1.000000
7.800000,5.977297,-0.022244,0.015676,3.551607,2.971639,0.291514,483.751801,4.056946,0.000000,41.659834,44.965675,6999.712092,-0.127548,-0.357813,-0.137630,1.000000
7.900000,6.003781,-0.039799,0.005643,3.577911,2.482318,0.222606,484.015106,4.320282,0.000000,41.659837,44.965675,6999.686307,-0.168284,-1.000000,0.011709,-1.000000
8.000000,6.035555,-0.056500,-0.005138,3.628620,1.972432,0.162590,484.227234,4.532379,0.000000,41.659840,44.965674,6999.686307,1.000000,0.691840,0.012687,0.936912
8.100000,6.068348,-0.070779,-0.015178,3.678048,1.206313,0.071065,484.357971,4.663147,0.000000,41.659844,44.965674,6999.659734,0.400859,-0.931973,-0.561661,0.329531
8.200000,6.110891,-0.083942,-0.028097,3.754712,0.414086,-0.094363,484.407898,4.713074,0.000000,41.659847,44.965674,6999.659734,-1.000000,-0.829036,-0.919519,0.661698
8.300000,6.162387,-0.095315,-0.043415,3.876241,0.076715,-0.349206,484.391205,4.696381,0.000000,41.659850,44.965674,6999.631960,-0.357947,-0.570467,-0.982707,-0.075495
8.400000,6.217322,-0.105234,-0.058349,4.029561,0.388925,-0.620868,484.369812,4.674988,0.000000,41.659854,44.965673,6999.631960,-1.000000,-0.304131,0.644383,1.000000
8.500000,6.279369,-0.115320,-0.072522,4.161023,0.576866,-0.925561,484.372742,4.677917,0.000000,41.659858,44.965673,6999.602236,0.375027,-0.288801,-0.063747,-1.000000
8.600000,0.056661,-0.124194,-0.082790,4.266510,0.549190,-1.191827,484.369659,4.674835,0.000000,41.659861,44.965672,6999.602236,-1.000000,-0.052880,1.000000,0.091522
8.700000,0.107399,-0.131680,-0.085379,4.352454,0.310234,-1.434106,484.350037,4.655212,0.000000,41.659866,44.965672,6999.572886,1.000000,-0.103659,0.230071,1.000000
8.800000,0.165123,-0.137434,-0.085520,4.419973,-0.114364,-1.746821,484.286377,4.591583,0.000000,41.659870,44.965671,6999.572886,-0.814723,-1.000000,-0.118462,-0.205791
8.900000,0.226832,-0.140723,-0.083233,4.474219,-0.262060,-2.075375,484.182159,4.487335,0.000000,41.659874,44.965671,6999.543039,0.091737,-1.000000,0.860639,1.000000
9.000000,0.288095,-0.141641,-0.078237,4.504304,-0.323557,-2.407778,484.081299,4.386475,0.000000,41.659878,44.965671,6999.543039,0.449187,-0.191240,-0.101711,0.314035
9.100000,0.356321,-0.140125,-0.072681,4.494565,-0.578336,-2.747115,483.947266,4.252441,0.000000,41.659883,44.965670,6999.511533,-0.783970,0.284389,1.000000,0.398321
9.200000,0.423538,-0.136280,-0.064188,4.475133,-0.422857,-3.057544,483.807037,4.112213,0.000000,41.659887,44.965670,6999.511533,-1.000000,-0.042102,-0.565742,-0.793259
9.300000,0.481756,-0.131503,-0.051724,4.470532,-0.181381,-3.321590,483.710754,4.015930,0.000000,41.659892,44.965670,6999.480317,1.000000,-0.904734,-1.000000,1.000000
9.400000,0.539104,-0.125557,-0.040124,4.429479,-0.632177,-3.575102,483.599152,3.904327,0.000000,41.659897,44.965670,6999.480317,0.103751,0.299184,-0.529908,0.558660
9.500000,0.597182,-0.118022,-0.034294,4.350524,-1.112020,-3.844356,483.437561,3.742737,0.000000,41.659902,44.965670,6999.448853,-0.277062,0.757180,0.674664,1.000000
9.600000,0.653550,-0.109315,-0.032223,4.246613,-1.379953,-4.103806,483.262238,3.567413,0.000000,41.659907,44.965670,6999.448853,1.000000,-0.236788,0.443037,1.000000
9.700000,0.713870,-0.098375,-0.033930,4.098137,-1.692109,-4.361938,483.044281,3.349457,0.000000,41.659912,44.965670,6999.417637,-1.000000,1.000000,-1.000000,-0.043588
9.800000,0.769274,-0.085990,-0.035042,3.954054,-1.500255,-4.575247,482.819855,3.125031,0.000000,41.659917,44.965670,6999.417637,-1.000000,-0.768757,-0.243514,0.729881
9.900000,0.816237,-0.073836,-0.029216,3.871536,-0.297121,-4.757254,482.682251,2.987427,0.000000,41.659923,44.965670,6999.390028,-1.000000,0.952623,0.753426,-0.024381
10.000000,0.861603,-0.062886,-0.016204,3.846197,0.719747,-4.951201,482.680634,2.985809,0.000000,41.659928,44.965671,6999.390028,0.453280,-0.645658,-0.305533,0.369868
10.100000,0.899160,-0.054515,-0.005177,3.791043,0.502096,-5.066989,482.720947,3.026123,0.000000,41.659934,44.965672,6999.365362,-0.053999,-0.382124,-1.000000,-0.683472
10.200000,0.923584,-0.047709,0.002363,3.761031,0.089661,-5.074395,482.725952,3.031128,0.000000,41.659939,44.965673,6999.365362,-0.666321,0.184863,1.000000,-1.000000
10.300000,0.930086,-0.042053,0.012216,3.880165,0.466351,-4.982323,482.732391,3.037598,0.000000,41.659945,44.965674,6999.342894,-1.000000,0.111883,-0.413925,-1.000000
10.400000,0.915608,-0.039618,0.025303,4.120824,0.922720,-4.812987,482.804352,3.109528,0.000000,41.659951,44.965675,6999.342894,0.090422,0.832689,-0.498082,-1.000000
10.500000,0.886451,-0.039184,0.038678,4.365044,0.709474,-4.577676,482.885956,3.191132,0.000000,41.659956,44.965677,6999.323037,0.006294,1.000000,-0.351265,0.083447
10.600000,0.849139,-0.039576,0.051275,4.630166,0.370866,-4.314204,482.937469,3.242645,0.000000,41.659962,44.965678,6999.323037,-1.000000,-0.148874,-0.149341,-0.090518
10.700000,0.812301,-0.041949,0.061880,4.935066,0.803977,-4.054196,482.997162,3.302338,0.000000,41.659967,44.965680,6999.301853,-0.495147,-0.059454,0.776189,-1.000000
10.800000,0.773741,-0.046291,0.073282,5.226119,1.248535,-3.753313,483.102325,3.407532,0.000000,41.659972,44.965682,6999.301853,-0.754482,0.793199,-0.162854,-0.214944
10.900000,0.730074,-0.052249,0.086733,5.494535,1.263557,-3.410934,483.238617,3.543762,0.000000,41.659978,44.965685,6999.277892,1.000000,0.279440,0.508118,-0.046934
11.000000,0.691310,-0.058575,0.098314,5.698497,0.748116,-3.090330,483.340027,3.645203,0.000000,41.659983,44.965687,6999.277892,-0.724994,1.000000,1.000000,1.000000
11.100000,0.664203,-0.065002,0.104983,5.874538,0.503828,-2.846342,483.388763,3.693939,0.000000,41.659989,44.965690,6999.252812,-1.000000,-0.420197,0.371734,-0.713006
11.200000,0.643272,-0.072984,0.109652,6.069473,0.670841,-2.623152,483.439606,3.744781,0.000000,41.659994,44.965693,6999.252812,0.748128,-0.002935,-0.171247,0.989990
11.300000,0.630721,-0.081907,0.111511,6.218066,0.479910,-2.455574,483.477753,3.782928,0.000000,41.660000,44.965696,6999.226156,-1.000000,0.030148,1.000000,0.702487
11.400000,0.630932,-0.091124,0.108403,6.347288,0.496467,-2.385270,483.492767,3.797943,0.000000,41.660005,44.965699,6999.226156,-0.623177,1.000000,1.000000,-0.389798
11.500000,0.639066,-0.101792,0.103288,6.487598,0.633820,-2.319499,483.518463,3.823639,0.000000,41.660011,44.965703,6999.197428,0.410032,0.842657,0.055611,0.273045
11.600000,0.651904,-0.112379,0.097811,6.596818,0.306782,-2.303485,483.520966,3.826141,0.000000,41.660016,44.965706,6999.197428,0.056830,-0.944706,-0.173995,0.715750
11.700000,0.674657,-0.122269,0.088890,6.686062,0.042600,-2.379014,483.479828,3.785004,0.000000,41.660022,44.965710,6999.168492,-0.375751,1.000000,-0.084530,0.382313
11.800000,0.708468,-0.132627,0.076286,6.786683,0.188796,-2.544647,483.419464,3.724609,0.000000,41.660027,44.965714,6999.168492,-0.784923,-0.546489,-1.000000,0.469286
11.900000,0.749036,-0.143167,0.062774,6.916173,0.960471,-2.770877,483.396851,3.702026,0.000000,41.660033,44.965718,6999.138769,-0.775365,0.335678,1.000000,0.109370
12.000000,0.790659,-0.154074,0.051565,7.022653,1.441888,-2.988362,483.433746,3.738953,0.000000,41.660039,44.965723,6999.138769,-0.153227,-0.699038,0.731772,-1.000000
12.100000,0.827779,-0.165253,0.045789,7.121819,1.542933,-3.095023,483.485352,3.790527,0.000000,41.660045,44.965728,6999.107346,-0.577574,-1.000000,0.703331,-0.876600
12.200000,0.848553,-0.175093,0.050401,7.264930,1.393283,-3.082482,483.528412,3.833588,0.000000,41.660051,44.965733,6999.107346,1.000000,-0.502542,-0.300126,-1.000000
12.300000,0.854918,-0.182753,0.062614,7.431558,0.976937,-2.994002,483.529114,3.834259,0.000000,41.660057,44.965739,6999.076545,-1.000000,-1.000000,-0.341802,0.306945
12.400000,0.856170,-0.189563,0.078383,7.645665,0.833426,-2.898229,483.491760,3.796936,0.000000,41.660063,44.965744,6999.076545,-0.782319,-0.566197,1.000000,-0.651021
12.500000,0.855907,-0.196010,0.094331,7.917617,1.445107,-2.830492,483.476929,3.782104,0.000000,41.660068,44.965751,6999.046532,-0.464580,-0.248656,0.724795,1.000000
12.600000,0.859245,-0.203168,0.106917,8.161056,1.678604,-2.807202,483.502167,3.807343,0.000000,41.660074,44.965757,6999.046532,1.000000,-1.000000,-0.373863,0.081470
12.700000,0.869184,-0.211320,0.115385,8.359227,1.247595,-2.780513,483.508636,3.813812,0.000000,41.660080,44.965764,6999.016352,-0.256135,0.125668,0.466074,-1.000000
12.800000,0.873520,-0.217524,0.123954,8.571619,0.778940,-2.607070,483.452789,3.757965,0.000000,41.660086,44.965771,6999.016352,-1.000000,-1.000000,-1.000000,-0.693375
12.900000,0.861620,-0.220058,0.135906,8.839732,1.051405,-2.325140,483.379944,3.685120,0.000000,41.660092,44.965778,6998.988412,-0.649407,-1.000000,0.996240,-0.960715
13.000000,0.833376,-0.219774,0.150219,9.190669,1.748100,-1.918897,483.355438,3.660614,0.000000,41.660098,44.965786,6998.988412,0.194227,-1.000000,1.000000,0.014165
13.100000,0.798036,-0.217579,0.164274,9.492689,1.510121,-1.409984,483.340210,3.645386,0.000000,41.660104,44.965794,6998.962461,0.513464,0.393249,-0.110650,-0.812312
13.200000,0.761867,-0.213149,0.175933,9.744455,1.092750,-0.877274,483.278381,3.583557,0.000000,41.660110,44.965803,6998.962461,-0.697547,-1.000000,0.610866,0.106209
13.300000,0.721425,-0.205709,0.185381,9.987720,0.777633,-0.272358,483.172821,3.477997,0.000000,41.660116,44.965812,6998.937132,1.000000,0.727218,-1.000000,-1.000000
13.400000,0.678562,-0.195164,0.191772,10.191278,0.467528,0.372543,483.025726,3.330902,0.000000,41.660122,44.965821,6998.937132,-1.000000,0.243471,-0.516659,0.161384
13.500000,0.638498,-0.182633,0.191937,10.351303,0.607042,0.922755,482.873108,3.178314,0.000000,41.660127,44.965830,6998.914124,0.242411,1.000000,1.000000,0.924502
13.600000,0.604901,-0.168414,0.180674,10.508770,0.719254,1.393584,482.738617,3.043793,0.000000,41.660133,44.965839,6998.914124,0.553578,0.612025,0.094608,-0.403345
13.700000,0.580456,-0.154120,0.164725,10.633554,0.088078,1.819992,482.580505,2.885681,0.000000,41.660139,44.965849,6998.891075,0.562438,-1.000000,-0.311227,1.000000
13.800000,0.565477,-0.140908,0.148580,10.730857,-0.694179,2.103946,482.372437,2.677612,0.000000,41.660145,44.965859,6998.891075,0.822241,-1.000000,1.000000,0.954651
13.900000,0.563492,-0.128155,0.128427,10.832904,-1.573999,2.184377,482.080811,2.385986,0.000000,41.660151,44.965869,6998.867570,0.688667,0.618163,1.000000,1.000000
14.000000,0.576844,-0.116611,0.105595,10.937467,-2.253552,2.045608,481.721893,2.027069,0.000000,41.660157,44.965879,6998.867570,-0.265561,-1.000000,0.380846,1.000000
14.100000,0.603566,-0.105894,0.066531,9.596687,-1.225606,1.282235,481.405853,1.711029,0.000000,41.660163,44.965888,6998.845392,1.000000,1.000000,1.000000,-1.000000
14.200000,0.639528,-0.101402,0.017885,6.342552,1.444044,0.274825,481.358490,1.663666,0.000000,41.660168,44.965895,6998.845392,-0.107386,-0.640749,0.249061,-0.942471
14.300000,0.659958,-0.097832,0.003620,5.953642,1.333994,0.203278,481.449219,1.754395,0.000000,41.660171,44.965900,6998.823877,-0.296297,0.075285,1.000000,0.660296
14.400000,0.672153,-0.095888,-0.000064,5.955915,1.104777,0.161887,481.511505,1.816681,0.000000,41.660175,44.965906,6998.823877,0.371738,1.000000,-0.348020,-1.000000
14.500000,0.678041,-0.095065,0.005174,6.033867,0.576708,0.187359,481.537598,1.842773,0.000000,41.660178,44.965911,6998.803149,0.318418,-0.418418,0.739278,0.190973
14.600000,0.675537,-0.094170,0.010609,5.896214,0.353874,0.263395,481.521210,1.826385,0.000000,41.660182,44.965916,6998.803149,-0.522762,-0.432832,0.019773,-0.864542
14.700000,0.670104,-0.092732,0.004669,5.746860,0.768057,0.299593,481.521851,1.827026,0.000000,41.660185,44.965922,6998.784577,-1.000000,0.753571,-0.709700,1.000000
14.800000,0.665174,-0.093270,0.002725,5.947683,1.177750,0.304195,481.571198,1.876404,0.000000,41.660189,44.965927,6998.784577,0.064205,-0.941378,-1.000000,0.079221
14.900000,0.664986,-0.096955,0.004418,6.116536,1.081414,0.280725,481.630768,1.935944,0.000000,41.660192,44.965933,6998.767208,-0.402462,0.591893,0.131085,0.719176
15.000000,0.669472,-0.102462,0.008230,6.275343,1.088357,0.229400,481.670410,1.975586,0.000000,41.660196,44.965938,6998.767208,-1.000000,-0.171124,1.000000,0.208145
15.100000,0.680566,-0.110983,0.014175,6.463543,1.327275,0.121540,481.727234,2.032410,0.000000,41.660200,44.965944,6998.750045,0.116266,-0.639537,1.000000,1.000000
15.200000,0.699113,-0.121795,0.020363,6.644985,1.433757,-0.026930,481.789551,2.094727,0.000000,41.660204,44.965950,6998.750045,-1.000000,0.448603,-0.284246,0.083457
15.300000,0.722955,-0.133597,0.025682,6.803859,1.305568,-0.193136,481.841553,2.146729,0.000000,41.660208,44.965956,6998.733256,0.942290,1.000000,0.014321,1.000000
15.400000,0.755147,-0.146679,0.029807,6.949742,0.886034,-0.407524,481.856873,2.162048,0.000000,41.660212,44.965962,6998.733256,-0.184958,1.000000,-0.073300,0.501602
15.500000,0.794360,-0.159244,0.031737,7.088446,0.544593,-0.644389,481.816467,2.121643,0.000000,41.660216,44.965968,6998.714062,-0.044334,-0.113796,0.553115,-1.000000
15.600000,0.828678,-0.169673,0.037670,7.230327,0.708054,-0.786352,481.760468,2.065643,0.000000,41.660220,44.965975,6998.714062,-1.000000,-0.720847,0.122375,-1.000000
15.700000,0.852379,-0.179072,0.051199,7.346659,1.702686,-0.862689,481.746979,2.052155,0.000000,41.660225,44.965981,6998.691718,-1.000000,0.244971,-0.492483,0.765351
15.800000,0.874612,-0.190384,0.064341,7.621567,2.498451,-1.021585,481.832550,2.137726,0.000000,41.660229,44.965989,6998.691718,0.001802,0.437907,0.170672,1.000000
15.900000,0.901615,-0.202872,0.074554,7.806081,2.398971,-1.193406,481.929871,2.235046,0.000000,41.660233,44.965996,6998.667923,0.103544,1.000000,1.000000,-0.265793
16.000000,0.933815,-0.215937,0.082832,7.989326,2.097376,-1.372816,481.991150,2.296326,0.000000,41.660238,44.966004,6998.667923,-1.000000,-0.298365,0.103794,-1.000000
16.100000,0.964232,-0.228370,0.090832,8.208836,2.171237,-1.517726,482.033417,2.338593,0.000000,41.660242,44.966012,6998.642345,0.281379,-0.731859,-1.000000,0.392617
16.200000,0.989778,-0.239409,0.097244,8.413739,2.077999,-1.641338,482.063324,2.368500,0.000000,41.660247,44.966021,6998.642345,-0.197477,-1.000000,-0.305695,-0.300096
16.300000,1.018413,-0.249776,0.099825,8.609450,1.703581,-1.772805,482.055176,2.360352,0.000000,41.660251,44.966030,6998.614570,0.270564,0.308718,0.033469,0.176468
16.400000,1.049399,-0.257791,0.097471,8.800521,1.580226,-1.962759,482.005737,2.310913,0.000000,41.660256,44.966038,6998.614570,-0.855205,1.000000,-0.178857,1.000000
16.500000,1.087350,-0.262853,0.086470,8.968394,1.838647,-2.249650,481.959106,2.264282,0.000000,41.660260,44.966048,6998.586381,-1.000000,-1.000000,1.000000,0.401668
16.600000,1.136389,-0.265343,0.066731,9.159111,2.432974,-2.643008,481.953247,2.258453,0.000000,41.660265,44.966057,6998.586381,0.507620,-0.246388,0.314839,1.000000
16.700000,1.191376,-0.265361,0.041840,9.309593,2.293884,-3.052558,481.955353,2.260529,0.000000,41.660269,44.966068,6998.557196,-0.764517,-0.427245,-1.000000,-1.000000
16.800000,1.240557,-0.262475,0.018442,9.438445,2.319413,-3.395194,481.937866,2.243073,0.000000,41.660274,44.966078,6998.557196,-0.621955,0.236251,1.000000,-0.044107
16.900000,1.282208,-0.256929,0.000885,9.636723,2.929688,-3.713362,481.948730,2.253876,0.000000,41.660278,44.966089,6998.526395,-0.867268,0.945898,-0.318451,0.414196
17.000000,1.324070,-0.251350,-0.014388,9.841767,3.226193,-4.097603,482.006714,2.311920,0.000000,41.660283,44.966100,6998.526395,-0.016295,0.290597,0.131140,-0.433611
17.100000,1.361581,-0.246291,-0.026803,9.985856,2.962864,-4.424744,482.056335,2.361511,0.000000,41.660288,44.966112,7000.031296,0.132866,-0.792317,-0.565917,0.294533
17.200000,1.397091,-0.240146,-0.037434,10.112652,2.596370,-4.736272,482.063965,2.369171,0.000000,41.660292,44.966124,7000.031296,-1.000000,-0.283329,-1.000000,-0.604880
17.300000,1.424738,-0.233784,-0.040281,10.319493,3.088654,-4.974192,482.073914,2.379089,0.000000,41.660297,44.966137,7000.003231,-1.000000,1.000000,0.578671,-0.735223
17.400000,1.437827,-0.230975,-0.030500,10.624738,3.712845,-5.099002,482.149933,2.455109,0.000000,41.660301,44.966150,7000.003231,-0.283961,-0.291443,-0.867784,-0.676466
17.500000,1.440188,-0.231192,-0.013048,10.926034,3.632310,-5.141499,482.257629,2.562836,0.000000,41.660306,44.966163,6999.976078,-0.120137,-0.489095,0.743052,1.000000
17.600000,1.443636,-0.232634,0.001722,11.176884,3.121056,-5.225956,482.334717,2.639923,0.000000,41.660311,44.966177,6999.976078,1.000000,-0.555563,1.000000,1.000000
17.700000,1.457400,-0.233883,0.007548,11.328542,2.357717,-5.409629,482.344147,2.649292,0.000000,41.660315,44.966191,6999.950583,1.000000,-0.390577,1.000000,0.732746
17.800000,1.483308,-0.234266,0.004890,11.416926,1.435520,-5.680507,482.263519,2.568726,0.000000,41.660320,44.966205,6999.950583,-1.000000,-0.467737,0.735790,-0.475617
17.900000,1.513957,-0.232838,-0.002288,11.463024,1.054943,-5.975781,482.111572,2.416748,0.000000,41.660324,44.966219,6999.925959,0.313245,1.000000,0.163666,-0.016319
18.000000,1.538966,-0.228375,-0.005062,11.508963,1.336814,-6.218030,481.967346,2.272522,0.000000,41.660328,44.966233,6999.925959,-1.000000,-0.074975,-1.000000,1.000000
18.100000,1.568391,-0.220123,-0.005070,11.564018,2.045672,-6.589865,481.861572,2.166748,0.000000,41.660333,44.966247,6999.899179,-0.966057,0.965080,-0.126624,1.000000
18.200000,1.606391,-0.210727,-0.004910,11.637569,2.819448,-7.082278,481.861206,2.166382,0.000000,41.660337,44.966263,6999.899179,1.000000,0.338130,-1.000000,-1.000000
18.300000,1.642160,-0.202867,-0.005061,11.647774,2.505078,-7.457261,481.883545,2.188721,0.000000,41.660342,44.966278,6999.872730,-0.518131,-0.747984,-1.000000,0.002164
18.400000,1.669038,-0.194722,-0.001876,11.685887,1.912161,-7.685390,481.862061,2.167236,0.000000,41.660346,44.966294,6999.872730,-0.343601,-0.014338,1.000000,-0.102711
18.500000,1.691256,-0.186571,0.002275,11.745379,1.601019,-7.915918,481.814178,2.119354,0.000000,41.660350,44.966310,6999.847774,0.237585,-1.000000,-0.016541,0.596556
18.600000,1.711821,-0.178686,0.005338,11.787389,1.453670,-8.114317,481.751251,2.056427,0.000000,41.660354,44.966326,6999.847774,-1.000000,1.000000,1.000000,-1.000000
18.700000,1.725761,-0.169971,0.012701,11.886839,1.351858,-8.167376,481.693634,1.998840,0.000000,41.660358,44.966342,6999.823689,0.698245,0.280451,0.943709,-1.000000
18.800000,1.724606,-0.159894,0.008468,11.834427,1.485522,-7.862872,481.645020,1.950195,0.000000,41.660362,44.966359,6999.823689,-1.000000,-0.058637,-1.000000,0.674036
18.900000,1.721128,-0.148529,-0.016386,11.613843,1.808297,-7.514890,481.625885,1.931061,0.000000,41.660365,44.966375,6999.799811,0.854539,0.058469,-0.698627,0.232601
19.000000,1.726473,-0.135056,-0.051530,11.212215,2.101757,-7.226471,481.642731,1.947906,0.000000,41.660368,44.966390,6999.799811,-0.857059,-0.676645,-0.000491,-0.928579
19.100000,1.728697,-0.121818,-0.068460,11.184899,1.793771,-7.079615,481.650482,1.955658,0.000000,41.660372,44.966406,6999.776057,1.000000,1.000000,-1.000000,0.201642
19.200000,1.722682,-0.110033,-0.071444,11.193767,1.482429,-6.894095,481.634338,1.939514,0.000000,41.660375,44.966421,6999.776057,-1.000000,-0.849071,0.632308,0.189169
19.300000,1.720992,-0.097491,-0.065989,11.161044,1.538754,-6.865293,481.614594,1.919769,0.000000,41.660378,44.966436,6999.752386,-1.000000,-0.238435,1.000000,0.339228
19.400000,1.734505,-0.086541,-0.057840,11.267984,1.757175,-7.118871,481.638794,1.943970,0.000000,41.660381,44.966451,6999.752386,0.255469,-0.804734,1.000000,-1.000000
19.500000,1.740743,-0.079433,-0.045416,11.356598,1.351223,-7.170451,481.666687,1.971863,0.000000,41.660384,44.966467,6999.730167,-0.045750,-1.000000,-0.179184,0.027802
19.600000,1.735093,-0.073953,-0.029052,11.497513,0.609986,-7.076711,481.651062,1.956238,0.000000,41.660387,44.966482,6999.730167,0.809251,0.167759,-0.834767,1.000000
19.700000,1.728327,-0.069598,-0.015114,11.638847,0.002246,-7.019970,481.578735,1.883911,0.000000,41.660390,44.966498,6999.709107,-0.569086,-0.601339,-1.000000,0.308940
19.800000,1.727442,-0.066399,-0.005957,11.734919,-0.290703,-7.022104,481.478302,1.783478,0.000000,41.660393,44.966513,6999.709107,0.415893,0.169883,0.307965,0.833829
19.900000,1.736019,-0.060388,-0.019830,10.994545,0.363863,-6.710024,481.404175,1.709351,0.000000,41.660396,44.966529,6999.688546,0.095793,0.352582,-0.954687,0.509337
20.000000,1.754738,-0.050003,-0.042760,10.065475,0.855169,-6.413318,481.388092,1.693237,0.000000,41.660398,44.966543,6999.688546,0.765773,1.000000,0.592460,-0.250214
20.100000,1.774201,-0.036251,-0.061132,9.322911,0.863834,-6.144218,481.408325,1.713501,0.000000,41.660401,44.966556,6999.668357,1.000000,-1.000000,0.760453,-0.589496
20.200000,1.784617,-0.020170,-0.066182,8.869995,0.379357,-5.924324,481.403412,1.708588,0.000000,41.660403,44.966569,6999.668357,0.123785,-0.386711,-1.000000,0.103442
20.300000,1.786880,-0.004207,-0.052784,8.638024,-0.056295,-5.765189,481.369385,1.674561,0.000000,41.660405,44.966581,6999.647920,-0.151683,-0.805597,0.895923,-0.386248
20.400000,1.781405,0.007126,-0.030152,8.579946,-0.128424,-5.592358,481.336517,1.641693,0.000000,41.660407,44.966593,6999.647920,-0.679790,-0.465675,-0.340821,-0.638271
20.500000,1.764573,0.014778,-0.005131,8.730298,-0.280862,-5.405745,481.320404,1.625580,0.000000,41.660409,44.966605,6999.627192,0.507113,0.957784,0.684067,0.151826
20.600000,1.741840,0.019269,0.010965,8.746924,-0.502236,-5.086340,481.295227,1.600403,0.000000,41.660411,44.966616,6999.627192,0.520668,-1.000000,0.127460,0.602391
20.700000,1.721326,0.017539,-0.012883,8.407996,-0.199276,-4.647685,481.269226,1.574402,0.000000,41.660413,44.966628,6999.608081,-0.079794,-0.692772,1.000000,-1.000000
20.800000,1.696322,0.011773,-0.024453,8.023961,0.057839,-4.115793,481.267914,1.573090,0.000000,41.660415,44.966639,6999.608081,1.000000,0.218631,0.377009,1.000000
20.900000,1.674693,0.010891,-0.021973,7.594172,-0.059283,-3.671998,481.269562,1.574738,0.000000,41.660417,44.966649,6999.590131,0.631370,-0.062617,0.106905,0.177598
21.000000,1.661427,0.012843,-0.024171,7.053037,-0.026078,-3.295031,481.261963,1.567139,0.000000,41.660418,44.966658,6999.590131,-0.291082,-1.000000,0.406043,0.488058
21.100000,1.650570,0.013076,-0.018958,6.680839,0.177201,-3.023429,481.271759,1.576935,0.000000,41.660419,44.966667,6999.571933,-1.000000,1.000000,0.636893,0.243836
21.200000,1.643598,0.011191,-0.010881,6.755060,0.643947,-2.993072,481.311951,1.617126,0.000000,41.660421,44.966675,6999.571933,-0.869930,-0.826302,-1.000000,-0.303821
21.300000,1.636943,0.005536,-0.002861,6.874503,1.106973,-2.972175,481.408325,1.713501,0.000000,41.660422,44.966684,6999.553941,0.624795,-0.318727,1.000000,0.145015
21.400000,1.627657,-0.002915,0.004153,6.942508,0.761815,-2.879474,481.509430,1.814606,0.000000,41.660423,44.966693,6999.553941,-0.154041,-1.000000,1.000000,-0.861880
21.500000,1.611797,-0.012371,0.010991,7.039837,0.471951,-2.703570,481.562469,1.867645,0.000000,41.660425,44.966702,6999.536033,-0.809979,-0.876038,-0.091549,-0.227601
21.600000,1.590838,-0.022739,0.019089,7.187996,0.681569,-2.523030,481.609589,1.914764,0.000000,41.660426,44.966710,6999.536033,-0.026874,-0.493182,-0.293658,0.917022
21.700000,1.572085,-0.035672,0.026359,7.339310,0.863675,-2.402075,481.672974,1.978149,0.000000,41.660427,44.966719,6999.517585,-0.784973,-0.221049,0.296421,-0.334178
21.800000,1.561138,-0.050348,0.029748,7.478625,1.027523,-2.331040,481.743866,2.049042,0.000000,41.660428,44.966729,6999.517585,-0.018471,-1.000000,0.019855,1.000000
21.900000,1.557292,-0.065597,0.030054,7.617372,1.252534,-2.289531,481.816803,2.122009,0.000000,41.660429,44.966738,6999.497894,-1.000000,1.000000,-1.000000,-1.000000
22.000000,1.556420,-0.083324,0.029445,7.758262,1.379617,-2.234145,481.903442,2.208618,0.000000,41.660431,44.966747,6999.497894,0.775292,-0.140158,0.886607,-0.882071
22.100000,1.552232,-0.100899,0.030533,7.871902,1.002649,-2.118846,481.960632,2.265808,0.000000,41.660432,44.966757,6999.475757,0.703439,-1.000000,1.000000,0.460113
22.200000,1.549325,-0.115994,0.031264,7.979933,0.489712,-2.044751,481.953094,2.258270,0.000000,41.660433,44.966767,6999.475757,-0.123869,-0.332682,0.367414,-0.288459
22.300000,1.552218,-0.130224,0.030523,8.103122,0.106974,-2.028869,481.888031,2.193207,0.000000,41.660433,44.966776,6999.450843,0.780810,-1.000000,0.092653,0.484349
22.400000,1.562147,-0.142278,0.028649,8.221608,-0.248703,-2.080378,481.773468,2.078644,0.000000,41.660434,44.966786,6999.450843,-0.014099,0.782577,-0.533266,0.218933
22.500000,1.578350,-0.151170,0.025123,8.219590,-0.226713,-2.156540,481.631134,1.936340,0.000000,41.660435,44.966796,6999.425016,-1.000000,-1.000000,0.291636,-1.000000
22.600000,1.599434,-0.157487,-0.005633,6.912039,1.361685,-2.019034,481.572845,1.878021,0.000000,41.660436,44.966805,6999.425016,1.000000,-1.000000,-0.286408,-1.000000
22.700000,1.606583,-0.164329,-0.012145,6.330529,1.533960,-1.798913,481.623627,1.928802,0.000000,41.660437,44.966814,6999.397863,0.423507,0.178109,1.000000,0.246356
22.800000,1.606878,-0.169867,-0.003558,6.112448,1.204717,-1.675582,481.649109,1.954285,0.000000,41.660437,44.966821,6999.397863,-0.689191,-1.000000,-0.496488,-0.038966
22.900000,1.609580,-0.174106,-0.000280,5.980849,1.296080,-1.589229,481.665985,1.971191,0.000000,41.660438,44.966829,6999.369383,-0.851547,0.196874,1.000000,-1.000000
23.000000,1.604771,-0.178250,0.007994,6.265199,1.951597,-1.509855,481.713806,2.018982,0.000000,41.660438,44.966837,6999.369383,-0.894708,0.224720,0.316273,-1.000000
23.100000,1.587148,-0.184417,0.025196,6.575873,2.650055,-1.377978,481.825928,2.131134,0.000000,41.660438,44.966845,6999.343225,-0.534679,-0.947421,-0.793002,0.215491
23.200000,1.564170,-0.193081,0.046503,6.875917,3.050649,-1.243504,481.992188,2.297363,0.000000,41.660438,44.966853,6999.343225,-0.451797,-0.788457,-0.814506,1.000000
23.300000,1.546819,-0.203356,0.064823,7.155525,3.353756,-1.163875,482.176117,2.481293,0.000000,41.660438,44.966862,6999.319181,-0.818910,-0.490371,1.000000,-0.113550
23.400000,1.539208,-0.214611,0.077802,7.399055,3.520201,-1.125277,482.365143,2.670319,0.000000,41.660438,44.966872,6999.319181,0.494840,0.606501,1.000000,1.000000
23.500000,1.540648,-0.227289,0.086310,7.620261,3.209456,-1.116046,482.541931,2.847076,0.000000,41.660438,44.966881,6999.296713,-0.546264,-1.000000,-0.556838,0.005047
23.600000,1.552533,-0.240086,0.088810,7.843804,2.833743,-1.163442,482.667236,2.972412,0.000000,41.660438,44.966891,6999.296713,0.481534,0.914926,-1.000000,1.000000
23.700000,1.572024,-0.251925,0.086425,8.054075,2.412327,-1.240617,482.734863,3.040039,0.000000,41.660438,44.966901,6999.274742,-0.187234,-0.215385,0.103931,-1.000000
23.800000,1.596432,-0.263188,0.081491,8.275408,1.897382,-1.336262,482.745850,3.051025,0.000000,41.660438,44.966911,6999.274742,1.000000,-0.516479,0.169172,1.000000
23.900000,1.623993,-0.272344,0.073797,8.495111,1.322389,-1.469787,482.687408,2.992584,0.000000,41.660438,44.966922,6999.250781,-0.071237,0.489886,-0.123720,1.000000
24.000000,1.656255,-0.278742,0.061585,8.692061,0.792762,-1.679893,482.569244,2.874420,0.000000,41.660438,44.966932,6999.250781,1.000000,0.584732,0.063335,-0.296540
24.100000,1.694389,-0.282164,0.045085,8.880029,0.462116,-1.923377,482.387054,2.692230,0.000000,41.660437,44.966942,6999.224291,-1.000000,-1.000000,-1.000000,-1.000000
24.200000,1.724611,-0.280047,0.032980,9.047108,0.681064,-2.087672,482.188110,2.493286,0.000000,41.660437,44.966953,6999.224291,-0.338342,0.271225,-0.220677,0.214176
24.300000,1.747202,-0.271765,0.027874,9.223798,1.321178,-2.260679,482.050079,2.355255,0.000000,41.660436,44.966964,6999.197179,-0.591315,0.333012,-0.661366,0.699605
24.400000,1.774829,-0.258873,0.025626,9.441908,1.750740,-2.511947,481.959930,2.265106,0.000000,41.660435,44.966976,6999.197179,-0.315666,-0.533821,0.356834,-0.632174
24.500000,1.801659,-0.243972,0.027609,9.668745,1.700123,-2.714393,481.900238,2.205414,0.000000,41.660434,44.966988,6999.169736,0.113759,-1.000000,-1.000000,0.038097
24.600000,1.820260,-0.229116,0.033368,9.870330,1.273654,-2.824158,481.830231,2.135406,0.000000,41.660433,44.967000,6999.169736,0.554103,-0.123535,1.000000,-0.762357
24.700000,1.834898,-0.211728,0.021198,9.614695,0.909947,-2.777038,481.727112,2.032288,0.000000,41.660432,44.967012,6999.143205,0.980683,0.617696,-1.000000,-0.181562
24.800000,1.847674,-0.190298,-0.017626,8.505336,1.396536,-2.573261,481.652130,1.957306,0.000000,41.660431,44.967023,6999.143205,-1.000000,0.761323,-1.000000,1.000000
24.900000,1.858864,-0.168148,-0.020653,8.071211,1.577379,-2.549279,481.652863,1.958038,0.000000,41.660430,44.967033,6999.119451,-0.044115,0.119155,-0.113637,0.366875
25.000000,1.876013,-0.146850,-0.009878,8.254624,1.442249,-2.738739,481.676239,1.981415,0.000000,41.660429,44.967043,6999.119451,0.980255,-0.394870,-1.000000,-0.412848
25.100000,1.893791,-0.128490,0.001090,8.390082,0.787350,-2.885167,481.670685,1.975861,0.000000,41.660428,44.967054,6999.096858,-0.842457,1.000000,-0.770996,1.000000
25.200000,1.908751,-0.113118,0.011739,8.496853,0.442817,-2.986617,481.629425,1.934601,0.000000,41.660427,44.967064,6999.096858,0.536283,-1.000000,-0.720029,-1.000000
25.300000,1.920630,-0.098658,0.024259,8.608051,0.251123,-3.040529,481.578705,1.883881,0.000000,41.660426,44.967075,6999.075011,-0.725919,0.123520,0.062288,0.393456
25.400000,1.926569,-0.084542,0.024755,8.538616,0.157616,-2.972434,481.529083,1.834259,0.000000,41.660425,44.967086,6999.075011,1.000000,-0.323170,0.266502,-0.920234
25.500000,1.930028,-0.069829,0.000509,8.444745,-0.018171,-2.909701,481.476227,1.781403,0.000000,41.660424,44.967096,6999.055237,-0.588988,1.000000,0.037898,0.730578
25.600000,1.933003,-0.051512,-0.017168,8.229836,0.052927,-2.832657,481.422729,1.727905,0.000000,41.660422,44.967106,6999.055237,-1.000000,0.056101,-0.383624,-0.866311
25.700000,1.935538,-0.033804,-0.019284,8.288912,0.629407,-2.861853,481.413086,1.718292,0.000000,41.660421,44.967117,6999.036168,-0.665074,-0.608865,-0.014266,1.000000
25.800000,1.939697,-0.022112,-0.018665,8.444147,1.067017,-2.961736,481.473572,1.778778,0.000000,41.660420,44.967127,6999.036168,-0.519190,0.392706,-1.000000,0.349058
25.900000,1.950106,-0.014320,-0.020102,8.528427,0.975758,-3.094103,481.561859,1.867035,0.000000,41.660418,44.967138,6999.017016,0.274503,0.107027,-0.896966,-0.777046
26.000000,1.961434,-0.009793,-0.021591,8.557303,0.484581,-3.183420,481.622253,1.927429,0.000000,41.660417,44.967148,6999.017016,0.413519,0.023055,-1.000000,1.000000
26.100000,1.974730,-0.007511,-0.023894,8.562990,0.083936,-3.324659,481.630280,1.935425,0.000000,41.660415,44.967159,6998.998319,-0.870743,-1.000000,1.000000,0.030490
26.200000,1.995963,-0.007460,-0.027402,8.579668,0.264894,-3.548240,481.626923,1.932098,0.000000,41.660414,44.967170,6998.998319,-1.000000,-0.887117,0.568958,-0.532604
26.300000,2.020160,-0.010693,-0.029611,8.586752,0.546860,-3.791345,481.656921,1.962128,0.000000,41.660413,44.967181,6998.978918,0.467733,-0.289697,-0.074949,0.957101
26.400000,2.047375,-0.015614,-0.033471,8.537912,0.373966,-4.052401,481.682343,1.987518,0.000000,41.660411,44.967192,6998.978918,1.000000,-0.319041,-1.000000,-0.631349
26.500000,2.078431,-0.021582,-0.038659,8.450658,-0.167707,-4.290895,481.662048,1.967224,0.000000,41.660410,44.967203,6998.956533,-0.075302,0.439553,-0.684844,-0.920304
26.600000,2.100494,-0.028190,-0.039715,8.404348,-0.706147,-4.402068,481.577545,1.882721,0.000000,41.660408,44.967214,6998.956533,1.000000,0.571536,-0.121566,-0.099291
26.700000,2.115574,-0.034926,-0.035549,8.397474,-1.013511,-4.498949,481.450653,1.755798,0.000000,41.660407,44.967225,6998.932696,-0.567536,0.794216,0.231363,0.166235
26.800000,2.134555,-0.037934,-0.015467,7.648090,-0.066817,-4.203558,481.336487,1.641663,0.000000,41.660405,44.967235,6998.932696,0.254425,-0.107457,1.000000,-1.000000
26.900000,2.154382,-0.030286,-0.005235,7.041099,0.566855,-3.987210,481.353424,1.658569,0.000000,41.660403,44.967245,6998.907160,0.143570,1.000000,0.781891,0.887930
27.000000,2.173004,-0.021533,0.001556,7.019627,0.185310,-4.087321,481.367401,1.672607,0.000000,41.660402,44.967254,6998.907160,-1.000000,-0.303919,0.268556,-1.000000
27.100000,2.190710,-0.013691,0.008998,7.002259,0.248430,-4.135123,481.379456,1.684662,0.000000,41.660400,44.967264,6998.879551,0.471838,0.321648,0.942576,-1.000000
27.200000,2.194602,-0.007161,0.019842,7.067744,0.206907,-4.060996,481.401337,1.706543,0.000000,41.660399,44.967273,6998.879551,-1.000000,-0.754109,0.392786,0.118853
27.300000,2.191082,-0.002703,0.031200,7.147609,0.054064,-4.003226,481.421906,1.727051,0.000000,41.660397,44.967283,6998.853310,0.756081,-0.242853,-0.113171,0.329889
27.400000,2.189534,0.000249,0.040001,7.215547,-0.125172,-3.956427,481.431488,1.736633,0.000000,41.660395,44.967292,6998.853310,-1.000000,-1.000000,-0.547334,-0.490654
27.500000,2.187630,0.001339,0.046318,7.303427,0.088682,-3.906715,481.441315,1.746490,0.000000,41.660393,44.967302,6998.828893,-0.276279,0.880311,1.000000,0.446014
27.600000,2.186411,-0.000042,0.050193,7.392347,0.323485,-3.877744,481.485474,1.790649,0.000000,41.660391,44.967311,6998.828893,0.299327,-1.000000,-0.593669,1.000000
27.700000,2.192390,-0.003840,0.049137,7.443358,0.263716,-3.933860,481.531372,1.836548,0.000000,41.660389,44.967321,6998.805678,-0.919105,0.387046,-0.762771,1.000000
27.800000,2.209903,-0.010363,0.041394,7.477590,0.525962,-4.076473,481.578766,1.883911,0.000000,41.660387,44.967330,6998.805678,-1.000000,-0.031603,0.497184,-0.488269
27.900000,2.229986,-0.019458,0.032152,7.517244,1.046600,-4.186317,481.662140,1.967346,0.000000,41.660385,44.967340,6998.784453,-0.239358,-0.076308,-1.000000,-1.000000
28.000000,2.243629,-0.031185,0.025030,7.564028,1.267443,-4.186304,481.777771,2.082947,0.000000,41.660383,44.967350,6998.784453,-0.022554,0.639178,-0.166097,-0.179503
28.100000,2.249721,-0.044003,0.020769,7.635189,1.209387,-4.167173,481.882874,2.188049,0.000000,41.660380,44.967360,6998.763933,-0.582028,-0.318969,-0.488429,-0.001727
28.200000,2.256955,-0.057315,0.017357,7.706739,1.155185,-4.200700,481.967773,2.272949,0.000000,41.660378,44.967369,6998.763933,0.215449,1.000000,0.907806,1.000000
