t,yaw,pitch,roll,speed.x,speed.y,speed.z,altBar,altRad,egt,myloclat,myloclon,weightlb,collective,bank,pitch,rudder
t,yaw,pitch,roll,speed.x,speed.y,speed.z,altBar,altRad,egt,myloclat,myloclon,weightlb,collective,bank,pitch,rudder
t,yaw,pitch,roll,speed.x,speed.y,speed.z,altBar,altRad,egt,myloclat,myloclon,weightlb,collective,bank,pitch,rudder
8.000000,5.374678,0.042815,0.007604,0.000028,0.000063,-0.000004,481.262848,1.568024,0.460933,41.659724,44.965707,7000.039960,0.072057,-1.000000,-0.679224,-1.000000
16.900000,5.374447,0.042756,0.007691,0.003147,0.030030,0.009263,481.263550,1.568726,0.460392,41.659724,44.965707,6999.411833,0.026476,-0.717644,-0.198751,0.038208
17.000000,5.371227,0.041552,0.008617,0.040141,0.092146,-0.003757,481.270721,1.575897,0.460506,41.659724,44.965707,6999.411833,0.354532,-1.000000,0.174569,-0.612147
17.100000,5.366695,0.039040,0.005177,0.027978,0.104583,-0.061749,481.280334,1.585510,0.461401,41.659724,44.965707,7000.932280,-0.119888,-0.265821,0.088134,0.201728
17.200000,5.361359,0.037878,0.001175,0.052220,0.107702,-0.028502,481.287872,1.593048,0.463709,41.659724,44.965707,7000.932280,-1.000000,0.779260,-1.000000,-1.000000
17.300000,5.351008,0.035232,0.002663,0.114460,0.438019,-0.007088,481.318970,1.624146,0.467685,41.659724,44.965707,7000.918516,1.000000,0.354150,-0.055826,0.301489
17.400000,5.337518,0.031098,0.007056,0.126505,0.098411,0.010333,481.349030,1.654205,0.474361,41.659725,44.965707,7000.918516,0.198788,1.000000,1.000000,0.893961
17.500000,5.326549,0.026090,0.011164,0.139038,-0.298975,0.004825,481.333557,1.638733,0.485573,41.659725,44.965707,7000.904049,-1.000000,-0.459493,-1.000000,-0.356947
17.600000,5.320909,0.019885,0.014301,0.159074,0.010689,0.019113,481.316254,1.621460,0.498924,41.659725,44.965706,7000.904049,0.451449,-0.110119,0.154536,-0.411860
17.700000,5.314789,0.013608,0.012194,0.188674,0.020903,0.064043,481.320557,1.625732,0.512715,41.659725,44.965706,7000.888793,-0.598884,-1.000000,-0.347168,-0.369420
17.800000,5.306461,0.006816,0.007720,0.199677,0.188472,0.075225,481.325806,1.630981,0.526414,41.659725,44.965706,7000.888793,-0.647855,-0.604518,-0.886516,0.701935
17.900000,5.302537,-0.001099,0.004022,0.276339,0.370221,0.073714,481.360687,1.665863,0.539947,41.659725,44.965706,7000.871133,0.331384,-0.598077,0.900262,-1.000000
18.000000,5.300854,-0.009348,0.003892,0.341785,0.358247,0.101852,481.393738,1.698944,0.551698,41.659725,44.965706,7000.871133,-0.905124,-1.000000,0.638706,-1.000000
18.100000,5.294315,-0.019001,0.008749,0.440961,0.652258,0.126560,481.441284,1.746429,0.563461,41.659726,44.965706,7000.850074,-0.288352,-0.203433,0.645641,0.696566
18.200000,5.289822,-0.030167,0.014801,0.544181,0.791120,0.120930,481.519836,1.825012,0.573774,41.659726,44.965705,7000.850074,0.708681,0.661360,0.355011,-1.000000
18.300000,5.287865,-0.041000,0.021043,0.606963,0.328840,0.177845,481.574005,1.879181,0.583052,41.659727,44.965705,7000.827357,0.198047,-1.000000,-1.000000,-0.197618
18.400000,5.282849,-0.051701,0.029952,0.678649,-0.193964,0.261236,481.573090,1.878265,0.591908,41.659727,44.965704,7000.827357,-0.960640,-0.829929,1.000000,-0.660138
18.500000,5.277635,-0.061850,0.040833,0.798822,0.078123,0.306920,481.554474,1.859650,0.599175,41.659728,44.965704,7000.802650,-0.124323,-0.168147,0.062914,0.550849
18.600000,5.277955,-0.071947,0.051270,0.948723,0.566890,0.303945,481.579895,1.885101,0.600037,41.659728,44.965703,7000.802650,-1.000000,0.426546,-1.000000,0.753972
18.700000,5.290337,-0.084596,0.060066,1.131146,0.860211,0.290705,481.644867,1.950043,0.594220,41.659729,44.965703,7000.775621,0.052431,1.000000,-0.783623,0.104552
18.800000,5.314462,-0.099514,0.066679,1.321510,1.031006,0.276932,481.727936,2.033112,0.587871,41.659730,44.965702,7000.775621,-1.000000,-0.995532,-0.118788,0.920190
18.900000,5.346348,-0.115184,0.069468,1.506225,1.070847,0.259892,481.813049,2.118225,0.580624,41.659732,44.965701,7000.748095,0.294519,0.136583,-1.000000,-0.284563
19.000000,5.385586,-0.132485,0.067552,1.694241,0.899541,0.261827,481.894958,2.200134,0.570810,41.659733,44.965700,7000.748095,0.221185,-1.000000,0.444444,-0.626861
19.100000,5.423728,-0.148182,0.062504,1.853473,0.256126,0.296040,481.927826,2.233002,0.559229,41.659734,44.965698,7000.720113,1.000000,-1.000000,0.457440,0.735802
19.200000,5.460612,-0.160545,0.053779,2.012444,-0.421556,0.295247,481.888367,2.193542,0.546103,41.659736,44.965697,7000.720113,0.103472,1.000000,-0.365575,-0.123530
19.300000,5.499867,-0.170569,0.041040,2.191104,-0.903938,0.293770,481.781311,2.086487,0.533038,41.659737,44.965696,7000.691467,0.471698,0.062478,-0.146795,-1.000000
19.400000,5.530275,-0.175441,0.025756,2.025884,-0.658262,0.131761,481.647797,1.952972,0.520216,41.659739,44.965695,7000.691467,-1.000000,-1.000000,-0.730530,0.908134
19.500000,5.553318,-0.170724,0.014569,1.372652,0.523319,-0.141757,481.621765,1.926941,0.508673,41.659740,44.965694,7000.664065,0.343402,0.209115,-0.873319,0.117348
19.600000,5.580387,-0.162262,0.004097,1.413078,0.606700,-0.219711,481.669189,1.974365,0.496036,41.659741,44.965693,7000.664065,0.920261,-1.000000,1.000000,-0.902898
19.700000,5.602557,-0.153026,-0.005770,1.585691,0.014176,-0.179655,481.676453,1.981628,0.485349,41.659742,44.965691,7000.638198,-0.269030,-1.000000,-0.977723,-0.142659
19.800000,5.612740,-0.143319,-0.008801,1.690078,-0.315414,-0.150623,481.633484,1.938629,0.474635,41.659743,44.965690,7000.638198,0.150312,1.000000,-0.567671,1.000000
19.900000,5.621988,-0.129978,0.001394,1.503631,-0.135229,-0.162452,481.586426,1.891602,0.465226,41.659744,44.965689,7000.614112,-0.091809,1.000000,0.077935,1.000000
20.000000,5.640394,-0.112384,0.003253,1.394047,0.035689,-0.242493,481.564484,1.869659,0.456750,41.659745,44.965688,7000.614112,-0.334645,0.996129,0.267523,0.211384
20.100000,5.662997,-0.095868,0.002586,1.554887,0.356269,-0.307017,481.565186,1.870361,0.450883,41.659746,44.965687,7000.592970,-0.792291,-0.320953,-1.000000,0.802016
20.200000,5.689914,-0.080771,0.004202,1.727363,0.591047,-0.371467,481.604340,1.909515,0.448291,41.659747,44.965686,7000.592970,0.270055,-0.243979,-0.846718,-1.000000
20.300000,5.713387,-0.068032,0.008361,1.859293,0.446081,-0.379960,481.647186,1.952362,0.449057,41.659749,44.965685,7000.573528,0.243279,-0.106786,0.975206,0.552838
20.400000,5.730110,-0.057414,0.013913,1.939239,-0.060635,-0.372536,481.654877,1.960052,0.454160,41.659750,44.965683,7000.573528,0.365612,1.000000,-0.025852,-0.430796
20.500000,5.747080,-0.047068,0.018730,1.995866,-0.729449,-0.372345,481.606750,1.911957,0.463154,41.659752,44.965682,7000.554831,1.000000,0.717843,1.000000,0.865338
20.600000,5.765724,-0.037426,0.021012,2.033051,-1.329536,-0.382212,481.489044,1.794220,0.474251,41.659753,44.965681,7000.554831,-0.480882,1.000000,-1.000000,-0.084614
20.700000,5.786434,-0.027788,0.014486,1.798355,-1.137467,-0.448394,481.353790,1.658966,0.483203,41.659755,44.965679,7000.537047,-1.000000,-0.653994,0.091995,-0.757148
20.800000,5.806974,-0.010872,-0.002190,1.153936,0.332869,-0.520050,481.319733,1.624908,0.491217,41.659756,44.965678,7000.537047,-1.000000,-0.721354,-0.499009,0.599362
20.900000,5.826632,0.005083,-0.005645,1.250057,0.624384,-0.564700,481.377350,1.682526,0.497699,41.659756,44.965677,7000.517688,1.000000,0.202209,-0.492011,1.000000
21.000000,5.852107,0.017632,-0.009298,1.275398,0.292073,-0.638640,481.423523,1.728699,0.504230,41.659757,44.965676,7000.517688,-0.942837,1.000000,1.000000,0.941207
21.100000,5.889622,0.029126,-0.014970,1.286753,0.115794,-0.739944,481.442719,1.747894,0.512396,41.659758,44.965675,7000.496173,0.602541,-1.000000,0.682928,1.000000
21.200000,5.936767,0.038577,-0.021273,1.271100,-0.113188,-0.854071,481.450714,1.755890,0.520714,41.659759,44.965673,7000.496173,0.209148,-0.081202,0.699959,1.000000
21.300000,5.987468,0.046225,-0.028085,1.231446,-0.361635,-0.947650,481.425385,1.730560,0.527128,41.659760,44.965672,7000.474616,-0.607541,0.336048,-0.525264,-0.383064
21.400000,6.042195,0.052366,-0.031832,1.192626,-0.429765,-1.027306,481.393341,1.698517,0.530114,41.659761,44.965671,7000.474616,1.000000,1.000000,1.000000,1.000000
21.500000,6.097068,0.056162,-0.032910,1.058877,-0.699169,-1.067087,481.334778,1.639954,0.527217,41.659762,44.965669,7000.451982,-0.334098,-0.065786,-0.643049,1.000000
21.600000,6.149167,0.051232,-0.020174,0.718165,-0.349581,-0.858615,481.278107,1.583282,0.520119,41.659763,44.965668,7000.451982,0.170615,-0.071819,1.000000,0.270233
21.700000,6.196875,0.037662,-0.001463,0.460102,0.100534,-0.569761,481.278503,1.583679,0.510995,41.659764,44.965668,7000.427399,0.148958,1.000000,0.709951,0.499544
21.800000,6.236585,0.028125,0.003395,0.459929,0.303336,-0.521985,481.292877,1.598053,0.500756,41.659764,44.965667,7000.427399,-1.000000,-1.000000,-0.658009,-0.745868
21.900000,6.264568,0.020541,0.000780,0.524956,0.818887,-0.516242,481.342224,1.647400,0.489850,41.659764,44.965666,7000.403604,-1.000000,-0.426527,0.475438,0.775829
22.000000,0.008679,0.008631,0.000830,0.646005,1.881513,-0.553601,481.481995,1.787170,0.480161,41.659765,44.965666,7000.403604,-0.897944,0.392752,-0.760875,1.000000
22.100000,0.040604,-0.007080,-0.000113,0.718478,2.333989,-0.631233,481.707520,2.012695,0.475004,41.659766,44.965665,7000.380845,0.231356,0.101780,-0.583046,1.000000
22.200000,0.078355,-0.023265,-0.006057,0.748008,2.262991,-0.681072,481.926971,2.232147,0.478326,41.659766,44.965665,7000.380845,-1.000000,1.000000,0.360709,0.029033
22.300000,0.122861,-0.040864,-0.016750,0.781297,2.107105,-0.720495,482.149231,2.454407,0.487715,41.659767,44.965664,7000.359122,0.898266,-0.423784,-0.071772,-0.089288
22.400000,0.168875,-0.057696,-0.030449,0.802181,1.572677,-0.738127,482.333588,2.638763,0.501448,41.659768,44.965664,7000.359122,-0.178139,-1.000000,1.000000,0.410158
22.500000,0.214548,-0.071825,-0.045888,0.834070,0.950238,-0.787339,482.444702,2.749878,0.514884,41.659769,44.965663,7000.339058,-1.000000,0.512761,-0.511065,0.733538
22.600000,0.267118,-0.085055,-0.063641,0.910725,0.700103,-0.877343,482.513824,2.819000,0.528891,41.659770,44.965662,7000.339058,0.586355,-0.474065,0.064146,-1.000000
22.700000,0.318495,-0.097013,-0.078157,0.997474,0.474950,-0.920415,482.560822,2.865997,0.541885,41.659772,44.965662,7000.317087,1.000000,0.240395,-0.939651,-0.860147
22.800000,0.355701,-0.107405,-0.084163,1.075405,-0.129082,-0.920013,482.562012,2.867188,0.553492,41.659773,44.965661,7000.317087,0.537199,-0.162004,-0.125856,0.816602
22.900000,0.388892,-0.116940,-0.083970,1.173723,-0.797588,-0.968609,482.490540,2.795715,0.563002,41.659774,44.965661,7000.292338,0.211914,0.048344,0.061731,-1.000000
23.000000,0.419639,-0.124696,-0.076187,1.287920,-1.130482,-0.979313,482.364746,2.669922,0.564516,41.659775,44.965661,7000.292338,-0.996655,-1.000000,1.000000,-0.923373
23.100000,0.439380,-0.130734,-0.057004,1.408500,-0.942047,-0.946685,482.242828,2.548004,0.558820,41.659776,44.965661,7000.266636,0.652140,0.136326,1.000000,0.377311
23.200000,0.455233,-0.135370,-0.031031,1.543621,-0.723144,-0.937135,482.134918,2.440063,0.549126,41.659778,44.965661,7000.266636,-1.000000,0.259831,-0.127578,-0.534589
23.300000,0.467309,-0.138170,-0.005208,1.684183,-0.730006,-0.889830,482.040344,2.345551,0.537384,41.659779,44.965661,7000.239649,1.000000,0.122969,0.148792,-0.180395
23.400000,0.470579,-0.139109,0.018180,1.818973,-0.954468,-0.791831,481.940613,2.245789,0.525380,41.659781,44.965661,7000.239649,0.177697,0.765870,-1.000000,-0.973385
23.500000,0.459646,-0.137873,0.041987,1.961992,-1.517057,-0.595841,481.791260,2.096436,0.513212,41.659783,44.965662,7000.212413,1.000000,1.000000,1.000000,-1.000000
23.600000,0.429417,-0.132642,0.056265,1.779300,-1.779757,-0.259365,481.590240,1.895416,0.501564,41.659784,44.965662,7000.212413,1.000000,-1.000000,-0.870901,-1.000000
23.700000,0.391240,-0.118403,0.019698,0.634705,-0.935352,-0.088492,481.428497,1.733643,0.490190,41.659785,44.965663,7000.187706,-0.015707,0.280334,0.367358,-1.000000
23.800000,0.346340,-0.084021,-0.011685,-0.220777,0.086348,0.349383,481.403656,1.708832,0.479749,41.659785,44.965663,7000.187706,0.877843,-1.000000,1.000000,0.073797
23.900000,0.307590,-0.039419,-0.020270,-0.234580,-0.415491,0.525935,481.394836,1.700012,0.469666,41.659785,44.965663,7000.164988,0.974406,-1.000000,-0.349883,0.527721
24.000000,0.279757,0.003467,-0.021788,-0.364581,-0.932884,0.513470,481.330841,1.636017,0.460057,41.659784,44.965664,7000.164988,1.000000,0.972978,-1.000000,0.852347
24.100000,0.267052,0.045913,0.008702,-0.585647,-0.636826,0.383572,481.232605,1.537781,0.451407,41.659784,44.965664,7000.143598,-1.000000,-1.000000,0.257703,1.000000
24.200000,0.267955,0.076673,0.020403,-0.336029,0.765314,0.031720,481.242859,1.548035,0.443098,41.659783,44.965664,7000.143598,-0.834440,-0.007677,-0.589352,-0.977971
24.300000,0.270010,0.099756,0.023411,-0.308614,0.904550,0.042883,481.331390,1.636566,0.436809,41.659783,44.965664,7000.124694,1.000000,-1.000000,-1.000000,0.342639
24.400000,0.264946,0.120329,0.026610,-0.362431,0.417316,0.092685,481.395294,1.700439,0.433687,41.659783,44.965664,7000.124694,-0.056629,-0.868303,0.132366,-0.639780
24.500000,0.256181,0.136498,0.027471,-0.384802,0.163617,0.020340,481.413757,1.718933,0.433341,41.659782,44.965664,7000.107242,-1.000000,0.047789,0.460650,1.000000
24.600000,0.248323,0.146914,0.024490,-0.377436,0.543944,-0.014036,481.439331,1.744507,0.435071,41.659782,44.965663,7000.107242,-0.192198,-0.025890,0.238633,-0.398164
24.700000,0.240958,0.152766,0.021131,-0.433875,0.674670,0.013399,481.502625,1.807800,0.438621,41.659781,44.965663,7000.090577,1.000000,0.456893,0.382152,-1.000000
24.800000,0.224371,0.155547,0.018457,-0.536077,0.294354,0.091473,481.542267,1.847443,0.445814,41.659781,44.965663,7000.090577,-1.000000,-1.000000,0.100106,0.939023
24.900000,0.205262,0.155270,0.015999,-0.619259,0.054855,0.099540,481.549408,1.854584,0.457633,41.659780,44.965663,7000.074948,1.000000,-0.124725,-0.453270,0.587870
25.000000,0.190547,0.151478,0.012112,-0.707645,-0.270392,0.073496,481.530457,1.835632,0.473173,41.659780,44.965663,7000.074948,-0.254248,-0.003659,0.386808,0.840281
25.100000,0.183977,0.144459,0.006489,-0.771270,-0.471296,0.058549,481.475311,1.780457,0.489109,41.659779,44.965663,7000.058946,-1.000000,0.567627,0.538117,-0.274816
25.200000,0.184977,0.133349,0.002787,-0.741055,0.211831,0.035357,481.446564,1.751740,0.506502,41.659779,44.965662,7000.058946,-1.000000,-0.151396,-0.112375,-1.000000
25.300000,0.183745,0.116100,0.004161,-0.743574,0.825684,0.088091,481.502991,1.808136,0.521394,41.659778,44.965662,7000.040457,0.242448,-0.586817,1.000000,-0.402021
25.400000,0.172953,0.096685,0.008245,-0.789796,0.836429,0.127634,481.580231,1.885406,0.535511,41.659777,44.965662,7000.040457,-0.863513,0.246178,0.205011,1.000000
25.500000,0.164482,0.077242,0.012187,-0.820888,0.734467,0.114799,481.650421,1.955597,0.548093,41.659776,44.965662,7000.019647,0.691044,0.636909,0.661030,-0.601680
25.600000,0.162261,0.055959,0.016247,-0.838381,0.493714,0.136575,481.705597,2.010773,0.559612,41.659776,44.965662,7000.019647,-1.000000,-1.000000,-1.000000,0.441923
25.700000,0.165663,0.034119,0.021607,-0.814241,0.483292,0.141991,481.749023,2.054169,0.570656,41.659775,44.965661,6999.996722,0.357697,-1.000000,1.000000,0.735232
25.800000,0.178707,0.012953,0.026392,-0.781002,0.348012,0.158773,481.791290,2.096466,0.580446,41.659774,44.965661,6999.996722,1.000000,-0.628602,1.000000,-0.649885
25.900000,0.196433,-0.008725,0.031618,-0.755703,-0.289397,0.269667,481.796234,2.101410,0.589137,41.659774,44.965661,6999.971103,0.507141,-1.000000,-0.525336,-0.879111
26.000000,0.206045,-0.028193,0.040164,-0.704975,-0.955372,0.412509,481.728180,2.033356,0.595901,41.659773,44.965661,6999.971103,-0.769665,-0.042379,0.561274,0.172311
26.100000,0.211805,-0.044751,0.050217,-0.614900,-0.939412,0.494972,481.630585,1.935760,0.595022,41.659772,44.965662,6999.944655,-1.000000,0.735656,0.478123,1.000000
26.200000,0.222981,-0.061306,0.059897,-0.485649,-0.396106,0.506375,481.570282,1.875458,0.586875,41.659771,44.965662,6999.944655,1.000000,0.695839,1.000000,0.976193
26.300000,0.244427,-0.073838,0.060322,-0.279083,-0.344905,0.393044,481.530243,1.835388,0.574598,41.659771,44.965662,6999.916921,-0.151577,0.600378,0.234252,0.233955
26.400000,0.264423,-0.072244,0.045406,-0.135309,-0.472498,0.279998,481.489075,1.794250,0.561456,41.659771,44.965662,6999.916921,-0.424291,-1.000000,-0.661823,0.755925
26.500000,0.286237,-0.061813,0.026104,-0.018321,-0.295823,0.165463,481.452362,1.757538,0.547206,41.659771,44.965663,6999.887820,0.308993,-1.000000,1.000000,-0.543119
26.600000,0.306685,-0.047039,0.012484,0.044083,-0.424894,0.156935,481.418243,1.723419,0.533069,41.659770,44.965663,6999.887820,1.000000,1.000000,1.000000,-1.000000
26.700000,0.313344,-0.028344,0.017748,-0.177562,-0.601784,0.164816,481.366638,1.671814,0.519981,41.659770,44.965663,6999.860626,0.183189,-1.000000,-1.000000,-0.489666
26.800000,0.305228,-0.001347,0.019247,-0.562021,-0.286671,0.001955,481.318146,1.623322,0.508232,41.659770,44.965663,6999.860626,-0.451081,-1.000000,0.964112,0.271265
26.900000,0.296073,0.030888,0.012602,-0.532602,0.087852,-0.062577,481.311798,1.616974,0.495923,41.659770,44.965662,6999.835338,0.323009,1.000000,0.703255,-0.470440
27.000000,0.285976,0.058458,0.005848,-0.548342,-0.041900,-0.058673,481.314606,1.619781,0.485392,41.659769,44.965662,6999.835338,0.465415,-0.292280,-0.776604,-0.783219
27.100000,0.269770,0.082066,0.006888,-0.491758,-0.023553,-0.026061,481.304565,1.609741,0.474928,41.659769,44.965662,6999.811667,-0.253837,0.197355,0.745933,0.380182
27.200000,0.253061,0.100039,0.007011,-0.450119,0.252279,-0.085341,481.305634,1.610809,0.465072,41.659768,44.965661,6999.811667,-0.605200,0.578099,-0.124308,0.915296
27.300000,0.242861,0.112542,0.007588,-0.394028,0.333236,-0.110691,481.335938,1.641144,0.458440,41.659768,44.965661,6999.790981,0.865723,1.000000,0.063684,0.663938
27.400000,0.238291,0.125161,0.001956,-0.193506,0.300555,-0.134190,481.366394,1.671570,0.454914,41.659768,44.965661,6999.790981,-0.871489,0.582445,0.737715,0.997227
27.500000,0.240662,0.135518,-0.003872,-0.198906,0.380957,-0.132153,481.395935,1.701111,0.454446,41.659768,44.965661,6999.772161,0.268795,-1.000000,1.000000,0.281503
27.600000,0.247945,0.141496,-0.005608,-0.239281,0.537026,-0.146504,481.436279,1.741455,0.456176,41.659767,44.965660,6999.772161,-1.000000,0.387653,-0.542580,-1.000000
27.700000,0.253586,0.143875,-0.002344,-0.258696,1.032970,-0.118786,481.504425,1.809601,0.460395,41.659767,44.965660,6999.753920,-1.000000,-1.000000,-1.000000,-0.009033
27.800000,0.251112,0.140738,0.006901,-0.260452,1.782044,-0.117613,481.652374,1.957550,0.468813,41.659767,44.965660,6999.753920,1.000000,-0.120954,0.002621,0.134998
27.900000,0.247325,0.134132,0.016749,-0.337639,1.606372,-0.104135,481.814880,2.120056,0.481133,41.659766,44.965659,6999.736551,-0.419056,-0.478139,-1.000000,-0.834195
28.000000,0.239732,0.125378,0.025937,-0.444014,1.022663,-0.064614,481.941589,2.246765,0.495588,41.659766,44.965659,6999.736551,0.557073,1.000000,-0.970155,1.000000
28.100000,0.235564,0.114932,0.032418,-0.513439,0.729469,-0.065409,482.020477,2.325653,0.510735,41.659766,44.965659,6999.718559,-1.000000,0.189137,-1.000000,1.000000
28.200000,0.241600,0.102925,0.035458,-0.558641,0.558446,-0.070018,482.077179,2.382355,0.524634,41.659765,44.965658,6999.718559,0.729165,0.695385,1.000000,-0.545294
28.300000,0.254136,0.088572,0.036657,-0.608530,0.165217,0.002570,482.110779,2.415955,0.538083,41.659765,44.965658,6999.697832,-0.416443,0.970311,1.000000,-0.728192
28.400000,0.261832,0.073700,0.038695,-0.626855,-0.091195,0.107130,482.102844,2.408020,0.550833,41.659764,44.965658,6999.697832,-1.000000,0.757300,-1.000000,0.519709
28.500000,0.270143,0.058359,0.041475,-0.610874,-0.149609,0.142350,482.091156,2.396332,0.562503,41.659764,44.965658,6999.675280,1.000000,1.000000,0.253655,0.021246
28.600000,0.288582,0.040905,0.043113,-0.599184,-0.512822,0.190622,482.056122,2.361298,0.572818,41.659763,44.965658,6999.675280,-0.167689,-0.513275,1.000000,0.118837
28.700000,0.313098,0.023393,0.043622,-0.575614,-0.962087,0.260680,481.976196,2.281372,0.582020,41.659762,44.965658,6999.650863,0.716269,0.835766,-0.538724,0.545047
28.800000,0.340596,0.007257,0.043900,-0.521993,-1.156927,0.333869,481.868408,2.173584,0.590542,41.659762,44.965658,6999.650863,-1.000000,-0.148125,-0.655176,-1.000000
28.900000,0.367361,-0.009489,0.048604,-0.419096,-0.754069,0.475112,481.765991,2.071167,0.592693,41.659761,44.965658,6999.623959,0.383732,1.000000,0.859502,-0.747435
29.000000,0.381580,-0.025729,0.062339,-0.307300,-0.304667,0.615905,481.710907,2.016083,0.586860,41.659761,44.965658,6999.623959,-1.000000,-1.000000,1.000000,0.174296
29.100000,0.393033,-0.041160,0.077256,-0.190821,0.101628,0.668586,481.697632,2.002808,0.576537,41.659760,44.965658,6999.596516,0.200415,-0.279882,-0.663474,1.000000
29.200000,0.413137,-0.058414,0.089326,-0.061529,0.243854,0.715824,481.716736,2.021912,0.562901,41.659760,44.965659,6999.596516,1.000000,1.000000,1.000000,-1.000000
29.300000,0.436715,-0.075092,0.097487,0.054096,-0.157515,0.837792,481.712708,2.017883,0.549403,41.659760,44.965660,6999.568243,-1.000000,0.935014,-0.640798,-0.973243
29.400000,0.452857,-0.088793,0.103805,0.189003,-0.104089,0.967919,481.684418,1.989594,0.535424,41.659759,44.965661,6999.568243,0.212191,-0.727123,1.000000,0.875314
29.500000,0.468534,-0.101887,0.106148,0.344092,-0.022921,1.009232,481.672119,1.977295,0.522079,41.659759,44.965662,6999.540054,0.191189,0.415262,1.000000,1.000000
29.600000,0.487451,-0.108481,0.099083,0.436858,-0.047912,0.806389,481.652466,1.957642,0.509910,41.659759,44.965663,6999.540054,-0.042256,0.233616,1.000000,0.321544
29.700000,0.503797,-0.105052,0.084885,0.466066,-0.186127,0.645720,481.633514,1.938690,0.498009,41.659759,44.965664,6999.514144,1.000000,0.505911,-0.334362,-0.721096
29.800000,0.514236,-0.092753,0.067195,0.444508,-0.392187,0.520244,481.592377,1.897552,0.486811,41.659759,44.965665,6999.514144,-0.517966,-0.587741,-0.841066,1.000000
29.900000,0.522109,-0.074151,0.047156,0.469661,-0.297672,0.419505,481.546387,1.851563,0.476257,41.659759,44.965666,6999.489893,-0.975870,-0.307861,-0.293411,1.000000
30.000000,0.536818,-0.056233,0.029922,0.603470,0.170272,0.372589,481.537445,1.842621,0.466227,41.659759,44.965666,6999.489893,0.180424,0.367603,0.542135,1.000000
30.100000,0.561236,-0.038835,0.015125,0.721517,0.122738,0.343368,481.556396,1.861572,0.457920,41.659759,44.965667,6999.466886,0.302042,-0.132353,-0.603232,0.088425
30.200000,0.589564,-0.022369,0.003934,0.791053,-0.340877,0.325913,481.542603,1.847778,0.453008,41.659759,44.965668,6999.466886,0.270196,0.902738,0.303329,0.162688
30.300000,0.614435,-0.007656,-0.001522,0.843063,-0.606298,0.346545,481.493103,1.798279,0.451310,41.659760,44.965669,6999.446365,-0.252545,0.493083,1.000000,-0.690706
30.400000,0.633229,0.006439,0.001487,0.905379,-0.493407,0.376115,481.430206,1.735382,0.451901,41.659760,44.965670,6999.446365,-0.604812,-1.000000,-0.709444,0.243820
30.500000,0.647733,0.017614,0.012994,0.988777,-0.144831,0.372611,481.402374,1.707550,0.453760,41.659761,44.965671,6999.427503,0.084783,0.887839,-0.275941,0.137320
30.600000,0.661771,0.024860,0.026489,1.067623,0.145285,0.375937,481.401825,1.707001,0.456995,41.659761,44.965672,6999.427503,-1.000000,-0.185789,0.060370,-0.498500
30.700000,0.672229,0.028978,0.042559,1.135203,0.284507,0.425584,481.429718,1.734924,0.462628,41.659761,44.965674,6999.408890,0.571954,0.430593,-0.044026,-0.187888
30.800000,0.675102,0.030419,0.058708,1.168787,0.087774,0.526027,481.454773,1.759949,0.472041,41.659762,44.965675,6999.408890,1.000000,-0.139119,-0.229781,-1.000000
30.900000,0.666921,0.030746,0.073473,1.170766,-0.375452,0.688456,481.440002,1.745178,0.484737,41.659762,44.965677,6999.390857,-0.315876,0.841972,-0.227587,-0.626025
31.000000,0.644924,0.030546,0.087983,1.118904,-0.567130,0.857673,481.380310,1.685486,0.499653,41.659762,44.965678,6999.390857,-0.143169,-0.394233,-0.635641,-1.000000
31.100000,0.614349,0.026020,0.079819,0.809111,0.088462,0.757609,481.361023,1.666199,0.514305,41.659762,44.965680,6999.372202,1.000000,0.629492,-0.675842,1.000000
31.200000,0.585668,0.020972,0.059273,0.693119,-0.257820,0.765024,481.352112,1.657288,0.527358,41.659762,44.965681,6999.372202,0.269850,-0.511306,-0.231885,1.000000
31.300000,0.564202,0.017777,0.029926,0.519853,-0.389054,0.592384,481.310486,1.615662,0.537813,41.659762,44.965682,6999.350812,-1.000000,0.622755,1.000000,-0.224077
31.400000,0.551245,0.017297,0.000449,0.457874,0.126585,0.427341,481.290222,1.595398,0.541290,41.659763,44.965683,6999.350812,-0.105200,-0.764271,0.685474,-0.752256
31.500000,0.542572,0.015793,-0.005142,0.497313,0.266426,0.436223,481.318146,1.623322,0.538296,41.659763,44.965684,6999.327763,0.256312,0.396565,0.712704,0.392420
31.600000,0.534671,0.013059,-0.005221,0.532121,0.107410,0.455077,481.332977,1.638153,0.531567,41.659763,44.965684,6999.327763,-0.854753,-0.947102,0.517681,-0.532501
31.700000,0.529643,0.008649,0.001009,0.603334,0.374056,0.459039,481.355133,1.660339,0.523202,41.659763,44.965685,6999.303180,-0.473729,-0.719829,1.000000,0.358667
31.800000,0.527944,0.001938,0.011769,0.700474,0.835481,0.438769,481.414703,1.719879,0.514222,41.659763,44.965686,6999.303180,-0.797742,-1.000000,-0.302391,0.659995
31.900000,0.535147,-0.008270,0.023378,0.788909,0.914810,0.386072,481.510193,1.815369,0.508714,41.659763,44.965687,6999.277809,0.822981,0.164363,-0.639407,1.000000
32.000000,0.553687,-0.020357,0.031338,0.857197,0.569803,0.365370,481.582367,1.887543,0.507589,41.659764,44.965688,6999.277809,-1.000000,0.592840,0.676124,-0.741410
32.100000,0.574669,-0.032732,0.037733,0.942296,0.465134,0.401409,481.626221,1.931396,0.510006,41.659764,44.965689,6999.253890,0.532590,-0.231170,0.691153,0.280593
32.200000,0.594058,-0.046441,0.046577,1.036808,0.284346,0.462083,481.662659,1.967834,0.513533,41.659765,44.965690,6999.253890,-0.243793,0.314816,-0.699169,-0.749930
32.300000,0.610072,-0.059879,0.056387,1.134435,-0.009480,0.539400,481.664337,1.969513,0.516381,41.659765,44.965692,6999.230468,-0.797528,-0.304530,0.638076,0.111970
32.400000,0.621987,-0.072281,0.066096,1.261231,0.191098,0.585184,481.662689,1.967865,0.515176,41.659765,44.965693,6999.230468,0.317583,-0.085678,1.000000,1.000000
32.500000,0.639863,-0.085913,0.073218,1.410502,0.401593,0.578790,481.676849,1.982025,0.510030,41.659766,44.965695,6999.205926,-1.000000,1.000000,-0.693049,1.000000
32.600000,0.668814,-0.100440,0.075378,1.596426,0.817636,0.549657,481.714478,2.019684,0.503432,41.659766,44.965697,6999.205926,-0.679137,-1.000000,0.369081,-0.160105
32.700000,0.700089,-0.115340,0.075851,1.792929,1.160130,0.564767,481.794952,2.100098,0.498782,41.659767,44.965699,6999.181882,0.505716,-0.167190,1.000000,-0.485019
32.800000,0.728680,-0.130598,0.076517,1.961408,0.802042,0.618171,481.869720,2.174896,0.497227,41.659768,44.965701,6999.181882,0.472848,-0.145066,-0.766767,0.800945
32.900000,0.757744,-0.144376,0.074114,2.135680,0.313932,0.640597,481.890198,2.195374,0.499121,41.659769,44.965703,6999.158419,-0.117190,0.195062,0.285525,-0.550471
33.000000,0.787194,-0.155798,0.067921,2.318029,0.090169,0.628449,481.869080,2.174286,0.502301,41.659769,44.965706,6999.158419,-0.169564,1.000000,0.303443,1.000000
33.100000,0.821691,-0.166000,0.056768,2.516567,-0.095436,0.605122,481.828339,2.133514,0.502483,41.659770,44.965709,6999.135080,0.387572,-1.000000,0.568675,-0.842370
33.200000,0.854839,-0.173368,0.044197,2.710976,-0.348738,0.602250,481.757202,2.062378,0.498307,41.659771,44.965711,6999.135080,-0.176476,0.980662,-0.212385,-1.000000
33.300000,0.874030,-0.175682,0.031191,2.567215,-0.344678,0.558045,481.674011,1.979218,0.491390,41.659772,44.965714,6999.112404,1.000000,0.190917,0.576191,-1.000000
33.400000,0.875419,-0.169341,0.010248,1.760890,0.199029,0.389220,481.622925,1.928101,0.482889,41.659772,44.965717,6999.112404,-0.246868,-0.016110,-1.000000,0.695038
33.500000,0.867075,-0.155573,0.003975,1.355099,0.270676,0.347123,481.629822,1.934998,0.473654,41.659773,44.965719,6999.089521,0.703872,-0.140523,0.918048,0.487159
33.600000,0.862884,-0.140179,0.000213,1.381928,-0.141658,0.315139,481.618164,1.923340,0.464858,41.659773,44.965720,6999.089521,0.848039,-0.197301,-0.157213,0.871293
33.700000,0.865131,-0.121008,0.000566,1.148840,-0.469855,0.239101,481.565002,1.870178,0.456687,41.659774,44.965722,6999.066845,0.317766,1.000000,-0.058143,0.544087
33.800000,0.872803,-0.096563,0.004949,0.656707,-0.321683,0.129328,481.510864,1.816010,0.448898,41.659774,44.965723,6999.066845,-0.079128,-0.978987,-0.005255,0.118456
33.900000,0.882078,-0.070230,0.004462,0.524950,-0.263578,0.067140,481.479980,1.785156,0.442094,41.659774,44.965723,6999.046200,-0.673066,1.000000,0.389422,0.108675
34.000000,0.891384,-0.044076,0.005066,0.639827,-0.093833,0.081576,481.460815,1.765991,0.437214,41.659774,44.965724,6999.046200,0.343455,-1.000000,0.503953,-0.815037
34.100000,0.894127,-0.021463,0.013193,0.737502,-0.009834,0.121457,481.451141,1.756317,0.434705,41.659774,44.965725,6999.026758,-1.000000,0.009518,-0.198511,0.832243
34.200000,0.894653,-0.003715,0.024078,0.814457,0.005687,0.125519,481.454315,1.759491,0.434610,41.659775,44.965725,6999.026758,0.961233,-1.000000,0.681697,1.000000
34.300000,0.898940,0.011962,0.034271,0.844533,-0.423561,0.143416,481.436737,1.741913,0.437113,41.659775,44.965726,6999.008310,0.339769,1.000000,1.000000,-1.000000
34.400000,0.901890,0.025561,0.043235,0.834434,-1.108165,0.231707,481.358826,1.663971,0.441969,41.659775,44.965727,6999.008310,0.903964,-0.124517,-0.867045,-0.002331
34.500000,0.897011,0.034444,0.031856,0.312068,-0.793334,-0.037166,481.255920,1.561096,0.447721,41.659775,44.965728,6998.991562,0.560437,-0.639242,-0.879377,-1.000000
34.600000,0.890030,0.036981,0.005760,-0.050305,0.222209,-0.363294,481.242493,1.547668,0.453083,41.659776,44.965728,6998.991562,1.000000,-0.829518,0.952911,1.000000
34.700000,0.889136,0.038914,-0.007215,-0.024370,0.077258,-0.120516,481.260590,1.565765,0.457680,41.659776,44.965728,6998.974897,0.889855,0.196688,0.286788,0.301698
34.800000,0.894013,0.039284,-0.008008,0.004251,0.030808,0.040706,481.263336,1.568512,0.461082,41.659776,44.965728,6998.974897,0.122877,0.738064,0.901476,-1.000000
34.900000,0.895400,0.037886,-0.003266,0.038291,0.093469,0.116601,481.269775,1.574951,0.462635,41.659776,44.965728,6998.956864,0.363699,-1.000000,0.075125,-0.733570
35.000000,0.887291,0.036542,0.003806,-0.010776,0.068931,0.178755,481.280304,1.585480,0.464001,41.659776,44.965728,6998.956864,-0.126543,1.000000,-0.504392,0.291951
35.100000,0.877865,0.033799,0.005411,0.014575,0.190937,0.125140,481.288391,1.593567,0.465910,41.659776,44.965728,6998.938956,-0.411738,1.000000,-0.667365,0.171564
35.200000,0.874392,0.029977,0.014977,0.096725,0.502393,0.111712,481.320831,1.626007,0.468410,41.659776,44.965728,6998.938956,-1.000000,-0.029786,1.000000,0.514332
35.300000,0.876852,0.021803,0.024594,0.214424,1.457654,0.059133,481.416656,1.721832,0.472377,41.659776,44.965728,6998.921462,-1.000000,-0.498429,-0.655692,0.724489
35.400000,0.887149,0.009442,0.033010,0.306461,2.177634,0.005263,481.600128,1.905304,0.479600,41.659776,44.965729,6998.921462,1.000000,-1.000000,1.000000,1.000000
35.500000,0.908554,-0.006504,0.038146,0.336427,1.980994,-0.025491,481.818451,2.123627,0.491045,41.659776,44.965729,6998.903387,1.000000,-0.205559,-1.000000,1.000000
35.600000,0.940835,-0.023129,0.036740,0.351379,1.309692,-0.025047,481.986450,2.291626,0.504607,41.659776,44.965729,6998.903387,-0.246965,1.000000,-0.554342,0.675138
35.700000,0.979023,-0.038417,0.029202,0.387833,0.647648,-0.019360,482.078461,2.383636,0.518983,41.659776,44.965730,6998.885230,1.000000,1.000000,0.706182,1.000000
35.800000,1.026787,-0.053743,0.015537,0.456259,0.087422,-0.027761,482.110718,2.415894,0.532026,41.659776,44.965730,6998.885230,-0.910980,0.055643,-0.650035,0.236828
35.900000,1.080225,-0.067972,-0.000750,0.575527,0.067468,-0.063442,482.108002,2.413177,0.544931,41.659776,44.965731,6998.864959,-1.000000,0.556298,-1.000000,0.896563
36.000000,1.135857,-0.081427,-0.014481,0.750964,0.759033,-0.132632,482.140106,2.445282,0.557016,41.659777,44.965731,6998.864959,-0.650178,0.137488,0.622107,-0.892572
36.100000,1.194197,-0.097337,-0.024687,0.955312,1.478472,-0.142991,482.246857,2.552032,0.567553,41.659777,44.965733,6998.841702,-1.000000,0.305198,-0.308412,-1.000000
36.200000,1.239210,-0.115109,-0.024306,1.137002,1.893226,-0.135210,482.413788,2.718964,0.577595,41.659777,44.965734,6998.841702,0.261214,0.927029,-1.000000,0.618521
36.300000,1.277204,-0.132199,-0.019030,1.272837,1.629435,-0.193969,482.571442,2.876648,0.586340,41.659778,44.965736,6998.817120,1.000000,0.329642,-1.000000,1.000000
36.400000,1.324769,-0.149200,-0.016149,1.409228,0.996837,-0.293894,482.683838,2.989014,0.594951,41.659778,44.965737,6998.817120,-0.436723,-0.892284,-0.683874,0.152908
36.500000,1.380563,-0.164329,-0.017948,1.565235,0.470864,-0.405452,482.730865,3.036041,0.602135,41.659779,44.965739,6998.791044,0.145890,-1.000000,1.000000,-0.352144
36.600000,1.435049,-0.176587,-0.020856,1.727915,0.162627,-0.450556,482.734863,3.040039,0.609128,41.659779,44.965741,6998.791044,0.406104,-1.000000,0.740012,-1.000000
36.700000,1.482069,-0.187388,-0.018521,1.900443,-0.442393,-0.444618,482.688599,2.993774,0.615462,41.659779,44.965743,6998.762731,1.000000,-1.000000,0.292835,-0.140667
36.800000,1.519559,-0.195646,-0.011612,2.081524,-1.027259,-0.431880,482.571106,2.876282,0.618352,41.659780,44.965745,6998.762731,-1.000000,0.102227,-0.250449,-0.691567
36.900000,1.551265,-0.200539,-0.002431,2.253153,-1.140021,-0.457129,482.425507,2.730682,0.612970,41.659780,44.965748,6998.734127,1.000000,-0.351930,-1.000000,1.000000
37.000000,1.589140,-0.202253,0.005379,2.426392,-1.276918,-0.532257,482.260345,2.565521,0.601109,41.659780,44.965750,6998.734127,-0.100802,-0.358795,-0.524439,1.000000
37.100000,1.633998,-0.200382,0.007188,2.578833,-1.665651,-0.629531,482.062073,2.367249,0.586297,41.659780,44.965753,6998.704569,1.000000,-1.000000,1.000000,-0.708022
37.200000,1.676320,-0.194726,0.006010,2.691040,-1.835870,-0.694815,481.843719,2.148895,0.571548,41.659780,44.965756,6998.704569,-1.000000,1.000000,-0.329540,0.447520
37.300000,1.717242,-0.182375,0.005365,2.257667,-0.645528,-0.780100,481.643829,1.949005,0.555739,41.659780,44.965758,6998.674183,-0.520653,1.000000,-0.582189,0.010024
37.400000,1.759655,-0.161484,-0.001675,1.747823,0.753315,-0.868968,481.648895,1.954071,0.540686,41.659781,44.965761,6998.674183,1.000000,0.182232,0.216628,0.887384
37.500000,1.800047,-0.142124,-0.009604,1.909786,0.490633,-0.965140,481.683258,1.988434,0.527217,41.659781,44.965763,6998.646656,-1.000000,-0.271674,0.942585,0.820652
37.600000,1.845224,-0.122019,-0.021985,2.039106,0.243025,-1.092153,481.690094,1.995239,0.514456,41.659781,44.965766,6998.646656,0.838558,-0.344415,-0.371735,-0.267896
37.700000,1.889406,-0.102229,-0.035808,2.127014,-0.126947,-1.211672,481.671692,1.976868,0.502561,41.659781,44.965769,6998.621991,-0.190398,-0.394002,0.676189,1.000000
37.800000,1.928829,-0.083648,-0.049564,2.171671,-0.591504,-1.336688,481.612885,1.918060,0.490950,41.659781,44.965772,6998.621991,1.000000,-1.000000,-0.508701,-0.221598
37.900000,1.969125,-0.063271,-0.059811,2.018797,-0.871924,-1.434287,481.508759,1.813934,0.480793,41.659781,44.965775,6998.599439,-0.106458,0.864360,-1.000000,1.000000
38.000000,2.008146,-0.040112,-0.044492,1.667765,-0.755413,-1.386073,481.400024,1.705200,0.470672,41.659782,44.965777,6998.599439,-1.000000,-0.127627,1.000000,-0.060195
38.100000,2.045520,-0.015378,-0.011253,1.326589,-0.358167,-1.260975,481.340912,1.646088,0.461183,41.659782,44.965780,6998.579541,1.000000,0.215510,-0.119825,1.000000
38.200000,2.085666,0.010818,0.002529,1.167504,-0.434577,-1.220352,481.302795,1.607971,0.454508,41.659782,44.965782,6998.579541,-0.339695,-1.000000,-1.000000,-1.000000
38.300000,2.119453,0.033201,-0.006359,0.815276,-0.275094,-1.019179,481.264709,1.569855,0.450661,41.659782,44.965784,6998.560803,0.833661,0.007555,-1.000000,-0.696921
38.400000,2.134533,0.042417,-0.014734,0.408385,0.122218,-0.627864,481.264465,1.569641,0.449152,41.659782,44.965785,6998.560803,-0.243006,-0.042241,1.000000,0.600806
38.500000,2.138567,0.040137,-0.016485,0.254195,0.115777,-0.344854,481.277527,1.582703,0.449225,41.659783,44.965785,6998.542729,0.729393,-0.464434,-0.753754,-1.000000
38.600000,2.135099,0.030262,-0.025637,0.184494,0.141482,-0.078680,481.295074,1.600250,0.450447,41.659783,44.965786,6998.542729,0.046269,0.556555,0.693522,-0.771427
38.700000,2.126198,0.022683,-0.022746,0.194172,0.077213,0.109235,481.303436,1.608612,0.452465,41.659783,44.965786,6998.526022,-1.000000,-1.000000,0.297874,-0.012792
38.800000,2.115069,0.015672,-0.013854,0.247572,0.223144,0.116398,481.323822,1.628998,0.455181,41.659782,44.965786,6998.526022,0.755902,0.150785,1.000000,0.340845
38.900000,2.107378,0.006681,-0.008466,0.272462,-0.106291,0.073761,481.333771,1.638947,0.459079,41.659782,44.965786,6998.509689,1.000000,1.000000,0.248670,1.000000
39.000000,2.108647,-0.000804,-0.004043,0.082638,-0.280500,0.056013,481.307159,1.612335,0.465087,41.659782,44.965786,6998.509689,-0.187092,-0.234139,1.000000,0.454333
39.100000,2.114254,0.001805,-0.000787,-0.091982,0.149759,-0.011679,481.306549,1.611725,0.472747,41.659782,44.965786,6998.492858,-0.801731,-0.790864,-0.865301,1.000000
39.200000,2.126838,0.007670,0.000293,0.004883,0.570911,-0.076903,481.336334,1.641510,0.480929,41.659782,44.965786,6998.492858,-0.931783,-1.000000,0.127992,-0.861038
39.300000,2.141458,0.009919,0.001238,0.104397,0.935926,-0.084929,481.416779,1.721924,0.488892,41.659782,44.965786,6998.476069,0.249323,0.875418,0.056967,0.209795
39.400000,2.154900,0.009774,0.001902,0.162081,0.758619,-0.082705,481.507996,1.813171,0.499568,41.659782,44.965786,6998.476069,-0.038072,0.038434,0.258057,1.000000
39.500000,2.174375,0.008283,-0.001288,0.188594,0.250872,-0.124142,481.560028,1.865204,0.511419,41.659782,44.965787,6998.457704,0.704644,0.966064,0.511315,0.802825
39.600000,2.204399,0.006472,-0.009723,0.199756,-0.361779,-0.179184,481.556366,1.861542,0.524237,41.659782,44.965787,6998.457704,1.000000,-0.087350,-0.060293,1.000000
39.700000,2.246871,0.004971,-0.023169,0.206209,-0.993052,-0.230784,481.481659,1.786835,0.536734,41.659782,44.965787,6998.437309,-0.448329,0.883983,0.747542,-1.000000
39.800000,2.292558,0.003869,-0.034766,0.233960,-1.150947,-0.260469,481.366547,1.671722,0.543925,41.659782,44.965788,6998.437309,0.236007,-0.377050,-0.919338,1.000000
39.900000,2.335284,0.003856,-0.012678,-0.080867,-0.201039,-0.135068,481.299622,1.604797,0.549715,41.659782,44.965788,6998.415462,-0.595192,-1.000000,-0.498848,-0.444217
40.000000,2.374722,0.011832,0.005646,0.073876,0.213092,-0.132512,481.307037,1.612213,0.550019,41.659782,44.965788,6998.415462,0.082631,1.000000,-1.000000,-0.557262
40.100000,2.407799,0.021048,0.015863,0.125764,0.183871,-0.076009,481.331421,1.636627,0.544714,41.659782,44.965788,6998.391542,0.502032,0.755008,-1.000000,-0.860205
40.200000,2.428988,0.028455,0.028410,0.149382,-0.092185,0.027488,481.332520,1.637695,0.535985,41.659782,44.965788,6998.391542,-1.000000,-0.207058,0.116719,-1.000000
40.300000,2.437409,0.034788,0.036713,0.097465,0.061478,0.130941,481.333771,1.638947,0.525148,41.659782,44.965788,6998.366006,0.833368,0.942469,0.792880,-1.000000
40.400000,2.431778,0.039536,0.040262,0.066289,-0.030688,0.221910,481.336426,1.641632,0.514147,41.659782,44.965788,6998.366006,-0.745698,0.191757,1.000000,-0.741953
40.500000,2.418846,0.041862,0.039095,0.052656,0.174106,0.234497,481.337708,1.642883,0.504764,41.659782,44.965788,6998.341174,-0.848404,1.000000,-1.000000,1.000000
40.600000,2.409235,0.041037,0.035218,0.121745,0.644906,0.203909,481.386322,1.691498,0.497580,41.659781,44.965788,6998.341174,0.832495,-0.647067,-0.750351,0.601264
40.700000,2.412395,0.037700,0.026436,0.131194,0.275947,0.184438,481.437531,1.742706,0.493346,41.659781,44.965788,6998.317006,1.000000,0.250448,1.000000,0.297053
40.800000,2.424466,0.033907,0.014202,0.121642,-0.371217,0.180999,481.433105,1.738281,0.492454,41.659781,44.965788,6998.317006,0.173874,-0.971913,-0.331892,0.428664
40.900000,2.446131,0.029706,-0.001068,0.133362,-0.809810,0.134281,481.367340,1.672516,0.492184,41.659781,44.965787,6998.293128,-1.000000,0.710838,-1.000000,1.000000
41.000000,2.478768,0.024569,-0.013665,0.162222,-0.272171,0.035501,481.300995,1.606171,0.489261,41.659781,44.965788,6998.293128,-0.227839,0.929829,0.927552,-0.726089
41.100000,2.513016,0.017254,-0.003559,0.181955,0.130180,-0.009608,481.305359,1.610535,0.484416,41.659780,44.965788,6998.270784,0.067236,0.613812,-0.293291,1.000000
41.200000,2.550609,0.008873,0.008803,0.232330,0.228054,-0.096623,481.320862,1.626038,0.480770,41.659780,44.965788,6998.270784,-0.564049,0.464191,-0.064491,0.683280
41.300000,2.592546,0.002197,0.015953,0.302058,0.197793,-0.173287,481.347778,1.652954,0.479513,41.659780,44.965788,6998.248605,1.000000,-1.000000,1.000000,-0.641113
41.400000,2.633926,-0.003567,0.016832,0.348904,-0.227049,-0.203208,481.347717,1.652893,0.479738,41.659780,44.965788,6998.248605,0.457587,-0.767434,-0.889366,-1.000000
41.500000,2.665313,-0.002122,0.008140,0.232875,-0.243448,-0.381948,481.312744,1.617920,0.480725,41.659780,44.965789,6998.226593,-0.912635,1.000000,0.529368,0.586680
41.600000,2.687301,0.007096,-0.002043,0.107189,0.204258,-0.444622,481.311554,1.616730,0.480496,41.659780,44.965789,6998.226593,-0.530303,-0.890497,1.000000,0.719768
41.700000,2.713624,0.014830,-0.006211,0.163065,0.344387,-0.521262,481.344360,1.649506,0.480114,41.659780,44.965790,6998.205824,0.422045,-0.037495,0.732586,1.000000
41.800000,2.751441,0.021985,-0.013429,0.186210,0.242599,-0.590520,481.370850,1.676025,0.480326,41.659780,44.965791,6998.205824,-0.923970,0.012842,-1.000000,-1.000000
41.900000,2.791441,0.027556,-0.019896,0.250190,0.633581,-0.619349,481.408508,1.713684,0.481454,41.659780,44.965791,6998.185220,-1.000000,-0.769409,0.158797,-1.000000
42.000000,2.819397,0.028868,-0.021429,0.376368,1.605950,-0.627516,481.514160,1.819336,0.483567,41.659780,44.965792,6998.185220,-1.000000,-1.000000,1.000000,-0.687817
42.100000,2.836551,0.025164,-0.017547,0.477556,2.307962,-0.635419,481.721130,2.026337,0.489178,41.659779,44.965793,6998.164576,-0.425595,1.000000,0.914063,-1.000000
42.200000,2.844519,0.017855,-0.009593,0.533824,2.494653,-0.647778,481.973206,2.278381,0.499617,41.659779,44.965794,6998.164576,0.214137,1.000000,0.790772,0.054347
42.300000,2.851539,0.009365,-0.001834,0.547302,2.177907,-0.679125,482.198608,2.503815,0.511828,41.659779,44.965795,6998.144719,-0.454502,-1.000000,-0.507962,1.000000
42.400000,2.868023,-0.000545,0.003505,0.574690,1.971076,-0.740500,482.405640,2.710815,0.524562,41.659778,44.965796,6998.144719,-0.866185,-0.348178,-0.032656,-0.639681
42.500000,2.892746,-0.012358,0.007577,0.660064,2.580838,-0.800622,482.631866,2.937012,0.537245,41.659778,44.965797,6998.124157,-1.000000,0.570480,0.389436,0.381638
42.600000,2.920912,-0.025910,0.012438,0.726055,3.063278,-0.870586,482.909912,3.215088,0.549821,41.659777,44.965798,6998.124157,0.890625,0.324711,0.834457,0.632702
42.700000,2.960555,-0.041161,0.014177,0.733122,2.735044,-0.942330,483.209961,3.515167,0.560833,41.659777,44.965799,6998.100652,1.000000,-0.886423,-0.327114,0.967859
42.800000,3.011906,-0.055351,0.008671,0.716141,1.952771,-0.987002,483.448303,3.753479,0.571727,41.659776,44.965800,6998.100652,1.000000,0.196818,-0.445976,-0.060174
42.900000,3.066127,-0.066714,-0.002435,0.715048,1.183316,-0.999885,483.591675,3.896820,0.580704,41.659775,44.965801,6998.075986,-0.540527,-0.953357,0.565600,-1.000000
43.000000,3.119509,-0.076872,-0.014956,0.760665,0.639721,-0.963630,483.675018,3.980194,0.584831,41.659774,44.965802,6998.075986,0.396562,-0.585930,-1.000000,-0.597525
43.100000,3.163941,-0.085998,-0.024101,0.852168,0.349596,-0.968606,483.715179,4.020386,0.589199,41.659773,44.965803,6998.049745,-0.649159,-1.000000,-0.080765,-0.403816
43.200000,3.202980,-0.094242,-0.030978,0.966510,0.317279,-1.005175,483.731873,4.037048,0.594512,41.659772,44.965804,6998.049745,-1.000000,-1.000000,-1.000000,-0.454463
43.300000,3.245192,-0.103919,-0.036328,1.160153,1.103588,-1.123109,483.782837,4.088013,0.600284,41.659771,44.965805,6998.021349,-1.000000,0.753792,0.800463,0.514783
43.400000,3.294138,-0.115964,-0.042176,1.337310,1.849836,-1.283589,483.923492,4.228638,0.606543,41.659770,44.965806,6998.021349,1.000000,0.099605,0.002840,-0.178884
43.500000,3.346406,-0.127268,-0.050249,1.416933,1.691078,-1.409780,484.074829,4.380005,0.612581,41.659768,44.965807,6997.993242,1.000000,-0.375390,0.952428,0.282762
43.600000,3.406545,-0.136993,-0.062331,1.475557,1.148530,-1.548590,484.188782,4.493958,0.618331,41.659766,44.965808,6997.993242,-1.000000,-0.864270,1.000000,0.112941
43.700000,3.471899,-0.143884,-0.078623,1.546321,0.794184,-1.728042,484.250061,4.555237,0.623664,41.659764,44.965809,6997.964099,0.528393,-0.565586,-0.522929,0.762447
43.800000,3.538430,-0.147769,-0.097189,1.603070,0.528764,-1.917410,484.278595,4.583771,0.628591,41.659762,44.965810,6997.964099,0.583640,0.116739,-0.095731,-0.848197
43.900000,3.609484,-0.148754,-0.117736,1.627261,-0.146100,-2.112188,484.253845,4.559082,0.628483,41.659760,44.965811,6997.933298,1.000000,-1.000000,-0.473291,1.000000
44.000000,3.680155,-0.146100,-0.139378,1.630333,-0.949095,-2.342456,484.144867,4.450012,0.620136,41.659758,44.965812,6997.933298,0.584055,1.000000,1.000000,-0.368859
44.100000,3.746321,-0.140303,-0.160399,1.615547,-1.629338,-2.581124,483.964233,4.269409,0.606550,41.659756,44.965813,6997.902622,0.233312,1.000000,-0.396889,0.383859
44.200000,3.811723,-0.131578,-0.178264,1.589733,-2.140027,-2.806132,483.707947,4.013153,0.590749,41.659753,44.965814,6997.902622,0.852313,-0.499045,-0.415210,-1.000000
44.300000,3.865122,-0.122047,-0.187070,1.566019,-2.828479,-2.975297,483.389008,3.694183,0.573800,41.659751,44.965815,6997.871530,1.000000,0.637419,-0.653934,-0.071256
44.400000,3.902635,-0.113472,-0.187158,1.556934,-3.444672,-3.112926,483.019501,3.324707,0.558304,41.659749,44.965816,6997.871530,-0.459890,1.000000,-0.870930,0.939333
44.500000,3.939916,-0.102929,-0.174558,1.530027,-3.608466,-3.227179,482.589935,2.895111,0.543547,41.659746,44.965816,6997.841185,1.000000,0.858722,-0.332018,-0.321628
44.600000,3.978442,-0.090371,-0.147749,1.472353,-3.573955,-3.253335,482.159576,2.464783,0.529275,41.659744,44.965817,6997.841185,-0.861215,0.243133,0.171169,0.574457
44.700000,4.012165,-0.077469,-0.110943,1.407945,-2.889588,-3.166798,481.791260,2.096405,0.516536,41.659741,44.965818,6997.815069,-0.880329,0.283865,1.000000,-1.000000
44.800000,4.041740,-0.062819,-0.058962,1.386321,-1.364998,-3.071840,481.547516,1.852661,0.504975,41.659738,44.965818,6997.815069,-0.222466,0.832048,-0.693303,0.665842
44.900000,4.067428,-0.046091,-0.014203,1.290432,-0.631799,-2.923352,481.436951,1.742126,0.493459,41.659736,44.965819,6997.792144,-0.188954,-1.000000,0.611270,-0.384577
45.000000,4.091647,-0.026387,0.005302,1.211641,-0.277550,-2.782487,481.389008,1.694183,0.483315,41.659733,44.965819,6997.792144,-0.326962,-0.012238,-0.142927,-0.864690
45.100000,4.106717,-0.004598,0.003614,1.266088,0.100441,-2.720393,481.376190,1.681366,0.477895,41.659730,44.965819,6997.771416,-0.880067,1.000000,-0.180232,-1.000000
45.200000,4.103714,0.013925,0.002791,1.377398,0.425093,-2.667740,481.407898,1.713074,0.477739,41.659728,44.965819,6997.771416,-0.088637,0.229563,-0.470570,0.380403
45.300000,4.095643,0.028614,-0.002374,1.452141,0.369126,-2.671802,481.452271,1.757446,0.484521,41.659725,44.965819,6997.753466,-0.262874,1.000000,1.000000,0.053672
45.400000,4.090449,0.042255,-0.014359,1.506116,0.364724,-2.706004,481.488464,1.793640,0.495282,41.659722,44.965819,6997.753466,-0.721341,-0.171244,0.369244,0.793869
45.500000,4.092821,0.053586,-0.030583,1.541484,0.493922,-2.787063,481.534851,1.840027,0.509197,41.659719,44.965819,6997.736180,-0.075626,1.000000,-0.430599,0.594525
45.600000,4.104666,0.062489,-0.048079,1.525378,0.452538,-2.881510,481.580597,1.885773,0.522538,41.659716,44.965819,6997.736180,-0.262143,0.477983,-0.425501,0.583891
45.700000,4.125388,0.070870,-0.066564,1.446771,0.103646,-2.978299,481.604523,1.909698,0.536132,41.659714,44.965819,6997.716737,0.586918,-0.829737,0.435260,-0.262376
45.800000,4.151092,0.078618,-0.082583,1.330563,-0.362257,-3.081754,481.579559,1.884735,0.548097,41.659711,44.965819,6997.716737,0.153888,0.595175,-0.107379,0.526928
45.900000,4.179718,0.085283,-0.093573,1.213795,-0.609800,-3.189653,481.511627,1.816803,0.559667,41.659708,44.965819,6997.695222,-1.000000,0.855462,0.224651,-0.155399
46.000000,4.216466,0.089732,-0.093887,1.126278,0.056462,-3.263461,481.454498,1.759674,0.570597,41.659705,44.965819,6997.695222,-1.000000,-0.451910,1.000000,1.000000
46.100000,4.261481,0.088564,-0.084269,1.002563,0.546271,-3.435708,481.476807,1.781982,0.580351,41.659701,44.965819,6997.671593,0.317187,-0.607336,-0.789774,1.000000
46.200000,4.313410,0.085781,-0.077895,0.797165,0.377436,-3.596365,481.505249,1.810425,0.588756,41.659698,44.965819,6997.671593,1.000000,-0.420865,1.000000,-1.000000
46.300000,4.370536,0.081889,-0.073967,0.550699,-0.024490,-3.666999,481.498596,1.803772,0.596807,41.659695,44.965820,6997.645476,-1.000000,-0.763612,0.784822,-1.000000
46.400000,4.418336,0.076470,-0.067189,0.354245,-0.310337,-3.655306,481.458160,1.763336,0.604329,41.659692,44.965820,6997.645476,1.000000,1.000000,0.433276,-0.263985
46.500000,4.454661,0.069838,-0.055629,0.212253,-0.540369,-3.642277,481.397461,1.702637,0.610902,41.659688,44.965820,6997.618655,-1.000000,0.052984,0.026674,-0.606149
46.600000,4.487715,0.059784,-0.038400,0.101929,-0.443899,-3.435829,481.329285,1.634460,0.616935,41.659685,44.965820,6997.618655,0.790679,0.261124,-0.389621,-0.046425
46.700000,4.516389,0.046457,-0.015944,0.017627,-0.283312,-2.977474,481.286102,1.591278,0.622747,41.659682,44.965820,6997.590507,1.000000,-0.228170,1.000000,-1.000000
46.800000,4.538264,0.038205,-0.008268,-0.021879,-0.024120,-2.255465,481.267609,1.572784,0.626693,41.659680,44.965820,6997.590507,-0.068418,-0.715041,-1.000000,-1.000000
46.900000,4.550723,0.035267,-0.017064,-0.036305,0.179845,-1.650251,481.270538,1.575714,0.622636,41.659678,44.965821,6997.560576,0.572927,-0.019663,1.000000,-0.312186
47.000000,4.554013,0.036716,-0.058181,-0.012853,0.756720,-0.920972,481.322479,1.627655,0.611648,41.659677,44.965821,6997.560576,-1.000000,-0.986858,-0.494889,0.183862
47.100000,4.559627,0.037810,-0.086423,0.026752,0.917772,-0.899385,481.395355,1.700531,0.596333,41.659676,44.965821,6997.530646,-0.015630,0.829636,1.000000,-0.935708
47.200000,4.566463,0.037513,-0.105057,0.067383,0.977544,-0.956082,481.487793,1.792969,0.580382,41.659676,44.965821,6997.530646,0.897755,0.258669,-0.590595,0.124600
47.300000,4.572380,0.036542,-0.116681,0.061899,0.469626,-1.026057,481.550964,1.856140,0.564731,41.659675,44.965821,6997.500508,-0.534720,-0.287743,0.929443,1.000000
47.400000,4.582279,0.035931,-0.123314,0.064986,0.175480,-1.148227,481.564606,1.869751,0.549442,41.659674,44.965821,6997.500508,-0.226661,-0.051665,0.208409,-0.272398
47.500000,4.599926,0.035032,-0.123731,0.070502,0.012714,-1.259334,481.565430,1.870605,0.535093,41.659672,44.965820,6997.471116,1.000000,1.000000,1.000000,-1.000000
47.600000,4.613734,0.033084,-0.116451,0.050871,-0.551716,-1.307229,481.523285,1.828461,0.521482,41.659671,44.965820,6997.471116,-0.049956,-0.922719,0.778084,0.604267
47.700000,4.624198,0.030592,-0.104127,0.041293,-1.026435,-1.366830,481.431152,1.736328,0.509525,41.659670,44.965820,6997.445082,-1.000000,-1.000000,-1.000000,0.403486
47.800000,4.642134,0.029621,-0.083422,-0.010764,-0.177500,-0.901420,481.342346,1.647522,0.497502,41.659669,44.965820,6997.445082,-0.763439,0.359798,0.506747,1.000000
47.900000,4.671928,0.029196,-0.058132,0.023634,0.543001,-0.894123,481.366302,1.671478,0.486483,41.659669,44.965820,6997.421204,0.491809,-1.000000,-0.227904,0.642383
48.000000,4.706434,0.026651,-0.041560,0.021447,0.312836,-0.989027,481.407471,1.712646,0.476637,41.659668,44.965820,6997.421204,-0.293674,0.400616,-0.721609,-0.021915
48.100000,4.743826,0.022974,-0.029450,0.018319,0.102571,-1.021816,481.419586,1.724762,0.471450,41.659667,44.965820,6997.398653,-0.251333,0.008127,0.639815,-0.086147
48.200000,4.778538,0.017977,-0.019796,0.020765,-0.072443,-1.050248,481.423859,1.729034,0.470927,41.659666,44.965819,6997.398653,0.885982,1.000000,1.000000,1.000000
48.300000,4.814284,0.013110,-0.015411,0.009174,-0.366109,-1.103895,481.397797,1.702972,0.473820,41.659665,44.965819,6997.378671,-1.000000,-0.388196,-0.093148,1.000000
48.400000,4.860068,0.008024,-0.016250,0.014569,-0.291409,-1.166516,481.356140,1.661316,0.479242,41.659664,44.965819,6997.378671,-1.000000,0.188177,-1.000000,-0.428086
48.500000,4.909286,0.002100,-0.018725,0.060077,0.361349,-1.220576,481.361511,1.666687,0.485778,41.659663,44.965818,6997.359644,0.007908,-0.335264,-0.321224,-0.950130
48.600000,4.952230,-0.004474,-0.022061,0.079112,0.379426,-1.216438,481.399628,1.704803,0.493987,41.659662,44.965818,6997.359644,0.949159,0.111290,-0.159303,0.929113
48.700000,4.995360,-0.011231,-0.027957,0.075043,0.022021,-1.244973,481.415863,1.721039,0.504578,41.659661,44.965817,6997.339248,-1.000000,-0.259402,0.607295,1.000000
48.800000,5.044874,-0.016447,-0.035359,0.012066,0.065400,-1.277969,481.406738,1.711914,0.516813,41.659660,44.965816,6997.339248,-0.480696,-1.000000,-0.381700,-1.000000
48.900000,5.093947,-0.019168,-0.033836,-0.023579,0.149401,-1.253517,481.420959,1.726135,0.529469,41.659659,44.965815,6997.318479,1.000000,0.117398,1.000000,1.000000
49.000000,5.144595,-0.020402,-0.028886,-0.109760,-0.330691,-1.208042,481.408234,1.713409,0.542396,41.659658,44.965815,6997.318479,0.123627,1.000000,-0.284420,0.991866
49.100000,5.200830,-0.017369,-0.017719,-0.301822,-0.695778,-1.114528,481.348022,1.653168,0.552841,41.659657,44.965814,6997.296052,-1.000000,1.000000,1.000000,0.473703
49.200000,5.256833,-0.003085,-0.003916,-0.452154,-0.056273,-0.866940,481.311310,1.616486,0.555531,41.659656,44.965814,6997.296052,-0.138948,0.985409,1.000000,1.000000
49.300000,5.317206,0.018102,0.006608,-0.446194,-0.036288,-0.859336,481.312622,1.617798,0.551423,41.659655,44.965814,6997.270971,0.039109,-1.000000,0.698197,0.287815
49.400000,5.378871,0.038178,0.013722,-0.440045,0.013358,-0.815130,481.304108,1.609283,0.542728,41.659655,44.965813,6997.270971,-1.000000,-0.748609,0.458406,0.223359
49.500000,5.439227,0.055548,0.009743,-0.428795,0.298056,-0.864308,481.320282,1.625458,0.531945,41.659654,44.965813,6997.245145,0.155687,0.390420,-0.853342,0.340783
49.600000,5.514643,0.071801,-0.000143,-0.472257,0.296945,-0.869129,481.353485,1.658661,0.520556,41.659653,44.965812,6997.245145,0.304580,-0.099057,-1.000000,1.000000
49.700000,5.588322,0.086892,-0.012300,-0.575198,-0.130928,-0.838158,481.355804,1.661011,0.508631,41.659652,44.965812,6997.219526,0.180511,-1.000000,-0.017639,1.000000
49.800000,5.655860,0.096728,-0.021708,-0.720287,-0.247284,-0.650921,481.331024,1.636200,0.497125,41.659651,44.965812,6997.219526,0.230954,-1.000000,-0.289679,0.351156
49.900000,5.719993,0.100827,-0.037397,-0.718273,-0.073273,-0.203061,481.303772,1.608948,0.486510,41.659651,44.965811,6997.194611,0.642206,0.561767,-0.244650,1.000000
50.000000,5.777444,0.098774,-0.049251,-0.413061,0.584599,0.161467,481.312836,1.618011,0.475549,41.659650,44.965812,6997.194611,-0.748829,0.143456,0.242749,-1.000000
50.100000,5.821212,0.094558,-0.041275,-0.403925,0.494255,0.181934,481.365112,1.670288,0.466281,41.659650,44.965812,6997.171811,-0.276852,0.813860,-1.000000,0.699404
50.200000,5.859931,0.087138,-0.033108,-0.405302,0.507911,0.166462,481.416412,1.721588,0.457202,41.659649,44.965812,6997.171811,0.023060,0.687333,0.146069,0.372075
50.300000,5.898616,0.077711,-0.028727,-0.432200,0.139793,0.130710,481.447876,1.753052,0.450196,41.659649,44.965813,6997.150296,0.077119,-0.103896,-0.386766,1.000000
50.400000,5.936846,0.067834,-0.028369,-0.431338,-0.013094,0.113203,481.445557,1.750732,0.446997,41.659649,44.965813,6997.150296,-1.000000,-1.000000,-1.000000,-0.775463
50.500000,5.974867,0.055321,-0.028194,-0.385393,0.208766,0.110908,481.455048,1.760223,0.446377,41.659648,44.965813,6997.129692,0.274093,-1.000000,-1.000000,0.904429
50.600000,6.009598,0.040825,-0.028447,-0.353745,0.128455,0.094647,481.476776,1.781952,0.447943,41.659648,44.965813,6997.129692,0.741770,0.497462,-0.584251,0.468465
50.700000,6.043799,0.027008,-0.031830,-0.344190,-0.336389,0.073104,481.465729,1.770905,0.452177,41.659648,44.965814,6997.111204,-0.231043,0.042323,1.000000,0.482964
50.800000,6.081915,0.012983,-0.037931,-0.315929,-0.785659,0.052234,481.407135,1.712311,0.458818,41.659647,44.965814,6997.111204,0.758400,1.000000,-0.460794,0.364263
50.900000,6.120730,0.002052,-0.028485,-0.294222,-0.749861,0.045084,481.316833,1.622009,0.466619,41.659647,44.965814,6997.093254,-0.093225,-0.757855,1.000000,-0.395275
51.000000,6.146900,0.006884,0.003343,-0.200269,0.061643,0.220495,481.283722,1.588898,0.474202,41.659647,44.965814,6997.093254,0.669415,-0.346456,-0.483527,1.000000
51.100000,6.158823,0.022880,0.005375,-0.150969,-0.148265,0.033191,481.286926,1.592102,0.480766,41.659647,44.965814,6997.074474,0.755737,-1.000000,-0.480360,0.782095
51.200000,6.169555,0.038906,0.005630,-0.203560,-0.159866,0.007468,481.266663,1.571838,0.484635,41.659647,44.965814,6997.074474,-1.000000,-0.857645,1.000000,0.566509
51.300000,6.173876,0.049894,0.001258,-0.145557,0.297635,-0.061300,481.271912,1.577087,0.484450,41.659647,44.965814,6997.054949,-0.290273,0.780756,0.446485,-0.740749
51.400000,6.172763,0.057477,-0.001361,-0.116515,0.459342,-0.020154,481.316193,1.621368,0.483186,41.659646,44.965814,6997.054949,0.442608,0.852877,0.817600,-0.305224
51.500000,6.163139,0.063749,-0.000752,-0.122456,0.150858,0.037916,481.344391,1.649567,0.482537,41.659646,44.965814,6997.034719,-0.725711,1.000000,-0.124820,-0.351259
51.600000,6.149048,0.068200,0.002487,-0.099112,0.237255,0.063370,481.358215,1.663391,0.483382,41.659646,44.965814,6997.034719,-0.116483,-0.730491,-0.613375,-0.202934
51.700000,6.129653,0.069996,0.008707,-0.056519,0.444242,0.102090,481.393707,1.698883,0.485686,41.659646,44.965814,6997.014074,-0.654810,-1.000000,0.058463,-1.000000
51.800000,6.101732,0.068788,0.016475,-0.044104,0.374159,0.169897,481.440735,1.745911,0.490186,41.659646,44.965814,6997.014074,0.937425,-0.738395,-0.249678,-0.507013
51.900000,6.068927,0.066282,0.024349,-0.072136,-0.072879,0.226706,481.454163,1.759338,0.498496,41.659646,44.965815,6996.994549,-0.474526,1.000000,0.190298,0.313364
52.000000,6.037014,0.062415,0.031210,-0.084293,-0.352503,0.264315,481.425873,1.731049,0.509327,41.659646,44.965815,6996.994549,-0.412997,0.299481,-1.000000,-0.687111
52.100000,6.008179,0.056205,0.037902,-0.043040,-0.007428,0.303391,481.406616,1.711792,0.520633,41.659646,44.965815,6996.974692,-0.179493,0.700763,-0.222432,-0.435205
52.200000,5.980142,0.048310,0.045114,-0.028092,-0.013160,0.361489,481.408722,1.713898,0.529909,41.659646,44.965816,6996.974692,0.183034,0.993266,0.964532,1.000000
52.300000,5.956481,0.038798,0.050670,-0.037496,-0.439928,0.390052,481.387024,1.692200,0.538185,41.659646,44.965816,6996.952762,0.807948,1.000000,1.000000,-0.062777
52.400000,5.943087,0.029340,0.051327,-0.025599,-0.578226,0.185115,481.320435,1.625610,0.543740,41.659646,44.965816,6996.952762,-0.579753,-0.506271,-1.000000,1.000000
52.500000,5.935217,0.025379,0.034500,-0.060601,-0.065372,-0.302654,481.294281,1.599457,0.543091,41.659646,44.965816,6996.929548,0.885154,-0.182415,-0.130116,-0.634882
52.600000,5.930316,0.025554,0.006865,-0.049669,-0.204008,-0.372352,481.282990,1.588165,0.537301,41.659646,44.965816,6996.929548,-0.744408,-0.420695,-1.000000,-1.000000
