t,yaw,pitch,roll,speed.x,speed.y,speed.z,altBar,altRad,egt,myloclat,myloclon,weightlb,collective,bank,pitch,rudder
0.100000,5.374795,0.031623,0.000880,-0.098273,0.517295,0.028484,481.239288,1.544464,0.000000,41.659724,44.965707,7004.964901,0.698007,0.567999,-0.655713,0.664157
0.200000,5.373226,0.037367,0.003419,-0.060699,0.053899,0.051368,481.263641,1.568817,0.000000,41.659724,44.965707,7004.964901,-1.000000,-1.000000,0.163683,-1.000000
0.300000,5.372137,0.042300,0.007540,-0.065709,0.028726,0.060212,481.265137,1.570343,0.000000,41.659724,44.965707,7000.556034,-1.000000,-0.372844,-0.018298,1.000000
0.400000,5.372080,0.044972,0.007516,-0.021789,0.216089,-0.077450,481.276001,1.581177,0.000000,41.659724,44.965707,7000.556034,-0.137212,1.000000,-0.489167,-0.099648
0.500000,5.373845,0.046253,0.002509,-0.002604,0.070871,-0.076900,481.295013,1.600189,0.000000,41.659724,44.965707,7000.556034,0.147007,-1.000000,-1.000000,-0.540649
0.600000,5.370849,0.045677,0.000268,-0.001458,-0.018057,-0.007498,481.296631,1.601807,0.000000,41.659724,44.965707,7000.556034,-0.184823,-1.000000,1.000000,-0.970623
0.700000,5.357732,0.042215,-0.000478,-0.000499,0.149529,0.007279,481.299286,1.604462,0.000000,41.659724,44.965707,7000.541649,-0.580219,-0.204330,0.286264,1.000000
0.800000,5.344395,0.036326,0.001289,0.037053,0.275105,-0.011906,481.325073,1.630249,0.000000,41.659724,44.965707,7000.541649,0.223213,0.376215,-1.000000,-0.723393
0.900000,5.335440,0.029252,0.004002,0.077764,0.280948,-0.028490,481.351135,1.656311,0.000000,41.659724,44.965707,7000.527430,-0.738856,-0.704539,0.319513,0.970884
1.000000,5.330627,0.019821,0.007553,0.142408,0.437540,-0.057775,481.385040,1.690216,0.000000,41.659724,44.965707,7000.527430,-0.247597,1.000000,-0.464936,-0.022140
1.100000,5.333927,0.008283,0.011037,0.203827,0.517285,-0.087984,481.437012,1.742188,0.000000,41.659724,44.965707,7000.511967,-0.335496,1.000000,0.903401,1.000000
1.200000,5.345836,-0.003666,0.014172,0.248543,0.327300,-0.115185,481.481628,1.786804,0.000000,41.659724,44.965706,7000.511967,0.632068,0.997690,-1.000000,0.530360
1.300000,5.368887,-0.016512,0.015384,0.291813,-0.117913,-0.128284,481.491241,1.796417,0.000000,41.659725,44.965706,7000.493478,-0.389901,0.301274,-0.191556,0.396822
1.400000,5.400046,-0.029065,0.014557,0.347139,-0.546770,-0.139339,481.457367,1.762543,0.000000,41.659725,44.965706,7000.493478,1.000000,-0.645971,-0.811895,0.631920
1.500000,5.433573,-0.037926,0.010614,0.404839,-0.660522,-0.273750,481.391602,1.696777,0.000000,41.659725,44.965705,7000.472833,-0.691004,1.000000,0.182250,-0.228028
1.600000,5.463411,-0.033482,0.010801,0.123308,-0.023425,-0.456619,481.352325,1.657501,0.000000,41.659725,44.965705,7000.472833,-0.879417,-0.980347,-0.151150,-0.119806
1.700000,5.486847,-0.020588,0.007348,0.155037,0.261104,-0.442087,481.370239,1.675415,0.000000,41.659725,44.965704,7000.449867,0.257528,-0.036840,-0.247433,-1.000000
1.800000,5.501352,-0.009650,0.010834,0.230130,0.163370,-0.357653,481.395447,1.700623,0.000000,41.659725,44.965704,7000.449867,0.329560,-1.000000,-1.000000,-0.794668
1.900000,5.506063,0.001237,0.020995,0.259174,-0.446084,-0.264397,481.384033,1.689209,0.000000,41.659725,44.965703,7000.424331,1.000000,0.325070,-0.704974,0.467069
2.000000,5.510670,0.012142,0.022856,0.070278,-0.934647,-0.245420,481.306183,1.611328,0.000000,41.659725,44.965703,7000.424331,1.000000,0.560388,0.281528,1.000000
2.100000,5.517778,0.025430,-0.002992,-0.284914,-0.139292,-0.408240,481.244141,1.549316,0.000000,41.659724,44.965702,7000.398007,-0.220878,0.092783,-1.000000,1.000000
2.200000,5.528934,0.043077,-0.014794,-0.313805,0.338893,-0.060590,481.261932,1.567108,0.000000,41.659724,44.965702,7000.398007,-0.413974,1.000000,0.804636,-0.976704
2.300000,5.541722,0.053988,-0.015227,-0.276437,0.674836,0.060742,481.311005,1.616180,0.000000,41.659724,44.965703,7000.371434,-1.000000,0.086814,-0.213228,-1.000000
2.400000,5.546461,0.060128,-0.007384,-0.188628,1.445656,0.096784,481.405609,1.710785,0.000000,41.659723,44.965703,7000.371434,-0.931068,-1.000000,1.000000,-0.327480
2.500000,5.542642,0.061663,0.008603,-0.105189,2.206963,0.075110,481.597717,1.902863,0.000000,41.659723,44.965703,7000.344986,-0.505745,-0.763632,0.628813,0.384772
2.600000,5.540562,0.059088,0.025047,-0.068163,2.480874,0.025587,481.841766,2.146942,0.000000,41.659723,44.965703,7000.344986,-0.353303,-0.367933,-0.969155,0.208558
2.700000,5.544618,0.053752,0.038031,-0.046487,2.527170,-0.005318,482.080872,2.386047,0.000000,41.659723,44.965704,7000.321647,-0.635764,1.000000,-0.563859,0.512557
2.800000,5.555734,0.044778,0.048933,-0.003795,2.793952,-0.011038,482.346191,2.651367,0.000000,41.659723,44.965704,7000.321647,-1.000000,-1.000000,1.000000,-1.000000
2.900000,5.569135,0.032489,0.058431,0.016718,2.944034,0.015773,482.646118,2.951294,0.000000,41.659723,44.965704,7000.300173,0.625570,0.754380,1.000000,1.000000
3.000000,5.585083,0.019752,0.064407,-0.000137,2.523497,0.057882,482.911133,3.216309,0.000000,41.659723,44.965704,7000.300173,-0.377117,-1.000000,-1.000000,0.238041
3.100000,5.609861,0.005850,0.065732,0.000242,2.013473,0.117374,483.138794,3.443939,0.000000,41.659723,44.965705,7000.277124,0.198851,1.000000,0.234863,-0.373546
3.200000,5.637922,-0.008076,0.063810,0.026149,1.532063,0.211841,483.319397,3.624573,0.000000,41.659723,44.965705,7000.277124,-0.105596,-0.833256,0.318194,0.328775
3.300000,5.667334,-0.020846,0.059208,0.066631,1.000983,0.277773,483.438843,3.744019,0.000000,41.659724,44.965705,7000.252749,0.300089,-1.000000,-0.910569,1.000000
3.400000,5.707710,-0.034061,0.049314,0.128606,0.380734,0.306371,483.508240,3.813416,0.000000,41.659724,44.965705,7000.252749,0.533213,0.321503,-0.801966,1.000000
3.500000,5.759016,-0.046341,0.033806,0.217576,-0.139943,0.325993,483.514374,3.819550,0.000000,41.659724,44.965706,7000.226798,-0.664460,1.000000,-0.462608,-0.176412
3.600000,5.811573,-0.056827,0.017529,0.336733,-0.287303,0.322679,483.488739,3.793915,0.000000,41.659724,44.965706,7000.226798,0.188491,0.262761,0.589824,1.000000
3.700000,5.871955,-0.066927,-0.000534,0.476309,-0.373565,0.274040,483.453522,3.758698,0.000000,41.659725,44.965706,7000.198608,-0.459846,0.644855,-0.361021,1.000000
3.800000,5.939111,-0.075478,-0.020391,0.617360,-0.501741,0.192661,483.405151,3.710327,0.000000,41.659725,44.965706,7000.198608,0.215849,1.000000,1.000000,0.201096
3.900000,6.004902,-0.081909,-0.038723,0.763749,-0.378271,0.098748,483.354889,3.660095,0.000000,41.659726,44.965706,7000.170170,-1.000000,0.349445,-1.000000,-0.019464
4.000000,6.073565,-0.087640,-0.054821,0.939670,0.088264,-0.008647,483.327087,3.632263,0.000000,41.659727,44.965706,7000.170170,-1.000000,0.462857,1.000000,0.562197
4.100000,6.142207,-0.093339,-0.067462,1.120068,0.656155,-0.181304,483.363708,3.668884,0.000000,41.659728,44.965706,7000.141442,-0.038521,1.000000,1.000000,-0.136262
4.200000,6.207153,-0.098134,-0.079679,1.253589,0.703124,-0.307515,483.419403,3.724579,0.000000,41.659729,44.965706,7000.141442,-0.425052,-0.505301,-0.788221,-0.034326
4.300000,6.267727,-0.102674,-0.089661,1.367225,0.317674,-0.423424,483.458984,3.764160,0.000000,41.659730,44.965705,7000.113584,1.000000,1.000000,-0.911006,0.028365
4.400000,0.039068,-0.105961,-0.097132,1.472723,-0.175506,-0.554427,483.443481,3.748627,0.000000,41.659731,44.965705,7000.113584,-1.000000,-0.234874,1.000000,0.165262
4.500000,0.088168,-0.107882,-0.100861,1.585339,-0.191924,-0.702629,483.399170,3.704346,0.000000,41.659733,44.965705,7000.088753,0.183259,-1.000000,-0.104660,0.061696
4.600000,0.138318,-0.109077,-0.099377,1.703971,-0.141770,-0.850689,483.362061,3.667236,0.000000,41.659734,44.965704,7000.088753,0.129817,0.430440,-1.000000,-0.149604
4.700000,0.180006,-0.109981,-0.092147,1.809851,-0.434177,-0.928400,483.302399,3.607574,0.000000,41.659736,44.965704,7000.065413,-0.243452,-1.000000,-0.046170,-0.618363
4.800000,0.208210,-0.110992,-0.079318,1.915145,-0.754378,-0.984786,483.221039,3.526215,0.000000,41.659738,44.965704,7000.065413,1.000000,1.000000,0.110766,1.000000
4.900000,0.235597,-0.111320,-0.066096,2.011348,-1.461033,-1.052893,483.082184,3.387360,0.000000,41.659739,44.965703,7000.042116,1.000000,0.503463,-0.642163,-1.000000
5.000000,0.257465,-0.110898,-0.054242,2.103980,-2.269392,-1.048339,482.859528,3.164703,0.000000,41.659741,44.965703,7000.042116,-1.000000,0.579305,-0.449639,-1.000000
5.100000,0.262709,-0.110017,-0.037496,2.204778,-2.469627,-0.917441,482.601044,2.906219,0.000000,41.659743,44.965703,7000.020518,0.121787,1.000000,0.663515,-1.000000
5.200000,0.246427,-0.107674,-0.008570,2.325293,-2.114578,-0.700192,482.346832,2.652008,0.000000,41.659745,44.965703,7000.020518,-0.046254,1.000000,0.686218,-1.000000
5.300000,0.211519,-0.103034,0.024037,2.452610,-1.499486,-0.487062,482.128021,2.433167,0.000000,41.659747,44.965703,6999.999873,-1.000000,1.000000,-0.022587,0.897647
5.400000,0.175981,-0.096432,0.050688,2.586815,-0.821206,-0.372224,482.003845,2.309052,0.000000,41.659749,44.965704,6999.999873,1.000000,-0.081385,-0.700630,-0.087122
5.500000,0.144098,-0.088398,0.068973,2.708000,-0.871369,-0.253352,481.895966,2.201141,0.000000,41.659751,44.965704,6999.979850,-1.000000,-1.000000,-1.000000,0.914907
5.600000,0.118686,-0.079695,0.077200,2.824151,-0.644554,-0.161381,481.788666,2.093872,0.000000,41.659754,44.965705,6999.979850,-0.932343,1.000000,0.887796,0.020864
5.700000,0.100133,-0.071332,0.076723,2.942307,-0.311945,-0.074303,481.730438,2.035614,0.000000,41.659756,44.965706,6999.961527,0.785068,0.399485,-1.000000,0.278434
5.800000,0.083595,-0.062430,0.071020,3.039009,-0.520740,0.046357,481.672058,1.977234,0.000000,41.659759,44.965706,6999.961527,-0.103711,0.012886,-1.000000,-0.342589
5.900000,0.068179,-0.053185,0.062119,3.111059,-0.893139,0.175895,481.578430,1.883606,0.000000,41.659761,44.965707,6999.943287,0.224967,-0.067557,-0.672747,-0.299761
6.000000,0.051824,-0.043807,0.051859,3.109867,-0.694265,0.276364,481.477539,1.782715,0.000000,41.659764,44.965708,6999.943287,-0.898078,-1.000000,0.268161,-0.103148
6.100000,0.034106,-0.032127,0.029799,3.101883,-0.109493,0.360999,481.427307,1.732483,0.000000,41.659767,44.965709,6999.922932,0.196150,-1.000000,0.250291,-0.695533
6.200000,0.014741,-0.020855,0.011876,3.171759,-0.037978,0.456584,481.418671,1.723846,0.000000,41.659769,44.965710,6999.922932,0.978319,-0.528358,-0.596690,1.000000
6.300000,0.002417,-0.010952,-0.001524,3.207987,-0.452207,0.475751,481.390015,1.695190,0.000000,41.659772,44.965711,6999.901127,-0.482451,0.325687,-0.057785,1.000000
6.400000,0.002689,-0.000530,-0.009032,3.133666,-0.662591,0.412812,481.326508,1.631714,0.000000,41.659775,44.965712,6999.901127,0.805420,1.000000,1.000000,0.344486
6.500000,0.013537,0.010387,0.005290,2.472907,-0.072493,0.321483,481.284332,1.589508,0.000000,41.659777,44.965713,6999.877829,-0.051726,1.000000,-0.294554,1.000000
6.600000,0.031774,0.015112,0.004173,2.123264,0.069890,0.209743,481.288727,1.593903,0.000000,41.659779,44.965714,6999.877829,-1.000000,0.327047,0.578653,-0.886661
6.700000,0.052550,0.016512,0.002442,2.133116,0.227512,0.183633,481.307007,1.612183,0.000000,41.659781,44.965715,6999.853164,0.368624,-0.031096,-1.000000,0.765337
6.800000,0.072523,0.014894,0.004097,2.193036,0.164891,0.149990,481.336395,1.641541,0.000000,41.659783,44.965715,6999.853164,-0.075298,-0.698258,-0.618274,-0.064825
6.900000,0.093192,0.011735,0.006100,2.215783,-0.329868,0.126558,481.332489,1.637665,0.000000,41.659785,44.965716,6999.828995,1.000000,-0.354901,0.220278,0.362029
7.000000,0.114890,0.007700,0.001632,1.866941,-0.319082,0.021851,481.286041,1.591248,0.000000,41.659787,44.965717,6999.828995,-0.079243,-1.000000,-1.000000,-0.429845
7.100000,0.130814,0.001773,-0.001823,1.111892,0.293244,-0.056467,481.296539,1.601746,0.000000,41.659788,44.965717,6999.805863,-0.993704,0.829663,-0.350339,-0.836990
7.200000,0.135452,-0.002471,0.001747,1.044850,0.394270,-0.002501,481.328033,1.633179,0.000000,41.659789,44.965718,6999.805863,0.145943,0.577027,-1.000000,1.000000
7.300000,0.135516,-0.008864,0.007182,1.123440,0.406437,0.008733,481.372253,1.677399,0.000000,41.659790,44.965718,6999.783519,-0.432883,-0.441338,1.000000,-1.000000
7.400000,0.133156,-0.017097,0.013757,1.199462,0.337963,0.053096,481.407349,1.712524,0.000000,41.659791,44.965718,6999.783519,0.019686,0.687235,-0.852049,-1.000000
7.500000,0.119020,-0.026101,0.024025,1.282108,0.374365,0.177835,481.438141,1.743317,0.000000,41.659792,44.965719,6999.763206,-0.519947,0.452028,-0.609579,-0.920870
7.600000,0.087097,-0.036573,0.040142,1.381513,0.551396,0.314332,481.477509,1.782715,0.000000,41.659793,44.965720,6999.763206,-0.371526,1.000000,0.523175,0.724171
7.700000,0.051631,-0.048640,0.056951,1.509400,1.020765,0.379283,481.547394,1.852570,0.000000,41.659794,44.965720,6999.744303,-1.000000,0.965884,-0.227478,-0.567045
7.800000,0.022237,-0.062028,0.071382,1.627211,1.323817,0.460792,481.653290,1.958466,0.000000,41.659796,44.965721,6999.744303,0.178764,-1.000000,1.000000,0.094396
7.900000,6.275768,-0.077000,0.085626,1.717799,1.125179,0.580697,481.767731,2.072906,0.000000,41.659797,44.965722,6999.725524,0.538210,-0.200690,0.381096,-0.233122
8.000000,6.249257,-0.091243,0.097398,1.799851,0.607791,0.730007,481.831940,2.137115,0.000000,41.659799,44.965724,6999.725524,-0.400784,0.634644,-0.427744,-0.194900
8.100000,6.225044,-0.103423,0.107194,1.905100,0.565395,0.884498,481.856018,2.161194,0.000000,41.659800,44.965725,6999.706703,-1.000000,-0.383136,1.000000,-0.584862
8.200000,6.199142,-0.115415,0.118122,2.052593,0.963914,1.035193,481.904541,2.209717,0.000000,41.659802,44.965726,6999.706703,0.320349,0.386758,0.027800,0.251560
8.300000,6.177565,-0.127361,0.128874,2.207090,1.070393,1.186661,481.966888,2.272034,0.000000,41.659804,44.965728,6999.685644,-1.000000,1.000000,-0.258153,-0.319842
8.400000,6.162238,-0.138826,0.139035,2.362020,1.095029,1.344712,482.025208,2.330353,0.000000,41.659806,44.965729,6999.685644,0.563634,-0.207198,-0.278745,-0.306924
8.500000,6.149122,-0.150593,0.149503,2.520999,0.861473,1.504951,482.069183,2.374329,0.000000,41.659808,44.965731,6999.661641,-0.506045,0.321113,-0.384416,0.721020
8.600000,6.144133,-0.162089,0.155559,2.697269,0.679542,1.645761,482.076324,2.381500,0.000000,41.659811,44.965733,6999.661641,0.167345,-1.000000,0.014053,-1.000000
8.700000,6.141773,-0.171789,0.157893,2.894784,0.905341,1.797568,482.077515,2.382690,0.000000,41.659813,44.965735,6999.636520,-1.000000,0.349560,-1.000000,-0.519811
8.800000,6.133158,-0.180090,0.159509,3.128557,1.450725,1.975399,482.104767,2.409943,0.000000,41.659816,44.965738,6999.636520,-1.000000,0.881755,-0.188151,0.367759
8.900000,6.128545,-0.190269,0.159805,3.456215,2.606471,2.085772,482.212189,2.517365,0.000000,41.659819,44.965741,6999.609906,-1.000000,1.000000,0.387148,0.063334
9.000000,6.134978,-0.203979,0.161784,3.758884,3.406747,2.144906,482.398224,2.703400,0.000000,41.659823,44.965744,6999.609906,-0.453308,-1.000000,-0.467362,1.000000
9.100000,6.154610,-0.221277,0.162465,4.048329,3.546258,2.176689,482.628632,2.933807,0.000000,41.659827,44.965747,6999.581094,0.031139,0.335781,1.000000,-0.659277
9.200000,6.183359,-0.238629,0.160523,4.338156,3.166389,2.195409,482.828979,3.134155,0.000000,41.659831,44.965750,6999.581094,0.742428,0.452201,0.000377,1.000000
9.300000,6.218674,-0.254067,0.155151,4.646978,2.694085,2.156994,482.958191,3.263367,0.000000,41.659835,44.965754,6999.552324,-1.000000,0.150129,1.000000,1.000000
9.400000,6.270057,-0.270398,0.141803,5.050856,2.547911,2.000197,483.049957,3.355133,0.000000,41.659840,44.965757,6999.552324,-1.000000,0.226614,-0.013453,0.751895
9.500000,0.049698,-0.286537,0.120879,5.510206,2.743821,1.766367,483.135529,3.440704,0.000000,41.659844,44.965761,6999.522767,-0.075037,-1.000000,0.832159,0.372164
9.600000,0.114254,-0.300379,0.095493,5.933493,2.727273,1.505753,483.213806,3.518982,0.000000,41.659849,44.965765,6999.522767,0.319220,-0.408982,-1.000000,-0.916630
9.700000,0.179703,-0.311324,0.067758,6.331678,2.195020,1.294456,483.254700,3.559875,0.000000,41.659855,44.965769,6999.491510,1.000000,0.192387,1.000000,-0.016971
9.800000,0.233246,-0.317347,0.045682,6.700801,1.504721,1.121685,483.218689,3.523865,0.000000,41.659860,44.965773,6999.491510,-0.582479,1.000000,-0.314202,-0.800223
9.900000,0.275702,-0.319104,0.029778,7.038972,1.259526,0.922537,483.128906,3.434082,0.000000,41.659865,44.965777,6999.460543,-0.856113,-0.017591,-1.000000,1.000000
10.000000,0.320406,-0.316875,0.015225,7.408081,1.967705,0.615101,483.045074,3.350250,0.000000,41.659871,44.965782,6999.460543,-1.000000,-0.318062,0.312102,0.639014
10.100000,0.369021,-0.311631,0.001750,7.809170,2.528506,0.235259,483.034210,3.339386,0.000000,41.659877,44.965787,6999.429659,0.594579,0.002112,-1.000000,-0.798234
10.200000,0.411325,-0.304965,-0.008082,8.141821,2.286801,-0.042803,483.024719,3.329895,0.000000,41.659883,44.965792,6999.429659,-0.708803,0.405656,1.000000,0.203577
10.300000,0.446739,-0.296000,-0.012331,8.459776,1.848329,-0.285269,482.975494,3.280670,0.000000,41.659890,44.965797,6999.399604,0.721049,1.000000,-0.655321,-0.482990
10.400000,0.475993,-0.285122,-0.012378,8.749889,1.300555,-0.512037,482.879211,3.184357,0.000000,41.659896,44.965803,6999.399604,-0.024276,0.610071,-0.238883,0.806786
10.500000,0.501585,-0.273149,-0.011236,8.992183,0.893847,-0.713680,482.739685,3.044891,0.000000,41.659903,44.965808,6999.373280,-0.668194,-0.428067,0.301127,-0.767272
10.600000,0.524011,-0.257786,-0.004816,9.227379,0.998704,-0.879715,482.588867,2.894043,0.000000,41.659910,44.965814,6999.373280,0.169688,1.000000,1.000000,-1.000000
10.700000,0.534648,-0.240129,0.009830,9.461277,0.961221,-0.921283,482.452148,2.757324,0.000000,41.659917,44.965820,6999.349153,-0.543091,-0.325790,-0.134396,0.755851
10.800000,0.539354,-0.222070,0.025896,9.673262,0.752613,-0.939736,482.326172,2.631348,0.000000,41.659924,44.965826,6999.349153,0.514371,0.266422,0.527239,0.461707
10.900000,0.545248,-0.202223,0.039350,9.873177,0.240444,-0.959653,482.170685,2.475861,0.000000,41.659931,44.965833,6999.325731,-0.053186,-0.221355,-0.181729,0.214151
11.000000,0.550860,-0.181869,0.048930,10.035104,-0.124540,-0.948236,481.980988,2.286163,0.000000,41.659938,44.965839,6999.325731,-0.325571,0.305341,-0.720856,-1.000000
11.100000,0.547524,-0.161331,0.058444,10.172674,-0.406872,-0.772747,481.799957,2.105133,0.000000,41.659946,44.965846,6999.304672,1.000000,-0.769757,0.970210,-1.000000
11.200000,0.526201,-0.137387,0.058749,9.917843,-0.542344,-0.383309,481.593719,1.898895,0.000000,41.659953,44.965853,6999.304672,-0.330572,0.065260,1.000000,-0.545721
11.300000,0.497764,-0.109058,0.020290,8.993146,0.329563,-0.070532,481.451416,1.756592,0.000000,41.659960,44.965859,6999.284608,-0.143346,-1.000000,1.000000,-0.071600
11.400000,0.468174,-0.078402,-0.002993,8.621056,0.683665,0.250345,481.434082,1.739258,0.000000,41.659966,44.965865,6999.284608,-0.109925,0.015381,1.000000,-0.984126
11.500000,0.431592,-0.048425,-0.009779,8.711710,0.300333,0.589419,481.428650,1.733826,0.000000,41.659972,44.965871,6999.264585,-0.071271,0.566176,0.477524,1.000000
11.600000,0.398839,-0.022136,-0.013790,8.708945,0.078697,0.846245,481.418213,1.723389,0.000000,41.659978,44.965878,6999.264585,-0.288455,-0.108070,0.403958,0.707720
11.700000,0.376735,-0.001181,-0.015514,8.771670,0.219811,0.998146,481.419281,1.724457,0.000000,41.659985,44.965884,6999.245516,-1.000000,1.000000,0.396065,-1.000000
11.800000,0.357439,0.016191,-0.010357,8.874586,0.854138,1.142181,481.477661,1.782837,0.000000,41.659991,44.965890,6999.245516,-1.000000,-1.000000,0.473907,0.919252
11.900000,0.342788,0.027681,-0.000855,8.966613,1.318126,1.206051,481.620056,1.925232,0.000000,41.659998,44.965896,6999.226446,1.000000,-0.546287,-0.482599,1.000000
12.000000,0.340086,0.034911,0.005061,8.987245,0.931208,1.172819,481.759552,2.064728,0.000000,41.660004,44.965902,6999.226446,0.476605,-1.000000,-1.000000,0.637572
12.100000,0.349512,0.040151,0.006913,9.002912,0.384040,1.066054,481.856171,2.161346,0.000000,41.660011,44.965908,6999.206051,-0.820111,1.000000,-1.000000,0.494800
12.200000,0.368875,0.042373,0.005119,9.043078,0.120546,0.866873,481.917969,2.223145,0.000000,41.660017,44.965914,6999.206051,0.415502,-0.981364,-0.571936,0.932787
12.300000,0.395381,0.041830,0.000192,9.066319,-0.280881,0.631147,481.949982,2.255157,0.000000,41.660024,44.965921,6999.184909,0.531047,0.739512,-0.053849,-0.999954
12.400000,0.424521,0.039419,-0.006652,9.068681,-0.885518,0.415056,481.926697,2.231873,0.000000,41.660031,44.965927,6999.184909,0.165662,1.000000,0.187988,0.587731
12.500000,0.452622,0.035410,-0.013596,9.067262,-1.490611,0.177533,481.841217,2.146393,0.000000,41.660037,44.965933,6999.161569,1.000000,0.472623,-0.384442,0.809437
12.600000,0.485189,0.030570,-0.021732,9.059675,-2.128152,-0.139739,481.697174,2.002350,0.000000,41.660044,44.965939,6999.161569,0.659036,-0.181218,0.108347,-0.065822
12.700000,0.523112,0.024668,-0.030881,9.050104,-2.772257,-0.473609,481.469757,1.774933,0.000000,41.660051,44.965946,6999.135743,0.774070,-1.000000,-0.263083,-0.923413
12.800000,0.552264,0.014880,-0.024419,7.883502,-1.681601,-0.495044,481.204437,1.509613,0.000000,41.660057,44.965952,6999.135743,-1.000000,1.000000,0.292455,0.520383
12.900000,0.570480,-0.019359,-0.003946,4.984707,1.706230,-0.319499,481.243469,1.548645,0.000000,41.660061,44.965956,6999.109087,-0.251447,0.674923,0.641452,1.000000
13.000000,0.595606,-0.052519,-0.000510,4.872473,2.237081,-0.489986,481.431335,1.736511,0.000000,41.660065,44.965960,6999.109087,-1.000000,0.885026,1.000000,0.089434
13.100000,0.625455,-0.084994,-0.002766,4.955112,2.801502,-0.653041,481.649658,1.954834,0.000000,41.660069,44.965963,6999.081934,-0.643787,-0.312103,0.596855,0.606803
13.200000,0.653068,-0.115198,-0.006963,5.046197,3.399000,-0.807649,481.902252,2.207428,0.000000,41.660072,44.965967,6999.081934,-0.599871,-1.000000,-0.815496,0.558987
13.300000,0.687552,-0.145807,-0.016422,5.115706,3.467758,-1.000400,482.187408,2.492584,0.000000,41.660076,44.965971,6999.055900,0.555563,1.000000,-0.115862,1.000000
13.400000,0.728988,-0.173433,-0.032503,5.187259,3.217001,-1.215107,482.435120,2.740265,0.000000,41.660080,44.965975,6999.055900,-1.000000,-1.000000,-0.571723,0.404106
13.500000,0.772963,-0.196542,-0.051871,5.281581,3.073867,-1.451622,482.633759,2.938965,0.000000,41.660085,44.965979,6999.033017,0.617745,0.079121,1.000000,0.112182
13.600000,0.824507,-0.217787,-0.075563,5.389354,2.859922,-1.739200,482.808136,3.113312,0.000000,41.660089,44.965983,6999.033017,-0.770626,-0.165404,-0.839655,0.313446
13.700000,0.877555,-0.235355,-0.099946,5.497506,2.456627,-2.017710,482.931000,3.236176,0.000000,41.660093,44.965988,6999.011295,0.968598,1.000000,1.000000,-0.366075
13.800000,0.922475,-0.248961,-0.119254,5.615065,1.967033,-2.253943,482.987152,3.292358,0.000000,41.660098,44.965993,6999.011295,0.321479,-0.260998,0.260143,-0.553335
13.900000,0.957407,-0.261240,-0.130460,5.776245,1.421432,-2.430514,482.973297,3.278503,0.000000,41.660102,44.965997,6998.987417,-1.000000,-0.332952,-0.208953,-0.534325
14.000000,0.979153,-0.271766,-0.127530,5.995886,1.573288,-2.583739,482.921509,3.226715,0.000000,41.660107,44.966002,6998.987417,-0.702770,-0.020372,0.368104,-0.050032
14.100000,0.994692,-0.279805,-0.112958,6.236073,2.045297,-2.774142,482.900299,3.205475,0.000000,41.660111,44.966007,6998.962792,-0.378800,0.065995,0.530145,1.000000
14.200000,1.014987,-0.286246,-0.095627,6.501473,2.491475,-3.070187,482.908417,3.213562,0.000000,41.660116,44.966013,6998.962792,-1.000000,-0.757970,-0.292803,-0.453041
14.300000,1.048006,-0.290625,-0.085168,6.727922,2.605622,-3.418154,482.942841,3.248047,0.000000,41.660122,44.966019,6998.938085,1.000000,0.989621,-0.749758,-1.000000
14.400000,1.068828,-0.294201,-0.071079,6.939351,2.112833,-3.565700,482.947540,3.252716,0.000000,41.660127,44.966026,6998.938085,1.000000,-1.000000,0.023930,0.861825
14.500000,1.086812,-0.296210,-0.057250,7.164273,1.361115,-3.760874,482.883698,3.188873,0.000000,41.660132,44.966032,6998.914000,-0.014622,0.693860,1.000000,1.000000
14.600000,1.113163,-0.294937,-0.050849,7.346117,0.781241,-4.008189,482.747498,3.052673,0.000000,41.660138,44.966039,6998.914000,-0.818869,-1.000000,-1.000000,-0.083837
14.700000,1.142893,-0.289470,-0.046124,7.466297,0.878003,-4.257891,482.594879,2.900055,0.000000,41.660143,44.966045,6998.891531,0.069010,-0.199150,0.721946,1.000000
14.800000,1.177839,-0.278178,-0.038403,7.576569,1.238168,-4.561483,482.464813,2.769989,0.000000,41.660149,44.966052,6998.891531,-1.000000,1.000000,1.000000,-0.030599
14.900000,1.215374,-0.262558,-0.029220,7.681359,1.505558,-4.887180,482.377625,2.682831,0.000000,41.660155,44.966060,6998.868399,0.124232,-0.249363,0.396943,1.000000
15.000000,1.252035,-0.245426,-0.020308,7.769869,1.430647,-5.194657,482.321442,2.626617,0.000000,41.660160,44.966068,6998.868399,-0.078500,-1.000000,0.816384,-0.267539
15.100000,1.290025,-0.225927,-0.013036,7.831384,0.915052,-5.489657,482.242706,2.547913,0.000000,41.660166,44.966076,6998.844314,0.080644,-0.882419,-1.000000,0.419057
15.200000,1.326131,-0.205291,-0.008345,7.863310,0.696655,-5.764048,482.138519,2.443695,0.000000,41.660172,44.966084,6998.844314,-1.000000,-0.079900,0.547205,0.221582
15.300000,1.357826,-0.184872,-0.003893,7.885122,0.664834,-5.973816,482.056519,2.361694,0.000000,41.660178,44.966093,6998.821928,0.665110,0.644330,1.000000,-1.000000
15.400000,1.380736,-0.162831,0.005096,7.942584,0.475071,-6.078398,481.974335,2.279480,0.000000,41.660184,44.966102,6998.821928,-1.000000,-0.748400,1.000000,0.741894
15.500000,1.396081,-0.140822,0.015763,8.026490,0.415883,-6.139308,481.898621,2.203796,0.000000,41.660189,44.966111,6998.800040,0.117349,1.000000,-0.504268,-0.916044
15.600000,1.404318,-0.120702,0.026542,8.143135,0.378048,-6.123339,481.853699,2.158875,0.000000,41.660195,44.966121,6998.800040,0.054484,-0.825618,-1.000000,-0.586566
15.700000,1.398915,-0.100211,0.038891,8.311563,-0.251150,-5.941638,481.788483,2.093658,0.000000,41.660201,44.966130,6998.777862,0.456345,0.191813,-0.263856,-0.069432
15.800000,1.382511,-0.080615,0.048519,8.504845,-0.950833,-5.660229,481.677856,1.983032,0.000000,41.660206,44.966140,6998.777862,0.716090,-1.000000,-0.387577,-1.000000
15.900000,1.355320,-0.062660,0.055180,8.718644,-1.466342,-5.277284,481.525726,1.830872,0.000000,41.660212,44.966149,6998.756844,-0.413137,-0.125314,-0.055250,-0.308163
16.000000,1.320092,-0.042493,0.019652,8.479982,-0.802925,-4.698578,481.378113,1.683289,0.000000,41.660217,44.966159,6998.756844,-1.000000,-0.200850,0.009669,1.000000
16.100000,1.292280,-0.023278,-0.023499,8.266982,0.656371,-4.312071,481.346893,1.652039,0.000000,41.660222,44.966168,6998.736116,-1.000000,0.020562,0.150575,1.000000
16.200000,1.275516,-0.010691,-0.049403,8.500995,1.442842,-4.250988,481.427002,1.732178,0.000000,41.660226,44.966177,6998.736116,-0.296784,-0.269947,-1.000000,-0.097225
16.300000,1.264422,-0.001510,-0.072854,8.656371,1.479205,-4.183804,481.551575,1.856750,0.000000,41.660231,44.966186,6998.714808,1.000000,-0.259788,-0.513835,-0.058941
16.400000,1.254543,0.005089,-0.092055,8.738750,0.913316,-4.138866,481.640808,1.945953,0.000000,41.660236,44.966196,6998.714808,-0.659845,-0.211789,-0.042252,1.000000
16.500000,1.250993,0.010049,-0.107615,8.778362,0.395385,-4.178456,481.668793,1.973969,0.000000,41.660242,44.966205,6998.694620,1.000000,-0.866897,0.663886,-0.772051
16.600000,1.251145,0.013853,-0.118558,8.795986,-0.118217,-4.233064,481.644958,1.950134,0.000000,41.660247,44.966214,6998.694620,-0.401392,-0.040394,0.892056,-0.053601
16.700000,1.247250,0.015233,-0.118690,8.840094,-0.361482,-4.200393,481.575714,1.880890,0.000000,41.660252,44.966224,6998.674100,-0.161929,0.647449,0.557338,-1.000000
16.800000,1.238856,0.013518,-0.103101,8.933335,-0.144446,-4.135187,481.518524,1.823700,0.000000,41.660257,44.966233,6998.674100,-0.541837,-0.184697,1.000000,0.911905
16.900000,1.231915,0.008536,-0.076701,9.049981,0.408392,-4.121797,481.498474,1.803619,0.000000,41.660262,44.966243,6998.650843,-1.000000,-0.378861,-0.220975,-0.893016
17.000000,1.227456,-0.000495,-0.048793,9.192729,1.242520,-4.142765,481.558777,1.863953,0.000000,41.660267,44.966252,6998.650843,-0.843706,-0.021001,0.291277,0.103278
17.100000,1.221963,-0.013412,-0.024701,9.347001,2.142414,-4.174692,481.701599,2.006775,0.000000,41.660272,44.966262,7000.160594,-1.000000,0.499941,-0.455633,1.000000
17.200000,1.226230,-0.031189,-0.004850,9.462094,3.136215,-4.335551,481.942841,2.248016,0.000000,41.660278,44.966272,7000.160594,-1.000000,1.000000,-1.000000,0.560285
17.300000,1.242404,-0.052365,0.009646,9.493014,3.931414,-4.567551,482.268494,2.573639,0.000000,41.660284,44.966282,7000.134892,-0.628107,-0.696952,0.768056,-1.000000
17.400000,1.260431,-0.073927,0.021073,9.474251,4.297207,-4.730891,482.617798,2.922974,0.000000,41.660289,44.966293,7000.134892,-0.417984,0.067570,0.965456,0.414594
17.500000,1.276815,-0.097106,0.032479,9.472334,4.595073,-4.861915,482.996857,3.302032,0.000000,41.660295,44.966303,7000.107863,-1.000000,0.304203,1.000000,-1.000000
17.600000,1.291718,-0.120496,0.043276,9.483483,4.823474,-4.986574,483.392853,3.698029,0.000000,41.660300,44.966314,7000.107863,0.148096,-1.000000,-0.012995,1.000000
17.700000,1.308796,-0.141994,0.050807,9.482037,4.834198,-5.132926,483.755341,4.060516,0.000000,41.660305,44.966325,7000.080420,-1.000000,0.736368,-0.273620,-0.418832
17.800000,1.333169,-0.164019,0.054869,9.460566,4.699941,-5.317950,484.119598,4.424774,0.000000,41.660311,44.966337,7000.080420,1.000000,-0.329110,0.156634,0.121432
17.900000,1.359373,-0.184039,0.056752,9.433577,4.196611,-5.487457,484.430420,4.735626,0.000000,41.660316,44.966348,7000.051899,1.000000,-0.071417,1.000000,0.784779
18.000000,1.389791,-0.200661,0.054153,9.393968,3.523636,-5.696568,484.649658,4.954834,0.000000,41.660321,44.966360,7000.051899,-0.057754,-0.501305,-0.891595,-1.000000
18.100000,1.425056,-0.215636,0.048486,9.376984,2.941611,-5.917030,484.800140,5.105316,0.000000,41.660327,44.966371,7000.021554,-0.012068,-1.000000,1.000000,1.000000
18.200000,1.463088,-0.228563,0.041085,9.392141,2.716039,-6.185718,484.892639,5.197815,0.000000,41.660332,44.966383,7000.021554,-0.704335,0.776734,0.356704,-0.628643
18.300000,1.501703,-0.239732,0.033430,9.414673,2.742624,-6.476960,484.959503,5.264679,0.000000,41.660337,44.966395,6999.991250,-0.014777,0.367823,-1.000000,1.000000
18.400000,1.544814,-0.250674,0.025111,9.424218,2.765582,-6.816471,485.018066,5.323242,0.000000,41.660342,44.966407,6999.991250,-0.637170,1.000000,0.336682,-0.448147
18.500000,1.589686,-0.260556,0.016308,9.424299,2.866273,-7.178977,485.063904,5.369049,0.000000,41.660347,44.966420,6999.960449,-1.000000,-1.000000,0.114395,-0.957975
18.600000,1.627372,-0.269746,0.011511,9.498219,3.497431,-7.462144,485.129089,5.434265,0.000000,41.660352,44.966433,6999.960449,-0.554042,-0.989833,0.012621,0.321651
18.700000,1.660887,-0.280589,0.011793,9.612915,4.114987,-7.763457,485.247955,5.553131,0.000000,41.660356,44.966447,6999.928322,-0.940847,-1.000000,-1.000000,0.315503
18.800000,1.696116,-0.292539,0.012006,9.704434,4.741825,-8.111518,485.410889,5.716064,0.000000,41.660361,44.966462,6999.928322,-0.710530,0.374379,-0.106236,0.033938
18.900000,1.731011,-0.304846,0.010479,9.775736,5.364183,-8.475398,485.608978,5.914154,0.000000,41.660365,44.966477,6999.898225,-0.895984,-1.000000,-0.464685,1.000000
19.000000,1.773092,-0.318832,0.004671,9.771165,5.736027,-8.895428,485.854828,6.160004,0.000000,41.660369,44.966492,6999.898225,0.100147,-0.100382,0.813417,0.099573
19.100000,1.818639,-0.331893,-0.004543,9.693566,5.730562,-9.296156,486.091370,6.396545,0.000000,41.660373,44.966508,6999.870326,-0.938400,0.714215,-0.109924,0.236576
19.200000,1.860600,-0.342811,-0.011906,9.646528,5.913518,-9.657380,486.299194,6.604370,0.000000,41.660377,44.966525,6999.870326,-1.000000,-0.354549,1.000000,-1.000000
19.300000,1.896854,-0.354223,-0.011823,9.692766,6.444977,-9.958627,486.547760,6.852936,0.000000,41.660381,44.966542,6999.842800,-0.430449,-0.173846,0.012796,-0.556541
19.400000,1.918670,-0.365298,-0.001070,9.846218,6.496855,-10.151510,486.814789,7.119965,0.000000,41.660384,44.966560,6999.842800,1.000000,-0.518728,0.668901,-1.000000
19.500000,1.926717,-0.374435,0.015499,10.086693,5.935508,-10.210183,487.033478,7.338654,0.000000,41.660387,44.966577,6999.815149,-1.000000,-0.311272,-0.882075,-0.333213
19.600000,1.923152,-0.382145,0.037138,10.487835,5.411047,-10.135306,487.204681,7.509857,0.000000,41.660390,44.966595,6999.815149,0.456994,0.754093,-0.249911,-1.000000
19.700000,1.906798,-0.388018,0.063041,11.030856,5.005653,-9.897400,487.332184,7.637360,0.000000,41.660393,44.966613,6999.786504,-0.735576,-1.000000,0.276181,-0.667622
19.800000,1.879658,-0.391200,0.091088,11.641247,4.473889,-9.521990,487.406586,7.711761,0.000000,41.660395,44.966632,6999.786504,1.000000,0.600981,-0.715089,0.285661
19.900000,1.848344,-0.391912,0.118382,12.291928,3.684333,-9.067670,487.416565,7.721741,0.000000,41.660397,44.966650,6999.755993,0.877401,-1.000000,-0.966611,-0.630485
20.000000,1.818056,-0.389746,0.140436,12.917717,2.767076,-8.565877,487.332458,7.637634,0.000000,41.660400,44.966668,6999.755993,-0.337490,-1.000000,0.639173,1.000000
20.100000,1.793169,-0.385959,0.154431,13.492359,2.336969,-8.104408,487.181915,7.487091,0.000000,41.660402,44.966687,6999.725689,-0.943363,0.164046,0.869882,-1.000000
20.200000,1.766117,-0.380210,0.164774,14.129841,2.606781,-7.573325,487.000397,7.305573,0.000000,41.660404,44.966706,6999.725689,-0.124037,1.000000,0.156729,0.181752
20.300000,1.733658,-0.372439,0.174262,14.800550,3.061044,-6.937513,486.839233,7.144409,0.000000,41.660405,44.966725,6999.695552,-1.000000,-1.000000,-0.290418,-0.493151
20.400000,1.700515,-0.363702,0.181875,15.418563,3.297403,-6.260991,486.706299,7.011475,0.000000,41.660406,44.966745,6999.695552,0.636441,-0.022486,-0.467678,0.070729
20.500000,1.664122,-0.352779,0.188289,16.034138,3.210029,-5.498362,486.552704,6.857880,0.000000,41.660407,44.966765,6999.666616,-1.000000,-0.112060,0.518536,0.314235
20.600000,1.632495,-0.341290,0.189649,16.603568,3.313582,-4.810156,486.381287,6.686462,0.000000,41.660408,44.966786,6999.666616,-0.367096,0.460330,-0.868542,1.000000
20.700000,1.610623,-0.331471,0.185361,17.118075,3.869830,-4.280938,486.243835,6.549011,0.000000,41.660408,44.966807,6999.641494,-1.000000,0.396222,-1.000000,-0.366802
20.800000,1.592591,-0.322348,0.178893,17.615470,4.199233,-3.760855,486.134827,6.440002,0.000000,41.660408,44.966828,6999.641494,0.547933,1.000000,-0.414728,0.626057
20.900000,1.579185,-0.313778,0.171846,18.047427,4.049679,-3.310999,486.019592,6.324768,0.000000,41.660408,44.966850,6999.618694,-0.989715,0.870263,0.437584,0.086879
21.000000,1.573581,-0.306496,0.163569,18.428198,4.072430,-3.034955,485.895233,6.200409,0.000000,41.660408,44.966873,6999.618694,-1.000000,-1.000000,0.715967,1.000000
21.100000,1.578943,-0.300624,0.151874,18.815332,4.631967,-3.001064,485.792267,6.097443,0.000000,41.660407,44.966896,6999.596101,-0.445494,-0.151462,0.402780,0.691980
21.200000,1.599312,-0.296786,0.135802,19.155228,5.129618,-3.247146,485.737885,6.043060,0.000000,41.660407,44.966919,6999.596101,-1.000000,-1.000000,1.000000,0.863958
21.300000,1.629179,-0.294409,0.119780,19.444647,5.651952,-3.672151,485.728729,6.033905,0.000000,41.660406,44.966944,6999.573549,-0.635366,-0.776455,-1.000000,0.083602
21.400000,1.667537,-0.292669,0.105308,19.707471,6.037343,-4.275942,485.766205,6.071381,0.000000,41.660405,44.966968,6999.573549,-0.644920,0.402830,0.331105,1.000000
21.500000,1.712316,-0.291245,0.092731,19.900899,6.133576,-5.037557,485.822021,6.127197,0.000000,41.660403,44.966993,6999.549132,-0.564808,1.000000,-0.841658,0.429133
21.600000,1.761015,-0.290023,0.081367,20.020775,6.313157,-5.916519,485.883331,6.188507,0.000000,41.660402,44.967019,6999.549132,-1.000000,-1.000000,1.000000,1.000000
21.700000,1.817092,-0.288990,0.071694,20.099040,6.954133,-6.953134,485.989716,6.294891,0.000000,41.660400,44.967045,6999.522352,-1.000000,1.000000,-0.810147,-0.384877
21.800000,1.871197,-0.288166,0.068669,20.122175,7.371844,-7.964602,486.164948,6.470123,0.000000,41.660398,44.967072,6999.522352,-0.028719,1.000000,0.573240,-0.823755
21.900000,1.914873,-0.286348,0.071833,20.106468,6.894472,-8.761634,486.331238,6.636444,0.000000,41.660396,44.967099,6999.494992,0.939433,-0.711994,1.000000,1.000000
22.000000,1.956660,-0.282641,0.077171,20.075298,5.959211,-9.502640,486.448029,6.753204,0.000000,41.660393,44.967126,6999.494992,-1.000000,1.000000,-0.849715,-1.000000
22.100000,1.993432,-0.277694,0.084864,20.100961,5.439422,-10.125370,486.509857,6.815033,0.000000,41.660391,44.967153,6999.466471,-0.938521,1.000000,-0.436822,0.789015
22.200000,2.024024,-0.273772,0.096721,20.197102,5.803072,-10.672838,486.581665,6.886841,0.000000,41.660388,44.967180,6999.466471,-1.000000,-1.000000,-0.066652,0.361709
22.300000,2.057946,-0.271713,0.110950,20.246153,6.307200,-11.317707,486.733215,7.038391,0.000000,41.660384,44.967208,6999.436209,-0.707959,-0.436408,0.901275,-0.765196
22.400000,2.087407,-0.269926,0.126101,20.295528,6.365477,-11.827005,486.941833,7.247040,0.000000,41.660381,44.967236,6999.436209,0.219933,-0.375411,0.110948,0.577877
22.500000,2.111627,-0.267644,0.138349,20.350664,5.953029,-12.219570,487.135071,7.440247,0.000000,41.660376,44.967265,6999.405988,-1.000000,-0.502257,-0.370875,0.523626
22.600000,2.139981,-0.265334,0.145243,20.383802,5.812478,-12.651813,487.328033,7.633209,0.000000,41.660372,44.967293,6999.405988,-1.000000,-0.337720,-0.836221,-1.000000
22.700000,2.165621,-0.263012,0.151760,20.452400,5.868855,-12.988113,487.548462,7.853638,0.000000,41.660367,44.967322,6999.375187,0.922876,0.748090,0.492999,1.000000
22.800000,2.186928,-0.260043,0.156373,20.494511,5.183580,-13.223167,487.736786,8.041962,0.000000,41.660362,44.967350,6999.375187,-0.498848,-0.198158,0.441093,1.000000
22.900000,2.212311,-0.256123,0.155398,20.498558,4.589458,-13.504024,487.877136,8.182343,0.000000,41.660356,44.967379,6999.342894,-1.000000,0.299386,0.289875,-0.614000
23.000000,2.235965,-0.251640,0.154246,20.551567,4.606479,-13.720173,488.006622,8.311798,0.000000,41.660351,44.967408,6999.342894,0.036878,0.741807,-1.000000,-0.655339
23.100000,2.248192,-0.246173,0.158723,20.737373,4.577713,-13.691528,488.139374,8.444550,0.000000,41.660345,44.967436,6999.311139,-1.000000,-1.000000,-0.488478,-1.000000
23.200000,2.244379,-0.238617,0.171078,21.166437,4.772504,-13.330091,488.296265,8.601440,0.000000,41.660338,44.967465,6999.311139,-0.750569,-0.274503,-0.041073,-0.883784
23.300000,2.224246,-0.229656,0.190818,21.788697,4.927026,-12.658849,488.502533,8.807709,0.000000,41.660331,44.967494,6999.279053,0.815199,0.245483,-0.510493,1.000000
23.400000,2.201434,-0.220646,0.207149,22.337236,4.313287,-11.954347,488.685150,8.990326,0.000000,41.660323,44.967523,6999.279053,0.672839,-0.540681,-1.000000,-0.056568
23.500000,2.182015,-0.211027,0.215814,22.823443,3.547759,-11.253575,488.814789,9.119965,0.000000,41.660316,44.967551,6999.246262,-0.347554,0.162491,-0.888952,0.766597
23.600000,2.164997,-0.201437,0.217046,23.281472,3.152347,-10.557146,488.887878,9.193054,0.000000,41.660308,44.967580,6999.246262,-1.000000,0.549129,-0.119685,-0.754311
23.700000,2.144694,-0.191834,0.216272,23.742600,3.085705,-9.749408,488.941650,9.246796,0.000000,41.660300,44.967609,6999.216414,0.798277,-0.644246,0.932713,-0.446468
23.800000,2.111357,-0.178881,0.218244,24.297310,2.905920,-8.594762,488.981201,9.286377,0.000000,41.660292,44.967637,6999.216414,-1.000000,0.204898,0.935918,0.412203
23.900000,2.074038,-0.164915,0.220450,24.853038,3.090791,-7.377517,489.014709,9.319885,0.000000,41.660283,44.967666,6999.188101,-1.000000,1.000000,-1.000000,-0.551881
24.000000,2.037027,-0.151963,0.224708,25.367560,4.019115,-6.179288,489.104553,9.409729,0.000000,41.660274,44.967695,6999.188101,-0.631652,1.000000,-0.736160,-0.329353
24.100000,1.991764,-0.137353,0.235483,25.883684,4.908729,-4.729678,489.293610,9.598785,0.000000,41.660264,44.967723,6999.160906,-1.000000,1.000000,0.256305,-0.767187
24.200000,1.940458,-0.121230,0.252544,26.317306,5.417758,-3.095162,489.560150,9.865326,0.000000,41.660254,44.967752,6999.160906,-0.101811,-0.104908,0.999262,-0.916842
24.300000,1.887742,-0.103657,0.272903,26.610943,5.581017,-1.426580,489.837067,10.142242,0.000000,41.660243,44.967781,6999.137028,-1.000000,0.534004,1.000000,0.002032
24.400000,1.835561,-0.084012,0.295570,26.802990,5.725797,0.234502,490.149597,10.454773,0.000000,41.660233,44.967810,6999.137028,-0.034094,1.000000,-0.803042,0.973435
24.500000,1.795732,-0.066052,0.314285,26.896386,5.480320,1.576448,490.466278,10.771423,0.000000,41.660221,44.967838,6999.115223,0.990496,-0.432667,-0.302889,-0.744247
24.600000,1.770147,-0.051011,0.326772,26.914055,4.693831,2.582608,490.715698,11.024200,0.000000,41.660210,44.967867,6999.115223,-0.247841,-1.000000,-1.000000,1.000000
24.700000,1.755311,-0.037268,0.334079,26.926701,3.784383,3.351172,490.903900,11.216583,0.000000,41.660199,44.967896,6999.091883,1.000000,-0.558179,-0.716630,-0.481137
24.800000,1.752976,-0.026595,0.335626,26.970819,2.988490,3.816977,491.018951,11.335785,0.000000,41.660187,44.967925,6999.091883,-0.768193,0.515935,-0.515701,0.053618
24.900000,1.757313,-0.018592,0.334051,27.056281,2.620042,4.066835,491.085419,11.406433,0.000000,41.660176,44.967953,6999.067342,0.184332,-0.903491,-0.609926,0.255392
25.000000,1.770595,-0.013869,0.328207,27.197802,2.587409,4.072686,491.155029,11.480194,0.000000,41.660164,44.967982,6999.067342,-1.000000,-1.000000,-0.775860,-0.573522
25.100000,1.787880,-0.011204,0.320466,27.352187,2.690491,3.980906,491.243774,11.573090,0.000000,41.660152,44.968010,6999.041142,0.019541,0.672987,-1.000000,-0.463089
25.200000,1.803421,-0.008762,0.313786,27.481486,2.681582,3.913347,491.348785,11.682251,0.000000,41.660139,44.968039,6999.041142,0.415387,1.000000,0.077655,1.000000
25.300000,1.828182,-0.008541,0.304972,27.626265,2.459395,3.522786,491.453918,11.791473,0.000000,41.660126,44.968067,6999.012912,-1.000000,1.000000,1.000000,1.000000
25.400000,1.872776,-0.013992,0.292011,27.829205,2.492728,2.501393,491.570343,11.911987,0.000000,41.660113,44.968095,6999.012912,0.023335,1.000000,-0.142251,1.000000
25.500000,1.929373,-0.022639,0.276298,27.997582,2.336203,1.161360,491.699829,12.045593,0.000000,41.660100,44.968124,6998.984391,1.000000,-1.000000,1.000000,-0.813663
25.600000,1.988986,-0.030023,0.259852,28.064304,1.528400,-0.150802,491.803375,12.153168,0.000000,41.660087,44.968152,6998.984391,0.383507,-0.863512,-1.000000,0.273312
25.700000,2.040184,-0.033628,0.246186,28.066693,0.741600,-1.263702,491.836456,12.190216,0.000000,41.660073,44.968180,6998.955538,-1.000000,0.058628,-0.324971,1.000000
25.800000,2.088898,-0.037024,0.233574,28.052803,0.682802,-2.405505,491.842987,12.200745,0.000000,41.660060,44.968208,6998.955538,-1.000000,-1.000000,-0.660489,-0.193353
25.900000,2.139610,-0.041055,0.221557,28.000054,0.838276,-3.594819,491.882294,12.244019,0.000000,41.660046,44.968236,6998.926602,0.818263,0.499626,-0.480934,1.000000
26.000000,2.188264,-0.045207,0.210160,27.883745,0.689623,-4.741346,491.926056,12.291718,0.000000,41.660032,44.968264,6998.926602,-1.000000,-0.717787,1.000000,0.651390
26.100000,2.234687,-0.049789,0.198776,27.735380,0.901125,-5.840893,491.971375,12.340942,0.000000,41.660017,44.968291,6998.900237,-0.731601,-0.433617,-1.000000,-0.340870
26.200000,2.275470,-0.053879,0.191385,27.605146,1.634658,-6.728535,492.082794,12.456238,0.000000,41.660003,44.968319,6998.900237,0.229962,0.968440,0.433114,-1.000000
26.300000,2.299052,-0.055178,0.193228,27.545264,1.843455,-7.076974,492.237396,12.614777,0.000000,41.659988,44.968346,6998.876317,-1.000000,-0.157046,0.737263,-0.047628
26.400000,2.306135,-0.053670,0.204970,27.595636,2.064728,-7.024243,492.409302,12.790588,0.000000,41.659973,44.968373,6998.876317,-0.046622,0.406845,0.060771,1.000000
26.500000,2.308167,-0.051229,0.222284,27.675544,2.070215,-6.860639,492.623199,13.008392,0.000000,41.659957,44.968400,6998.854056,-0.133797,1.000000,0.522237,-0.712071
26.600000,2.307887,-0.048018,0.241298,27.765779,1.968707,-6.593292,492.835144,13.224213,0.000000,41.659942,44.968427,6998.854056,-1.000000,-0.020849,0.555485,0.274417
26.700000,2.303694,-0.043971,0.260959,27.876491,2.009601,-6.234933,493.053375,13.446320,0.000000,41.659926,44.968453,6998.834240,0.601645,0.466331,0.052857,1.000000
26.800000,2.304764,-0.040634,0.279256,27.936372,1.688206,-6.012876,493.286011,13.682739,0.000000,41.659910,44.968480,6998.834240,0.588804,-1.000000,0.824220,-0.622463
26.900000,2.307193,-0.036583,0.295435,27.975510,1.270018,-5.718863,493.484467,13.884979,0.000000,41.659894,44.968506,6998.814259,-1.000000,0.874372,0.230072,-0.784986
27.000000,2.300444,-0.029057,0.312768,28.083988,1.360761,-5.142626,493.667603,14.071838,0.000000,41.659877,44.968531,6998.814259,-0.732041,-0.670485,0.624610,0.424772
27.100000,2.290820,-0.019687,0.330564,28.223595,1.716269,-4.533946,493.906647,14.314636,0.000000,41.659861,44.968557,6998.791790,-0.180930,0.643368,-1.000000,0.493186
27.200000,2.290739,-0.013199,0.342775,28.299013,1.714066,-4.217449,494.177826,14.589447,0.000000,41.659843,44.968582,6998.791790,0.553769,0.133137,-1.000000,1.000000
27.300000,2.304724,-0.011170,0.346849,28.268279,1.114874,-4.317203,494.412720,14.827942,0.000000,41.659826,44.968607,6998.767871,0.183195,-0.928262,1.000000,1.000000
27.400000,2.335544,-0.013380,0.341861,28.140409,0.321356,-4.846978,494.605438,15.024170,0.000000,41.659809,44.968632,6998.767871,1.000000,-1.000000,0.329034,-0.730690
27.500000,2.369139,-0.015234,0.331657,27.966293,-0.619258,-5.344348,494.722107,15.144318,0.000000,41.659792,44.968656,6998.742583,0.549029,0.799628,0.972242,-0.608761
27.600000,2.389369,-0.012245,0.323075,27.860063,-1.374869,-5.445765,494.756683,15.182404,0.000000,41.659774,44.968681,6998.742583,-0.685820,1.000000,-0.439228,0.457936
27.700000,2.402218,-0.006676,0.315570,27.828107,-1.550488,-5.381954,494.755066,15.184265,0.000000,41.659757,44.968705,6998.715472,-0.924287,1.000000,0.310891,-0.655207
27.800000,2.409779,-0.001151,0.311478,27.852611,-1.118744,-5.217896,494.781830,15.214447,0.000000,41.659739,44.968729,6998.715472,0.209427,-1.000000,1.000000,1.000000
27.900000,2.414728,0.003201,0.309419,27.866697,-1.063752,-5.005971,494.840576,15.276611,0.000000,41.659721,44.968753,6998.688899,0.067594,1.000000,0.797049,-1.000000
28.000000,2.415581,0.008129,0.307936,27.891425,-1.133558,-4.654689,494.894501,15.333893,0.000000,41.659703,44.968776,6998.688899,-1.000000,-0.603820,-0.239687,0.826940
28.100000,2.413181,0.012466,0.307333,27.964281,-0.270224,-4.299114,494.985260,15.427948,0.000000,41.659684,44.968799,6998.664150,-1.000000,-0.595545,-1.000000,0.553475
28.200000,2.417696,0.013068,0.305665,28.016161,1.243446,-4.249852,495.188812,15.634735,0.000000,41.659666,44.968821,6998.664150,-1.000000,1.000000,0.224863,1.000000
28.300000,2.431687,0.010548,0.302658,28.001557,2.182668,-4.399976,495.534912,15.983917,0.000000,41.659646,44.968842,6998.641060,0.512864,-0.938371,0.458585,-1.000000
28.400000,2.444904,0.009365,0.301015,27.957336,2.045013,-4.415913,495.909729,16.361755,0.000000,41.659627,44.968864,6998.641060,1.000000,-1.000000,-0.334185,0.267958
28.500000,2.452179,0.011238,0.301569,27.932324,1.606321,-4.274132,496.226227,16.681305,0.000000,41.659608,44.968885,6998.620498,-1.000000,-1.000000,0.898654,-0.275674
28.600000,2.459534,0.014296,0.303315,27.914588,1.219734,-4.123920,496.527161,16.985229,0.000000,41.659588,44.968906,6998.620498,1.000000,-0.128460,-0.466633,0.278231
28.700000,2.468042,0.017691,0.305979,27.876404,0.618846,-3.998905,496.789795,17.250549,0.000000,41.659568,44.968926,6998.600600,1.000000,-1.000000,0.724283,-0.149452
28.800000,2.477300,0.021415,0.308538,27.797560,-0.402888,-3.870183,496.968201,17.431152,0.000000,41.659549,44.968947,6998.600600,1.000000,0.203076,1.000000,-0.709055
28.900000,2.480884,0.028210,0.312994,27.739150,-1.368001,-3.495593,497.061218,17.526367,0.000000,41.659529,44.968967,6998.578048,-0.574410,-1.000000,-0.150982,-0.449401
29.000000,2.475567,0.037223,0.320289,27.743889,-1.672190,-2.904571,497.101685,17.569031,0.000000,41.659509,44.968987,6998.578048,-1.000000,-0.322154,-0.207146,0.060856
29.100000,2.467049,0.045488,0.327555,27.753941,-1.668014,-2.266268,497.141663,17.611206,0.000000,41.659489,44.969007,6998.554170,1.000000,-0.742691,1.000000,-1.000000
29.200000,2.453102,0.055017,0.335872,27.751490,-1.744533,-1.442552,497.180786,17.652405,0.000000,41.659469,44.969026,6998.554170,-1.000000,-0.647987,0.077100,0.276780
29.300000,2.438110,0.063906,0.343646,27.749510,-1.424337,-0.637084,497.225800,17.699432,0.000000,41.659449,44.969045,6998.528883,0.002472,-0.623470,0.282886,-0.604764
29.400000,2.425156,0.070754,0.349927,27.736916,-0.988200,0.088658,497.310608,17.786438,0.000000,41.659428,44.969063,6998.528883,0.113793,1.000000,-0.628423,-0.879396
29.500000,2.405775,0.079441,0.357362,27.689031,-0.799617,1.068668,497.413574,17.891937,0.000000,41.659408,44.969081,6998.502973,-0.562777,0.641593,-0.004819,-0.263555
29.600000,2.383247,0.088594,0.365830,27.607491,-0.584203,2.094967,497.530396,18.011230,0.000000,41.659387,44.969099,6998.502973,0.494235,1.000000,0.262800,1.000000
29.700000,2.368203,0.094444,0.371688,27.515062,-0.336209,2.825083,497.643890,18.127106,0.000000,41.659366,44.969116,6998.477727,-0.966002,-1.000000,1.000000,-1.000000
29.800000,2.359054,0.097875,0.375477,27.434811,0.207698,3.409498,497.786835,18.272339,0.000000,41.659345,44.969133,6998.477727,-1.000000,0.667539,-1.000000,-0.283617
29.900000,2.347409,0.101913,0.378001,27.381623,1.565210,4.062170,498.007294,18.494965,0.000000,41.659323,44.969149,6998.453393,-0.791619,0.757686,-1.000000,-0.970495
30.000000,2.333503,0.106253,0.378312,27.300881,2.626531,4.732057,498.317566,18.807434,0.000000,41.659302,44.969164,6998.453393,-0.567379,1.000000,-0.809240,1.000000
30.100000,2.328460,0.107533,0.375074,27.218801,3.032249,5.124225,498.702606,19.194916,0.000000,41.659280,44.969178,6998.429225,-0.184820,-0.093116,1.000000,0.713907
30.200000,2.346079,0.101502,0.367781,27.240116,2.997278,4.869600,499.096924,19.591461,0.000000,41.659257,44.969193,6998.429225,-0.096303,-0.131139,-0.456375,1.000000
30.300000,2.381801,0.090311,0.357636,27.358221,2.898493,4.130034,499.456238,19.953003,0.000000,41.659235,44.969207,6998.406839,-0.639618,-0.323468,-1.000000,-0.250202
30.400000,2.429978,0.076104,0.344758,27.521332,3.028790,3.088464,499.841461,20.335449,0.000000,41.659213,44.969221,6998.406839,-0.721503,1.000000,0.555959,0.229044
30.500000,2.481196,0.061860,0.331531,27.670305,3.534280,1.952343,500.262115,20.759155,0.000000,41.659191,44.969234,6998.384246,-0.963429,1.000000,-0.152428,0.536486
30.600000,2.534635,0.048073,0.318380,27.761484,3.914695,0.720917,500.712952,21.212830,0.000000,41.659168,44.969247,6998.384246,0.407755,0.153790,-0.048191,0.174336
30.700000,2.597735,0.034057,0.303873,27.752502,3.444783,-0.731604,501.191711,21.694611,0.000000,41.659145,44.969259,6998.359000,0.624105,1.000000,-0.302949,0.959076
30.800000,2.668330,0.021354,0.287847,27.624645,2.581210,-2.395180,501.607086,22.113068,0.000000,41.659123,44.969272,6998.359000,-0.276971,-1.000000,-0.518207,0.968139
30.900000,2.743512,0.009825,0.270535,27.381880,1.947990,-4.212887,501.941132,22.450287,0.000000,41.659100,44.969284,6998.332966,-1.000000,-0.342892,0.291894,0.509739
31.000000,2.825884,-0.000832,0.252360,27.001528,1.807731,-6.167808,502.273621,22.786255,0.000000,41.659077,44.969297,6998.332966,0.429704,0.418327,-0.514409,0.023353
31.100000,2.902073,-0.008269,0.237979,26.527352,1.696570,-7.901331,502.607910,23.124084,0.000000,41.659054,44.969308,6998.305564,-1.000000,0.629320,0.871532,1.000000
31.200000,2.970090,-0.013363,0.227589,26.011917,1.753713,-9.437772,502.929962,23.449677,0.000000,41.659031,44.969320,6998.305564,-0.169266,-0.102679,0.320541,0.389605
31.300000,3.040735,-0.017836,0.219483,25.380802,1.868790,-10.995844,503.302551,23.826355,0.000000,41.659008,44.969331,6998.276173,-0.628566,-0.228490,0.336478,1.000000
31.400000,3.107739,-0.021107,0.214627,24.693671,1.916805,-12.399172,503.697357,24.225677,0.000000,41.658985,44.969342,6998.276173,-0.311763,0.926993,-0.571250,-0.004674
31.500000,3.164222,-0.022720,0.214485,24.050680,1.736211,-13.503353,504.085480,24.617737,0.000000,41.658962,44.969353,6998.247444,-0.016159,1.000000,0.074855,1.000000
31.600000,3.217253,-0.023044,0.218369,23.392614,1.266754,-14.466134,504.488037,25.023346,0.000000,41.658939,44.969363,6998.247444,-0.006808,1.000000,-1.000000,0.139315
31.700000,3.263691,-0.022288,0.225025,22.774251,0.601377,-15.218136,504.862488,25.400848,0.000000,41.658916,44.969373,6998.220209,1.000000,0.366244,-0.054980,-0.463297
31.800000,3.295383,-0.019209,0.234592,22.329653,-0.344183,-15.557091,505.166168,25.707367,0.000000,41.658893,44.969382,6998.220209,-0.000129,0.426220,0.507073,0.388112
31.900000,3.315401,-0.013505,0.247417,22.065846,-1.158417,-15.617857,505.429932,25.974182,0.000000,41.658870,44.969392,6998.194258,0.367021,0.507287,1.000000,0.571688
32.000000,3.328938,-0.007608,0.259945,21.893891,-1.891086,-15.538934,505.657623,26.204803,0.000000,41.658847,44.969401,6998.194258,1.000000,0.420893,0.516208,0.254969
32.100000,3.335646,-0.001501,0.270126,21.800659,-2.792847,-15.298954,505.819000,26.368927,0.000000,41.658825,44.969410,6998.171043,0.584020,-0.196204,-0.389492,-0.648879
32.200000,3.330896,0.007127,0.280099,21.883303,-3.591843,-14.738818,505.923065,26.476715,0.000000,41.658802,44.969419,6998.171043,-0.997187,0.280069,0.304387,1.000000
32.300000,3.316266,0.016405,0.288864,22.138467,-3.676066,-14.020797,505.999115,26.557770,0.000000,41.658779,44.969427,6998.149859,0.212953,1.000000,1.000000,0.369938
32.400000,3.300544,0.022976,0.295371,22.412249,-3.181598,-13.356447,506.104370,26.672760,0.000000,41.658756,44.969435,6998.149859,-0.946663,0.076089,-1.000000,-0.422971
32.500000,3.278327,0.028767,0.302015,22.777834,-2.227779,-12.516047,506.280151,26.865631,0.000000,41.658734,44.969443,6998.130127,-1.000000,-0.764698,-0.202253,0.575366
32.600000,3.249002,0.033730,0.308830,23.212304,-0.800015,-11.530731,506.582031,27.184052,0.000000,41.658711,44.969449,6998.130127,-0.501827,0.489191,-0.866380,-1.000000
32.700000,3.215098,0.038859,0.315881,23.621974,-0.209187,-10.428759,506.948914,27.566406,0.000000,41.658689,44.969455,6998.112840,1.000000,0.307829,0.418176,1.000000
32.800000,3.177903,0.044361,0.322119,23.966413,-0.392031,-9.221896,507.338501,27.972321,0.000000,41.658667,44.969460,6998.112840,-0.326154,0.346038,1.000000,0.754666
32.900000,3.149662,0.047696,0.322733,24.165143,-0.718492,-8.293067,507.679840,28.329865,0.000000,41.658644,44.969466,6998.097046,1.000000,-0.471086,-0.364251,1.000000
33.000000,3.136261,0.047450,0.316717,24.230421,-0.878164,-7.764037,507.957001,28.612427,0.000000,41.658622,44.969471,6998.097046,-1.000000,0.589144,-0.147056,0.924400
33.100000,3.137005,0.043080,0.305328,24.201524,-0.608616,-7.596441,508.231598,28.889435,0.000000,41.658600,44.969476,6998.080547,0.349575,0.570688,0.354148,1.000000
33.200000,3.152335,0.034842,0.292963,24.061993,-0.380154,-7.765575,508.516022,29.176300,0.000000,41.658578,44.969481,6998.080547,0.342626,0.170005,-0.522347,-0.337564
33.300000,3.170243,0.027090,0.283036,23.903537,-0.333752,-7.930142,508.763489,29.425995,0.000000,41.658556,44.969485,6998.061850,-1.000000,0.224474,0.678183,0.008536
33.400000,3.185987,0.020533,0.277366,23.792199,0.143175,-8.040288,509.033295,29.698212,0.000000,41.658534,44.969489,6998.061850,-0.337848,-0.722821,0.126956,0.582556
33.500000,3.206359,0.013240,0.274854,23.639727,0.492246,-8.319118,509.339508,30.006805,0.000000,41.658512,44.969493,6998.040584,1.000000,1.000000,0.142398,1.000000
33.600000,3.235281,0.004894,0.271972,23.377785,0.114566,-8.775871,509.613037,30.282532,0.000000,41.658490,44.969496,6998.040584,0.332350,0.575758,-0.656947,-0.738749
33.700000,3.267344,-0.002629,0.269984,23.083886,-0.419558,-9.215251,509.841705,30.513611,0.000000,41.658468,44.969499,6998.016457,-0.599732,-0.769979,-0.126776,0.795072
33.800000,3.297650,-0.009130,0.270908,22.844237,-0.353279,-9.635240,510.039764,30.713989,0.000000,41.658446,44.969502,6998.016457,-1.000000,-0.302024,0.561105,-0.178845
33.900000,3.328354,-0.016118,0.274001,22.588598,-0.155641,-10.098130,510.249054,30.925293,0.000000,41.658424,44.969505,6997.991294,1.000000,-0.174310,1.000000,1.000000
34.000000,3.363458,-0.023559,0.277817,22.250966,-0.544210,-10.587943,510.460541,31.138916,0.000000,41.658402,44.969507,6997.991294,0.031643,-0.157292,-0.147055,-0.823883
34.100000,3.395942,-0.029125,0.283095,21.922989,-1.204639,-10.950163,510.617096,31.297607,0.000000,41.658381,44.969509,6997.964638,-1.000000,0.495040,-1.000000,-0.635567
34.200000,3.417884,-0.031489,0.291795,21.733758,-1.525269,-11.043287,510.725525,31.408051,0.000000,41.658359,44.969511,6997.964638,1.000000,0.912405,0.869938,0.011318
34.300000,3.433189,-0.032064,0.305338,21.629979,-1.830362,-10.984568,510.821533,31.506134,0.000000,41.658337,44.969512,6997.936034,-1.000000,-0.640490,-1.000000,0.813627
34.400000,3.449883,-0.033904,0.318719,21.510931,-2.099348,-10.998843,510.902100,31.588776,0.000000,41.658316,44.969513,6997.936034,1.000000,-0.941390,-0.348295,0.352621
34.500000,3.467825,-0.037180,0.329371,21.373755,-2.306673,-11.028209,510.965118,31.653778,0.000000,41.658294,44.969514,6997.907638,-1.000000,-0.122430,0.386265,-0.494568
34.600000,3.480177,-0.039339,0.340912,21.319985,-2.286859,-10.879884,511.022339,31.713043,0.000000,41.658273,44.969514,6997.907638,-1.000000,1.000000,0.452951,0.406406
34.700000,3.486681,-0.041058,0.352828,21.375246,-1.260760,-10.681541,511.128967,31.821747,0.000000,41.658251,44.969513,6997.880402,-1.000000,0.437029,0.357715,0.859406
34.800000,3.496385,-0.045417,0.362386,21.386898,-0.161929,-10.646456,511.344208,32.038849,0.000000,41.658230,44.969512,6997.880402,0.596774,0.643415,0.416628,1.000000
34.900000,3.513955,-0.052900,0.367452,21.269680,-0.057399,-10.708494,511.622498,32.319214,0.000000,41.658209,44.969510,6997.854782,0.257071,0.761249,1.000000,-0.512233
35.000000,3.529960,-0.058393,0.369368,21.147515,-0.547582,-10.643012,511.866516,32.565186,0.000000,41.658188,44.969508,6997.854782,0.496456,-0.342521,0.111085,0.097335
35.100000,3.538458,-0.059539,0.370467,21.117455,-1.031116,-10.402309,512.039673,32.740234,0.000000,41.658167,44.969505,6997.832438,0.084356,-0.996445,0.956951,-0.353950
35.200000,3.542146,-0.057573,0.370959,21.153743,-1.482366,-10.046227,512.170166,32.872650,0.000000,41.658147,44.969502,6997.832438,0.428603,0.842614,-1.000000,1.000000
35.300000,3.548532,-0.056029,0.367975,21.180307,-1.604449,-9.825946,512.260376,32.964783,0.000000,41.658126,44.969499,6997.811669,-1.000000,1.000000,0.454673,0.493973
35.400000,3.562078,-0.057619,0.361441,21.153853,-1.173639,-9.807444,512.352661,33.058960,0.000000,41.658105,44.969496,6997.811669,-0.357132,-0.793036,-0.774945,0.266428
35.500000,3.577935,-0.060228,0.355239,21.128039,-0.365432,-9.778387,512.502625,33.210815,0.000000,41.658085,44.969492,6997.788662,-1.000000,-0.429433,-0.659303,-1.000000
35.600000,3.585428,-0.059833,0.354690,21.182486,0.126219,-9.500891,512.709717,33.419800,0.000000,41.658064,44.969487,6997.788662,0.594884,-0.323172,0.485521,-0.180262
35.700000,3.581373,-0.054775,0.359808,21.307373,-0.162484,-8.956086,512.904907,33.616760,0.000000,41.658044,44.969481,6997.765032,0.397954,0.407144,-0.219666,-1.000000
35.800000,3.567302,-0.044412,0.368991,21.501739,-0.780060,-8.145138,513.058777,33.772461,0.000000,41.658024,44.969476,6997.765032,-0.867748,0.745125,-0.167074,0.224410
35.900000,3.547883,-0.031487,0.380440,21.761940,-0.707421,-7.231974,513.184326,33.899841,0.000000,41.658004,44.969470,6997.741486,-1.000000,-0.012254,-0.176051,-1.000000
