t,yaw,pitch,roll,speed.x,speed.y,speed.z,altBar,altRad,egt,myloclat,myloclon,weightlb,collective,bank,pitch,rudder
0.000000,5.375005,0.027157,0.000000,0.000000,0.000000,0.000000,481.204865,1.510040,0.000000,41.659724,44.965707,7008.602206,-0.402651,-1.000000,-0.452364,1.000000
0.100000,5.375070,0.031622,0.000724,-0.092721,0.517175,0.015561,481.239288,1.544464,0.000000,41.659724,44.965707,7004.964901,1.000000,0.277006,0.919027,-0.145237
0.200000,5.376546,0.037005,0.001084,-0.065723,0.004234,0.008305,481.263000,1.568176,0.000000,41.659724,44.965707,7004.964901,1.000000,-1.000000,-1.000000,1.000000
0.300000,5.379173,0.039287,0.000047,-0.020602,-0.053386,-0.042409,481.257080,1.562256,0.000000,41.659724,44.965707,7000.556034,0.684457,-1.000000,-1.000000,1.000000
0.400000,5.383969,0.039198,-0.002060,0.019897,0.074109,-0.021071,481.258148,1.563324,0.000000,41.659724,44.965707,7000.556034,0.124878,-1.000000,-0.471845,-0.812416
0.500000,5.385167,0.036008,-0.000902,0.071398,0.024832,0.052262,481.264740,1.569916,0.000000,41.659724,44.965707,7000.556034,1.000000,-0.576858,0.837238,-1.000000
0.600000,5.378869,0.031949,0.002350,0.062611,0.073085,0.067814,481.267700,1.572876,0.000000,41.659724,44.965707,7000.556034,-1.000000,-1.000000,1.000000,0.391166
0.700000,5.371330,0.027829,0.002777,0.080128,0.293927,0.034502,481.283569,1.588745,0.000000,41.659725,44.965707,7000.541649,0.085222,0.034441,0.719716,-0.545785
0.800000,5.363114,0.023277,0.004501,0.139570,0.559625,0.047473,481.329132,1.634308,0.000000,41.659725,44.965707,7000.541649,-0.925082,-0.391817,0.818260,-0.672373
0.900000,5.347626,0.017358,0.009417,0.192345,0.647075,0.092410,481.389618,1.694794,0.000000,41.659725,44.965707,7000.527720,0.458414,0.630951,1.000000,-0.391751
1.000000,5.323283,0.009916,0.017490,0.227337,0.394551,0.158952,481.446777,1.751953,0.000000,41.659725,44.965707,7000.527720,-0.210993,-1.000000,0.382693,-1.000000
1.100000,5.290938,0.002301,0.028162,0.257640,0.056409,0.235250,481.465454,1.770630,0.000000,41.659725,44.965707,7000.513335,-0.807150,1.000000,-0.998070,1.000000
1.200000,5.261789,-0.005677,0.038842,0.343425,0.477190,0.228371,481.484100,1.789276,0.000000,41.659726,44.965706,7000.513335,-1.000000,-1.000000,-0.136959,-0.212164
1.300000,5.240343,-0.017121,0.049167,0.480064,1.241809,0.204898,481.577423,1.882599,0.000000,41.659726,44.965706,7000.496960,0.868385,-0.611786,1.000000,-0.287099
1.400000,5.224446,-0.030586,0.058671,0.553749,1.120082,0.255533,481.700592,2.005768,0.000000,41.659726,44.965706,7000.496960,-1.000000,-0.755447,0.307972,0.033609
1.500000,5.213830,-0.043513,0.065750,0.617744,0.703307,0.305735,481.784424,2.089600,0.000000,41.659727,44.965706,7000.478264,1.000000,0.461888,-0.918189,0.210550
1.600000,5.209226,-0.057255,0.069927,0.696212,0.194318,0.380947,481.825745,2.130951,0.000000,41.659728,44.965705,7000.478264,-0.159043,-0.000895,0.089143,-1.000000
1.700000,5.204817,-0.069986,0.073571,0.793139,-0.207476,0.503015,481.811462,2.116638,0.000000,41.659728,44.965705,7000.456998,-1.000000,-0.158880,-0.785556,-0.142931
1.800000,5.198444,-0.081140,0.077653,0.915710,-0.136965,0.584155,481.786865,2.092041,0.000000,41.659729,44.965704,7000.456998,0.773846,0.900027,-1.000000,0.286825
1.900000,5.197440,-0.092525,0.079653,1.035696,-0.468753,0.650361,481.747345,2.052521,0.000000,41.659730,44.965704,7000.432871,1.000000,-0.390999,-0.763083,-0.241211
2.000000,5.203551,-0.102940,0.079108,1.155495,-1.030054,0.736387,481.651276,1.956451,0.000000,41.659731,44.965703,7000.432871,-0.592456,-1.000000,0.061623,-0.324535
2.100000,5.209304,-0.106986,0.069515,0.946556,-0.540082,0.492152,481.556549,1.861725,0.000000,41.659732,44.965703,7000.407542,-1.000000,0.196932,0.469034,-0.326340
2.200000,5.214720,-0.103204,0.047552,0.884121,0.123540,0.338662,481.534973,1.840149,0.000000,41.659733,44.965702,7000.407542,0.819688,0.219185,-1.000000,0.195027
2.300000,5.225791,-0.096723,0.028485,1.017222,-0.108968,0.378575,481.527954,1.833130,0.000000,41.659734,44.965702,7000.380845,0.705410,0.428722,1.000000,-1.000000
2.400000,5.236705,-0.086856,0.009650,0.870781,-0.219425,0.251604,481.503876,1.809052,0.000000,41.659734,44.965701,7000.380845,-0.148963,-0.844068,1.000000,0.300872
2.500000,5.247686,-0.069997,0.000897,0.714839,-0.157740,0.141710,481.476593,1.781738,0.000000,41.659735,44.965700,7000.352116,-0.018464,0.322557,-0.583540,1.000000
2.600000,5.268070,-0.050966,0.002313,0.770234,-0.344248,0.086500,481.449463,1.754608,0.000000,41.659735,44.965700,7000.352116,0.386229,0.732185,0.379616,-1.000000
2.700000,5.292191,-0.032209,0.007933,0.714993,-0.635440,0.039841,481.399689,1.704865,0.000000,41.659736,44.965699,7000.323388,0.462844,-0.209113,0.427976,1.000000
2.800000,5.318174,-0.009331,0.015150,0.398902,-0.634152,-0.053633,481.328491,1.633667,0.000000,41.659736,44.965699,7000.323388,0.388627,-1.000000,0.554943,-0.985847
2.900000,5.341419,0.014469,0.003313,-0.097944,-0.142918,-0.225150,481.289520,1.594696,0.000000,41.659736,44.965698,7000.294826,-0.800963,0.336150,-1.000000,0.142916
3.000000,5.352189,0.028863,-0.006550,-0.168996,0.305003,-0.133841,481.300873,1.606049,0.000000,41.659736,44.965698,7000.294826,-0.015022,-0.344204,-1.000000,-1.000000
3.100000,5.352466,0.038902,-0.004640,-0.095365,0.663676,-0.073250,481.349701,1.654877,0.000000,41.659736,44.965699,7000.267382,-1.000000,0.178427,0.291587,-1.000000
3.200000,5.335693,0.045278,0.005961,-0.035886,0.850935,-0.017512,481.429749,1.734924,0.000000,41.659736,44.965699,7000.267382,0.286363,-1.000000,1.000000,0.162927
3.300000,5.314381,0.048498,0.017801,-0.019534,0.621840,-0.015931,481.505066,1.810242,0.000000,41.659736,44.965699,7000.243338,0.264949,-1.000000,1.000000,-0.155596
3.400000,5.294086,0.050077,0.028311,-0.039144,0.005612,0.004014,481.538544,1.843719,0.000000,41.659735,44.965699,7000.243338,1.000000,1.000000,-0.607497,0.257371
3.500000,5.276552,0.050374,0.035962,-0.074091,-0.768959,0.053745,481.499908,1.805084,0.000000,41.659735,44.965699,7000.221865,0.793392,-0.991823,0.202692,-1.000000
3.600000,5.257543,0.049978,0.041647,-0.113591,-1.575222,0.153338,481.385803,1.690948,0.000000,41.659735,44.965699,7000.221865,1.000000,1.000000,-0.921514,-0.147310
3.700000,5.233258,0.048306,0.029272,-0.180804,-0.915880,-0.345835,481.228394,1.533569,0.000000,41.659735,44.965699,7000.201635,-0.257037,0.366529,-1.000000,0.094113
3.800000,5.223371,0.052202,0.001313,0.015825,0.637770,-0.317836,481.240723,1.545898,0.000000,41.659735,44.965699,7000.201635,-0.137101,0.043218,-0.423727,-0.551995
3.900000,5.218180,0.053194,-0.011235,0.086868,0.699927,-0.227676,481.305481,1.610657,0.000000,41.659735,44.965698,7000.181653,-1.000000,0.374966,0.419978,-0.512475
4.000000,5.205927,0.051338,-0.017223,0.127969,0.796294,-0.183364,481.387054,1.692230,0.000000,41.659735,44.965698,7000.181653,1.000000,0.594950,0.198658,-1.000000
4.100000,5.182591,0.047211,-0.016854,0.126811,0.378734,-0.113762,481.449158,1.754333,0.000000,41.659735,44.965698,7000.161548,1.000000,-0.350817,-0.017640,-1.000000
4.200000,5.149857,0.042314,-0.010435,0.104731,-0.314879,-0.040332,481.454132,1.759338,0.000000,41.659735,44.965698,7000.161548,0.531721,-0.242400,-0.940767,-0.163557
4.300000,5.112380,0.036731,-0.000297,0.083374,-1.109662,0.003262,481.380707,1.685883,0.000000,41.659735,44.965698,7000.141359,1.000000,-0.152832,-0.240576,-0.394067
4.400000,5.080462,0.031236,0.005467,-0.003895,-0.928360,0.036944,481.245422,1.550598,0.000000,41.659735,44.965698,7000.141359,-0.617148,-0.731535,1.000000,0.707140
4.500000,5.071862,0.034888,0.003599,-0.056364,0.540557,-0.058907,481.246643,1.551819,0.000000,41.659735,44.965698,7000.121461,-0.396854,1.000000,1.000000,-0.464395
4.600000,5.071018,0.037765,0.001170,0.002417,0.708958,-0.071266,481.312408,1.617584,0.000000,41.659735,44.965698,7000.121461,-0.309216,-1.000000,0.980847,0.016966
4.700000,5.071498,0.038144,0.001481,0.042521,0.659056,-0.072137,481.385651,1.690826,0.000000,41.659735,44.965698,7000.099987,1.000000,-1.000000,-0.911558,1.000000
4.800000,5.077703,0.037103,0.002038,0.043401,0.202565,-0.098971,481.427460,1.732635,0.000000,41.659735,44.965698,7000.099987,-0.568710,-0.094638,1.000000,0.194906
4.900000,5.094085,0.035054,0.001601,0.055159,-0.050766,-0.127311,481.430176,1.735352,0.000000,41.659735,44.965697,7000.077394,0.264701,-0.436905,0.883238,0.587394
5.000000,5.117544,0.031742,0.001690,0.082166,-0.080138,-0.140746,481.424286,1.729462,0.000000,41.659734,44.965697,7000.077394,-0.489657,-0.321414,-1.000000,-1.000000
5.100000,5.139564,0.027544,0.004176,0.109783,-0.150524,-0.114886,481.413696,1.718872,0.000000,41.659734,44.965697,7000.055381,0.315521,-0.831817,1.000000,0.541926
5.200000,5.161111,0.021904,0.009875,0.156800,-0.050570,-0.098775,481.399475,1.704651,0.000000,41.659734,44.965697,7000.055381,-1.000000,-0.361767,-1.000000,-0.682548
5.300000,5.181068,0.014421,0.018555,0.233743,0.252523,-0.063865,481.410645,1.715820,0.000000,41.659734,44.965697,7000.032913,0.203416,0.314792,-1.000000,-0.383240
5.400000,5.193836,0.005513,0.029050,0.296835,0.275233,-0.025055,481.441742,1.746918,0.000000,41.659735,44.965696,7000.032913,1.000000,-1.000000,0.756258,1.000000
5.500000,5.208369,-0.004909,0.038048,0.340758,-0.062265,0.001224,481.450775,1.755951,0.000000,41.659735,44.965696,7000.009615,-1.000000,0.341335,-1.000000,-1.000000
5.600000,5.223968,-0.015790,0.044075,0.414666,-0.047194,0.047386,481.437164,1.742340,0.000000,41.659735,44.965696,7000.009615,-1.000000,0.129253,0.547576,-0.869053
5.700000,5.232905,-0.026527,0.049610,0.537339,0.762718,0.066217,481.466736,1.771912,0.000000,41.659735,44.965695,6999.987354,-0.800081,0.108637,-1.000000,1.000000
5.800000,5.244460,-0.040811,0.055302,0.714157,1.684488,0.044409,481.590302,1.895477,0.000000,41.659736,44.965695,6999.987354,-0.998012,1.000000,1.000000,0.995333
5.900000,5.265485,-0.057992,0.058870,0.836643,2.037044,0.036639,481.784912,2.090088,0.000000,41.659736,44.965694,6999.965424,0.505659,0.297370,0.475446,-1.000000
6.000000,5.288907,-0.074222,0.061743,0.915884,1.705287,0.099590,481.962067,2.267212,0.000000,41.659737,44.965693,6999.965424,0.518933,0.118489,0.823905,-1.000000
6.100000,5.308100,-0.089641,0.066587,0.996639,0.928737,0.220833,482.088715,2.393890,0.000000,41.659738,44.965693,6999.942706,1.000000,0.493772,-1.000000,-0.071653
6.200000,5.322357,-0.102721,0.072519,1.097008,0.071441,0.327821,482.125092,2.430267,0.000000,41.659739,44.965692,6999.942706,0.210705,-1.000000,0.784342,0.881905
6.300000,5.340518,-0.113642,0.075004,1.220337,-0.468240,0.354389,482.087494,2.392670,0.000000,41.659740,44.965691,6999.920114,-1.000000,-0.878154,-1.000000,0.466733
6.400000,5.370604,-0.123961,0.070635,1.375575,-0.588239,0.344821,482.016174,2.321350,0.000000,41.659741,44.965690,6999.920114,1.000000,0.768452,-0.154660,-0.491113
6.500000,5.403337,-0.131812,0.062733,1.526202,-0.901258,0.398267,481.920959,2.226135,0.000000,41.659742,44.965690,6999.895614,-0.525165,-1.000000,1.000000,-0.382683
6.600000,5.428252,-0.135964,0.056852,1.663179,-1.039524,0.470488,481.800659,2.105835,0.000000,41.659743,44.965689,6999.895614,-1.000000,0.049824,1.000000,-1.000000
6.700000,5.443200,-0.136150,0.055973,1.804915,-0.904176,0.581763,481.680847,1.986023,0.000000,41.659744,44.965688,6999.869165,1.000000,-1.000000,-1.000000,-1.000000
6.800000,5.443681,-0.129753,0.046866,1.512195,-0.525022,0.521330,481.587433,1.892609,0.000000,41.659745,44.965687,6999.869165,-0.936849,0.618664,1.000000,0.061090
6.900000,5.438685,-0.118469,0.028986,1.397274,-0.030790,0.488034,481.532959,1.838135,0.000000,41.659747,44.965687,6999.842717,-0.702245,-0.485717,-0.947392,-1.000000
7.000000,5.427952,-0.103509,0.023434,1.548048,0.721648,0.550465,481.556305,1.861450,0.000000,41.659748,44.965686,6999.842717,-0.548399,0.311036,0.777823,-0.529821
7.100000,5.410749,-0.089937,0.027379,1.734653,0.865367,0.620215,481.623657,1.928802,0.000000,41.659750,44.965685,6999.816227,-0.132520,-0.438485,-1.000000,1.000000
7.200000,5.399685,-0.078886,0.032827,1.875840,0.682783,0.630052,481.685516,1.990692,0.000000,41.659751,44.965684,6999.816227,0.649351,-1.000000,-1.000000,0.016830
7.300000,5.397810,-0.068192,0.037120,1.971679,0.006537,0.660604,481.706421,2.011597,0.000000,41.659753,44.965683,6999.790401,1.000000,-1.000000,-0.436181,0.146618
7.400000,5.401831,-0.057832,0.040696,2.040276,-0.772803,0.701422,481.648468,1.953644,0.000000,41.659754,44.965682,6999.790401,-0.052913,-0.121111,0.784453,0.114497
7.500000,5.411259,-0.048471,0.043066,2.099452,-1.200345,0.702785,481.538147,1.843323,0.000000,41.659756,44.965681,6999.766896,0.685116,-0.119966,0.417255,0.996116
7.600000,5.428991,-0.037784,0.038510,1.966427,-1.191103,0.572073,481.396271,1.701447,0.000000,41.659758,44.965680,6999.766896,-0.292468,-0.436164,0.087299,-1.000000
7.700000,5.445782,-0.018855,0.014166,1.207570,-0.215610,0.136573,481.319733,1.624908,0.000000,41.659759,44.965679,6999.743764,0.586443,-0.973813,-0.989522,-0.844952
7.800000,5.452227,0.003718,0.000912,0.939636,-0.223360,0.131122,481.304871,1.610046,0.000000,41.659760,44.965679,6999.743764,1.000000,0.675456,-0.237253,-0.856157
7.900000,5.443757,0.024948,0.003463,0.570424,-0.199446,0.198582,481.278107,1.583282,0.000000,41.659761,44.965678,6999.720134,-0.651922,-0.870314,-1.000000,-0.575075
8.000000,5.425667,0.034890,0.006075,0.294126,0.144858,0.187703,481.272034,1.577209,0.000000,41.659761,44.965678,6999.720134,-1.000000,0.885257,-0.221978,-0.748340
8.100000,5.403467,0.035517,0.009002,0.335721,0.513889,0.204497,481.305573,1.610748,0.000000,41.659761,44.965678,6999.698578,0.036655,0.761119,-0.737315,0.360396
8.200000,5.379200,0.031832,0.016239,0.391837,0.602319,0.225555,481.369598,1.674774,0.000000,41.659762,44.965678,6999.698578,0.934549,-0.035894,-1.000000,-0.782858
8.300000,5.352986,0.025499,0.025417,0.392462,0.057025,0.300466,481.406464,1.711639,0.000000,41.659762,44.965678,6999.678431,1.000000,1.000000,0.058204,-0.249342
8.400000,5.323560,0.018461,0.035373,0.384360,-0.587354,0.393735,481.377563,1.682739,0.000000,41.659762,44.965678,6999.678431,-1.000000,-0.278858,0.606269,-0.735409
8.500000,5.291185,0.009494,0.036123,0.171139,-0.247001,0.315825,481.319916,1.625092,0.000000,41.659763,44.965678,6999.659154,0.681725,0.146010,1.000000,0.863011
8.600000,5.265024,0.001041,0.010037,0.035440,-0.011540,0.123415,481.318939,1.624115,0.000000,41.659763,44.965678,6999.659154,-0.004679,-0.956624,-1.000000,-0.730620
8.700000,5.249218,-0.000484,-0.003619,0.070993,-0.092736,0.050133,481.312134,1.617310,0.000000,41.659763,44.965678,6999.640831,0.894616,1.000000,0.833710,1.000000
8.800000,5.245515,0.007696,-0.000270,-0.161108,-0.160237,0.070391,481.299347,1.604523,0.000000,41.659763,44.965678,6999.640831,0.206651,0.262732,0.178468,0.093480
8.900000,5.248922,0.021050,0.001546,-0.231435,-0.084227,0.002786,481.285187,1.590363,0.000000,41.659763,44.965678,6999.621513,-0.554208,-0.000315,0.989219,-0.213289
9.000000,5.251838,0.032480,0.003178,-0.164797,0.241938,0.028670,481.288696,1.593872,0.000000,41.659763,44.965678,6999.621513,-0.760781,-0.021573,-0.301870,-1.000000
9.100000,5.247842,0.041689,0.012955,-0.073387,1.068947,0.068505,481.352844,1.658020,0.000000,41.659763,44.965678,6999.600620,-0.950369,-0.573215,0.309437,-0.450443
9.200000,5.235203,0.046989,0.029796,0.005258,1.629635,0.085925,481.498993,1.804169,0.000000,41.659763,44.965679,6999.600620,0.096264,0.737236,1.000000,-0.449063
9.300000,5.222001,0.049368,0.046331,0.034561,1.708529,0.085903,481.658875,1.964050,0.000000,41.659763,44.965679,6999.579685,-1.000000,1.000000,0.665973,1.000000
9.400000,5.214553,0.049470,0.061506,0.048661,1.614802,0.092976,481.832184,2.137360,0.000000,41.659763,44.965679,6999.579685,0.992580,0.224811,1.000000,-1.000000
9.500000,5.211506,0.047946,0.074162,0.036594,1.157223,0.162937,481.972351,2.277527,0.000000,41.659763,44.965679,6999.558957,-1.000000,-0.486934,-0.800343,0.439529
9.600000,5.210462,0.045471,0.083986,0.032977,0.790160,0.232526,482.062195,2.367371,0.000000,41.659764,44.965679,6999.558957,0.776774,0.754854,0.962439,1.000000
9.700000,5.219086,0.040835,0.090330,0.045166,0.520828,0.262583,482.125946,2.431122,0.000000,41.659764,44.965680,6999.536696,-1.000000,-0.325033,0.584701,0.903287
9.800000,5.243579,0.033553,0.090868,0.077867,0.381774,0.296817,482.166809,2.471985,0.000000,41.659764,44.965680,6999.536696,0.475774,-0.444180,0.295196,-1.000000
9.900000,5.273621,0.024872,0.087456,0.129116,0.316921,0.382280,482.198181,2.503357,0.000000,41.659764,44.965680,6999.513025,-0.868326,-1.000000,-1.000000,0.229046
10.000000,5.303558,0.014649,0.081420,0.197844,0.283298,0.477932,482.223938,2.529114,0.000000,41.659765,44.965680,6999.513025,0.323452,-0.206319,0.619046,-0.487009
10.100000,5.334169,0.003311,0.072758,0.272931,0.206647,0.557845,482.248474,2.553650,0.000000,41.659765,44.965680,6999.487572,0.934642,0.229866,0.186591,0.237277
10.200000,5.363077,-0.007464,0.063206,0.332377,-0.151763,0.649509,482.244965,2.550140,0.000000,41.659766,44.965681,6999.487572,-1.000000,-1.000000,0.497474,-1.000000
10.300000,5.389053,-0.018566,0.054233,0.437441,0.005675,0.738396,482.224701,2.529877,0.000000,41.659766,44.965681,6999.459880,-0.861919,0.831304,-0.357952,-0.136239
10.400000,5.408709,-0.030450,0.048750,0.580424,0.573358,0.789418,482.257355,2.562531,0.000000,41.659767,44.965681,6999.459880,1.000000,-0.633668,0.236746,0.609810
10.500000,5.429418,-0.042337,0.043835,0.674046,0.296350,0.818161,482.297791,2.602966,0.000000,41.659768,44.965681,6999.431898,-0.182314,-0.485203,-0.524120,-0.462904
10.600000,5.454411,-0.054353,0.036953,0.766756,-0.306130,0.871058,482.289886,2.595062,0.000000,41.659769,44.965682,6999.431898,1.000000,-0.863369,0.262724,-0.839603
10.700000,5.472869,-0.064895,0.031729,0.869406,-0.827847,0.961574,482.221924,2.527100,0.000000,41.659770,44.965682,6999.404081,-0.443115,-1.000000,0.826586,-0.037447
10.800000,5.483719,-0.073435,0.029232,0.972153,-1.174649,1.027043,482.116150,2.421326,0.000000,41.659771,44.965682,6999.404081,0.994171,-1.000000,0.838900,-0.816854
10.900000,5.490111,-0.080992,0.029318,1.084891,-1.302887,1.078866,481.975189,2.280365,0.000000,41.659773,44.965682,6999.376970,-1.000000,-0.110221,0.299283,0.299488
11.000000,5.493366,-0.086849,0.032352,1.204136,-0.999918,1.116211,481.838196,2.143372,0.000000,41.659774,44.965683,6999.376970,0.339881,0.693606,-1.000000,-0.804745
11.100000,5.493325,-0.090778,0.038553,1.324100,-0.562430,1.159168,481.754181,2.059357,0.000000,41.659775,44.965683,6999.352014,1.000000,1.000000,0.545998,-0.188525
11.200000,5.486024,-0.093440,0.048184,1.423835,-0.889442,1.267705,481.665375,1.970551,0.000000,41.659777,44.965683,6999.352014,-0.146464,0.986974,0.735053,-0.848392
11.300000,5.472144,-0.093672,0.055908,1.320466,-0.774729,1.230262,481.545624,1.850800,0.000000,41.659778,44.965683,6999.328965,-0.060702,1.000000,-1.000000,1.000000
11.400000,5.459523,-0.087545,0.043158,1.104038,-0.417564,1.025200,481.474915,1.780060,0.000000,41.659780,44.965683,6999.328965,0.529741,0.687506,-0.919527,0.674653
11.500000,5.449932,-0.072296,0.023561,0.694250,-0.272416,0.690006,481.432312,1.737488,0.000000,41.659781,44.965683,6999.307367,1.000000,0.502806,-0.509858,-0.387026
11.600000,5.439953,-0.047986,0.022773,0.227567,-0.433956,0.484921,481.395172,1.700348,0.000000,41.659782,44.965684,6999.307367,1.000000,-0.727499,-0.678725,1.000000
11.700000,5.432596,-0.018772,0.020028,-0.174981,-0.576968,0.247272,481.343384,1.648560,0.000000,41.659782,44.965684,6999.287924,0.545122,-0.884787,-0.482819,0.559359
11.800000,5.430180,0.016189,0.010112,-0.510313,-0.495568,-0.153390,481.286774,1.591949,0.000000,41.659781,44.965684,6999.287924,-0.688671,0.644832,1.000000,0.351952
11.900000,5.430801,0.046894,-0.000814,-0.431534,0.153553,-0.181912,481.260590,1.565765,0.000000,41.659781,44.965685,6999.269435,0.432197,0.263427,0.625467,0.789779
12.000000,5.434475,0.069301,-0.006329,-0.375843,0.505175,-0.120662,481.295013,1.600189,0.000000,41.659781,44.965685,6999.269435,-1.000000,-0.025551,-0.792412,0.715789
12.100000,5.445960,0.087930,-0.007110,-0.352275,0.682476,-0.171282,481.349487,1.654663,0.000000,41.659780,44.965685,6999.251195,-0.367432,0.614986,0.159170,0.149605
12.200000,5.463195,0.101731,-0.004038,-0.337082,0.937840,-0.218641,481.434174,1.739349,0.000000,41.659780,44.965685,6999.251195,-0.151430,1.000000,-0.890397,1.000000
12.300000,5.483818,0.111280,0.000461,-0.381815,0.638591,-0.233359,481.508850,1.814026,0.000000,41.659779,44.965685,6999.234489,0.331826,1.000000,-1.000000,-0.449949
12.400000,5.507847,0.118752,0.006303,-0.458152,0.120798,-0.202258,481.544128,1.849304,0.000000,41.659779,44.965685,6999.234489,1.000000,0.588242,0.131691,-1.000000
12.500000,5.528010,0.124119,0.013641,-0.566585,-0.671385,-0.131558,481.510437,1.815643,0.000000,41.659779,44.965685,6999.218363,0.624121,-0.956179,0.107160,0.746513
12.600000,5.545157,0.127492,0.020825,-0.659604,-1.287807,-0.081891,481.405701,1.710876,0.000000,41.659778,44.965686,6999.218363,-1.000000,-0.154018,-0.086235,1.000000
12.700000,5.561394,0.130039,0.009978,-0.205169,-0.438265,-0.106806,481.301086,1.606232,0.000000,41.659778,44.965686,6999.200744,-1.000000,-0.423754,0.972007,0.174652
12.800000,5.575864,0.127968,-0.000685,-0.039675,0.628315,-0.132948,481.320496,1.625671,0.000000,41.659778,44.965686,6999.200744,-0.310927,0.009402,-1.000000,0.036426
12.900000,5.592477,0.121826,-0.007491,-0.071809,0.764664,-0.147411,481.392822,1.697998,0.000000,41.659778,44.965686,6999.181012,1.000000,-0.460829,-1.000000,0.408303
13.000000,5.615462,0.113225,-0.014431,-0.153195,0.261120,-0.160178,481.445038,1.750214,0.000000,41.659777,44.965686,6999.181012,-0.306857,-0.583331,0.368443,1.000000
13.100000,5.647299,0.103561,-0.021866,-0.220871,-0.222599,-0.195211,481.441559,1.746735,0.000000,41.659777,44.965685,6999.159828,-0.196217,-0.023157,-0.750402,0.621806
13.200000,5.686062,0.092841,-0.027270,-0.217657,-0.003627,-0.236175,481.421631,1.726837,0.000000,41.659777,44.965685,6999.159828,-1.000000,-0.724354,0.690351,-0.492686
13.300000,5.735188,0.078648,-0.029591,-0.212950,0.257035,-0.307725,481.439087,1.744263,0.000000,41.659777,44.965685,6999.136821,0.651338,0.817456,0.323646,1.000000
13.400000,5.794927,0.063409,-0.033791,-0.245304,0.017069,-0.353970,481.455231,1.760406,0.000000,41.659776,44.965685,6999.136821,0.692369,-0.979294,-1.000000,1.000000
13.500000,5.855757,0.049560,-0.040480,-0.288159,-0.545080,-0.389299,481.426575,1.731750,0.000000,41.659776,44.965685,6999.112735,-0.026672,-0.734951,-0.690529,0.093664
13.600000,5.922735,0.035894,-0.048974,-0.307445,-0.998250,-0.420076,481.344177,1.649353,0.000000,41.659776,44.965684,6999.112735,0.799173,0.779953,-0.565296,0.182936
13.700000,5.992107,0.024138,-0.018757,-0.583047,-0.395989,-0.304702,481.269867,1.575073,0.000000,41.659775,44.965684,6999.087779,-0.367504,1.000000,-0.378649,0.325329
13.800000,6.048150,0.024161,0.002653,-0.330685,0.179778,-0.226950,481.265656,1.570831,0.000000,41.659775,44.965684,6999.087779,0.600437,-0.294659,1.000000,-0.613430
13.900000,6.085827,0.031275,-0.002122,-0.323199,0.030125,-0.084235,481.275940,1.581085,0.000000,41.659775,44.965684,6999.062202,-0.220321,-0.091501,-0.810056,0.589595
14.000000,6.112317,0.036834,-0.006227,-0.339708,0.176932,-0.022152,481.280975,1.586151,0.000000,41.659774,44.965683,6999.062202,-1.000000,1.000000,1.000000,0.598832
14.100000,6.136272,0.040486,0.001760,-0.269862,0.711364,-0.037842,481.317047,1.622223,0.000000,41.659774,44.965683,6999.038406,-0.954191,-0.118323,-0.665355,-0.384060
14.200000,6.159809,0.040800,0.013030,-0.171857,1.488776,-0.041171,481.436615,1.741791,0.000000,41.659774,44.965683,6999.038406,-0.137036,-0.074792,1.000000,-0.310286
14.300000,6.176679,0.038310,0.025772,-0.121352,1.657244,-0.012848,481.597595,1.902771,0.000000,41.659774,44.965683,6999.016394,-0.853844,0.075519,-0.964037,-0.012579
14.400000,6.189184,0.033898,0.037606,-0.064046,1.923674,-0.003197,481.765656,2.070831,0.000000,41.659773,44.965683,6999.016394,-0.590770,0.600785,-0.537549,1.000000
14.500000,6.206787,0.026274,0.048066,0.004973,2.312044,-0.029401,481.983429,2.288605,0.000000,41.659773,44.965684,6998.995832,-0.731417,-0.577101,-0.383972,0.490458
14.600000,6.232511,0.015948,0.054942,0.052145,2.412041,-0.029741,482.230042,2.535217,0.000000,41.659773,44.965684,6998.995832,0.355920,-0.642128,-1.000000,0.675924
14.700000,6.262677,0.005246,0.057402,0.060054,1.931319,0.006464,482.441650,2.746826,0.000000,41.659773,44.965684,6998.977053,1.000000,-0.184560,1.000000,-0.225773
14.800000,0.016066,-0.005586,0.054948,0.059274,1.061384,0.098233,482.595306,2.900482,0.000000,41.659773,44.965684,6998.977053,1.000000,0.230543,0.692517,-0.543953
14.900000,0.044299,-0.014467,0.051711,0.079128,0.184788,0.268761,482.654236,2.959412,0.000000,41.659773,44.965684,6998.956326,-0.038452,-1.000000,1.000000,-1.000000
15.000000,0.058027,-0.021174,0.051368,0.127240,-0.357706,0.404904,482.640503,2.945679,0.000000,41.659773,44.965685,6998.956326,-0.554630,-1.000000,-0.293445,-0.077745
15.100000,0.066418,-0.027649,0.053105,0.213732,-0.352494,0.476638,482.596649,2.901825,0.000000,41.659774,44.965685,6998.932655,0.017606,-0.972050,0.777547,1.000000
15.200000,0.080671,-0.034434,0.053096,0.304918,-0.413850,0.497795,482.560333,2.865509,0.000000,41.659774,44.965686,6998.932655,0.535363,-0.615539,-0.963490,-0.555352
15.300000,0.099637,-0.040495,0.051250,0.386381,-0.760144,0.559074,482.498901,2.804077,0.000000,41.659774,44.965686,6998.907947,-0.296770,-0.509439,0.130052,-0.011799
15.400000,0.117590,-0.046095,0.049948,0.491183,-0.843817,0.648534,482.405823,2.710999,0.000000,41.659774,44.965687,6998.907947,-0.471954,1.000000,0.395492,-1.000000
15.500000,0.129731,-0.051284,0.051581,0.633079,-0.248976,0.712529,482.340485,2.645660,0.000000,41.659774,44.965688,6998.882743,-0.990200,-0.443321,-0.536366,1.000000
15.600000,0.142856,-0.057467,0.054556,0.825063,0.829572,0.699487,482.358185,2.663361,0.000000,41.659775,44.965689,6998.882743,-0.964635,0.386129,-0.714662,1.000000
15.700000,0.167571,-0.068251,0.057710,1.079149,1.926751,0.661271,482.490173,2.795349,0.000000,41.659776,44.965690,6998.855300,-1.000000,0.280839,-1.000000,0.327622
15.800000,0.203357,-0.083745,0.061703,1.299793,2.619603,0.635194,482.717834,3.023010,0.000000,41.659776,44.965692,6998.855300,0.737586,0.197288,-0.091054,-0.552498
15.900000,0.238378,-0.099656,0.065956,1.440632,2.415750,0.684627,482.946808,3.251984,0.000000,41.659778,44.965693,6998.827566,0.374300,-1.000000,-0.901539,-0.723017
16.000000,0.266245,-0.115285,0.072647,1.571257,1.780199,0.804567,483.137177,3.442352,0.000000,41.659779,44.965695,6998.827566,0.160396,-0.176198,0.723951,-1.000000
16.100000,0.283452,-0.129016,0.082160,1.716719,1.110087,0.927287,483.255646,3.560822,0.000000,41.659780,44.965697,6998.799999,0.643715,0.336598,0.504629,0.129632
16.200000,0.297192,-0.140582,0.090874,1.864966,0.418886,1.025351,483.297791,3.602966,0.000000,41.659781,44.965699,6998.799999,1.000000,1.000000,-1.000000,0.677976
16.300000,0.316761,-0.151667,0.096386,2.044735,-0.292301,1.109203,483.261597,3.566772,0.000000,41.659782,44.965701,6998.770856,-0.169433,-0.374790,-0.752039,-1.000000
16.400000,0.337141,-0.161090,0.100072,2.247684,-0.699376,1.223534,483.161591,3.466797,0.000000,41.659783,44.965703,6998.770856,-0.742729,0.367596,0.893682,-0.618354
16.500000,0.346932,-0.167225,0.106140,2.444276,-0.351205,1.369450,483.056671,3.361877,0.000000,41.659784,44.965706,6998.741506,-0.261705,0.259412,0.578456,-1.000000
16.600000,0.345870,-0.170637,0.116744,2.656831,0.270054,1.518761,482.994659,3.299835,0.000000,41.659786,44.965709,6998.741506,-0.667504,-0.576859,-1.000000,0.141552
16.700000,0.339901,-0.172390,0.127938,2.872426,0.634141,1.656478,482.976898,3.282074,0.000000,41.659787,44.965712,6998.711575,1.000000,-1.000000,1.000000,0.957008
16.800000,0.337329,-0.173569,0.134688,3.057996,0.411499,1.753641,482.956360,3.261505,0.000000,41.659789,44.965716,6998.711575,-1.000000,1.000000,1.000000,-0.036939
16.900000,0.342851,-0.174654,0.134201,3.281044,0.545781,1.813908,482.915955,3.221130,0.000000,41.659791,44.965719,6998.681644,-1.000000,0.849248,-0.249298,0.810463
17.000000,0.354667,-0.176169,0.126496,3.592864,1.629603,1.839494,482.934052,3.239227,0.000000,41.659793,44.965723,6998.681644,-1.000000,-1.000000,-1.000000,-1.000000
17.100000,0.364846,-0.179629,0.120341,3.901146,2.249325,1.950734,483.039948,3.345123,0.000000,41.659795,44.965728,7000.189198,0.330172,0.706749,-1.000000,-1.000000
17.200000,0.362961,-0.183043,0.121161,4.147590,2.221316,2.175514,483.165710,3.470886,0.000000,41.659797,44.965733,7000.189198,-0.012078,-0.401704,0.365369,-1.000000
17.300000,0.348033,-0.185218,0.129021,4.347179,1.926173,2.415822,483.263336,3.568512,0.000000,41.659800,44.965738,7000.164284,-0.203282,0.452161,-0.979308,0.623436
17.400000,0.334377,-0.187450,0.136482,4.522598,1.560852,2.587519,483.318268,3.623444,0.000000,41.659802,44.965743,7000.164284,0.646994,1.000000,-0.311677,1.000000
17.500000,0.329581,-0.190636,0.138948,4.729448,1.242753,2.706971,483.327454,3.632599,0.000000,41.659805,44.965749,7000.140364,-1.000000,0.026554,1.000000,-0.246591
17.600000,0.334839,-0.194630,0.135416,4.972444,1.117019,2.793159,483.312927,3.618103,0.000000,41.659808,44.965755,7000.140364,0.807762,1.000000,-0.225381,-0.101728
17.700000,0.343272,-0.198022,0.129749,5.208025,0.960872,2.884330,483.278809,3.583984,0.000000,41.659810,44.965760,7000.116403,-1.000000,-0.289596,1.000000,-0.272309
17.800000,0.354478,-0.200741,0.122052,5.471683,1.003706,2.933259,483.226715,3.531891,0.000000,41.659813,44.965767,7000.116403,0.117896,-0.696624,0.691836,1.000000
17.900000,0.374735,-0.203384,0.109170,5.778216,1.215534,2.864941,483.190063,3.495239,0.000000,41.659816,44.965773,7000.090784,-0.786109,-0.040720,-1.000000,1.000000
18.000000,0.406731,-0.206343,0.090685,6.114345,1.521385,2.711105,483.171173,3.476349,0.000000,41.659820,44.965780,7000.090784,-0.846056,0.280474,-0.673847,-1.000000
18.100000,0.445661,-0.210026,0.071163,6.550954,2.468377,2.550753,483.214691,3.519867,0.000000,41.659823,44.965787,7000.063133,-1.000000,-0.105464,0.577634,-1.000000
18.200000,0.477334,-0.215869,0.061051,6.994631,3.446083,2.445995,483.346008,3.651184,0.000000,41.659827,44.965794,7000.063133,-1.000000,-0.061827,-0.328309,0.403787
18.300000,0.503391,-0.224213,0.059048,7.377452,4.283386,2.298851,483.548553,3.853729,0.000000,41.659832,44.965802,7000.036602,1.000000,0.087011,-0.971472,0.146278
18.400000,0.534275,-0.234868,0.059034,7.703071,4.232747,2.098954,483.788574,4.093719,0.000000,41.659836,44.965810,7000.036602,-0.028224,0.178258,0.546765,-0.100018
18.500000,0.566624,-0.245057,0.059529,7.994087,3.623032,1.937656,483.976318,4.281464,0.000000,41.659841,44.965819,7000.011232,0.755390,0.073285,-0.717203,-1.000000
18.600000,0.592148,-0.253269,0.063071,8.272672,3.060918,1.818771,484.080719,4.385895,0.000000,41.659845,44.965827,7000.011232,-1.000000,-0.430799,-0.219960,1.000000
18.700000,0.621179,-0.261505,0.066260,8.604428,2.860744,1.619809,484.137817,4.442963,0.000000,41.659850,44.965836,6999.985281,-1.000000,-0.008671,1.000000,0.818217
18.800000,0.658340,-0.270061,0.065517,8.969835,3.016593,1.309059,484.184082,4.489258,0.000000,41.659855,44.965845,6999.985281,0.374355,-0.824879,1.000000,-0.350050
18.900000,0.698048,-0.277622,0.061983,9.284437,2.746637,1.030431,484.209747,4.514923,0.000000,41.659860,44.965855,6999.958625,-0.056792,0.287640,-0.080889,-1.000000
19.000000,0.731758,-0.283145,0.062094,9.592656,2.163768,0.880588,484.178772,4.483948,0.000000,41.659865,44.965864,6999.958625,1.000000,0.576324,-0.455253,-1.000000
19.100000,0.749729,-0.285541,0.070044,9.886826,1.469119,0.880128,484.071503,4.376709,0.000000,41.659869,44.965874,6999.930809,0.159284,0.709596,-0.585332,0.618348
19.200000,0.760128,-0.285529,0.079448,10.156607,0.870065,0.875042,483.899200,4.204376,0.000000,41.659874,44.965884,6999.930809,0.530004,-1.000000,-0.004196,-0.234739
19.300000,0.774348,-0.283435,0.085039,10.435807,0.388810,0.843506,483.657562,3.962738,0.000000,41.659879,44.965894,6999.901003,0.068012,-0.091700,-1.000000,-1.000000
19.400000,0.781632,-0.277760,0.091365,10.686551,0.128723,0.924968,483.370789,3.675964,0.000000,41.659884,44.965904,6999.901003,-0.878704,0.898989,-0.538820,-0.135028
19.500000,0.778911,-0.267145,0.097726,10.881119,0.489371,1.061397,483.112549,3.417694,0.000000,41.659889,44.965915,6999.871321,0.603418,-0.315141,-0.623059,-0.718112
19.600000,0.768986,-0.250708,0.102192,11.090374,0.353173,1.282982,482.860779,3.165955,0.000000,41.659894,44.965926,6999.871321,-0.277773,-0.363795,1.000000,0.905711
19.700000,0.758332,-0.231016,0.100742,11.265545,0.378450,1.487948,482.601746,2.906921,0.000000,41.659899,44.965937,6999.842676,-1.000000,1.000000,-1.000000,-1.000000
19.800000,0.746647,-0.208282,0.094294,11.419625,1.118722,1.693888,482.420258,2.725433,0.000000,41.659904,44.965949,6999.842676,-0.231820,-0.202273,-0.167185,-1.000000
19.900000,0.722923,-0.180665,0.089891,11.605728,1.564358,2.127632,482.316467,2.621643,0.000000,41.659909,44.965961,6999.815896,0.176765,-1.000000,-0.113527,-0.650417
20.000000,0.686743,-0.152069,0.090728,11.724043,1.100235,2.712761,482.236084,2.541260,0.000000,41.659914,44.965973,6999.815896,0.064541,-0.044900,-1.000000,0.274059
20.100000,0.652609,-0.126007,0.091176,11.773294,0.563764,3.217796,482.131561,2.436737,0.000000,41.659920,44.965986,6999.792598,-0.007361,0.419258,0.661386,-0.511062
20.200000,0.619344,-0.099811,0.089875,11.789756,0.358915,3.718117,482.003113,2.308258,0.000000,41.659925,44.965998,6999.792598,-1.000000,-1.000000,0.719248,-1.000000
20.300000,0.581553,-0.074765,0.089913,11.778531,0.649640,4.280002,481.918518,2.223663,0.000000,41.659930,44.966011,6999.771497,1.000000,-1.000000,-0.089272,0.530663
20.400000,0.547597,-0.053299,0.089911,11.709070,0.161780,4.761892,481.850708,2.155884,0.000000,41.659936,44.966024,6999.771497,-0.004845,-0.390479,-0.632470,0.948605
20.500000,0.525053,-0.033729,0.084891,11.649045,-0.410127,5.038585,481.736511,2.041687,0.000000,41.659941,44.966038,6999.750106,-0.866642,-0.511597,1.000000,0.942198
20.600000,0.521457,-0.018074,0.071985,11.702075,-0.213192,5.048746,481.631165,1.936340,0.000000,41.659946,44.966051,6999.750106,0.114279,-0.698752,-0.820123,-0.788581
20.700000,0.526906,-0.006430,0.058426,11.785014,-0.369303,5.035982,481.565430,1.870605,0.000000,41.659952,44.966064,6999.728301,1.000000,0.519430,-0.261607,-1.000000
20.800000,0.528515,0.004073,0.048257,11.800566,-1.141725,5.142830,481.462616,1.767761,0.000000,41.659957,44.966077,6999.728301,1.000000,-0.961230,-0.370853,-0.189120
20.900000,0.524278,0.012411,0.038814,11.373505,-1.634903,5.092686,481.288147,1.593323,0.000000,41.659963,44.966091,6999.705169,-0.406439,-0.361375,-0.213469,0.340905
21.000000,0.529509,0.006128,0.020100,9.382711,0.488746,3.993798,481.219879,1.525024,0.000000,41.659968,44.966103,6999.705169,-0.570565,1.000000,-1.000000,0.528402
21.100000,0.545638,-0.013814,0.030473,8.432424,1.602295,3.382479,481.328186,1.633362,0.000000,41.659972,44.966113,6999.680047,0.347716,-0.288171,1.000000,-0.273734
21.200000,0.564109,-0.038785,0.047517,8.514608,1.403155,3.249931,481.449036,1.754211,0.000000,41.659975,44.966122,6999.680047,0.140440,0.916621,0.339802,-1.000000
21.300000,0.574011,-0.061745,0.058407,8.426728,1.182041,3.207775,481.514496,1.819672,0.000000,41.659979,44.966132,6999.655382,1.000000,1.000000,-1.000000,-0.545040
21.400000,0.572253,-0.083658,0.058270,8.102044,1.077667,3.174789,481.544464,1.849640,0.000000,41.659983,44.966141,6999.655382,-0.495173,-0.659526,0.559467,-0.258781
21.500000,0.564077,-0.102905,0.041375,7.755674,1.060264,3.161170,481.562866,1.868042,0.000000,41.659987,44.966150,6999.631835,1.000000,0.349530,-0.175683,-0.791041
21.600000,0.550640,-0.118368,0.017976,7.501917,0.915113,3.229123,481.567261,1.872437,0.000000,41.659990,44.966159,6999.631835,-0.434023,1.000000,0.643543,0.018314
21.700000,0.532477,-0.131414,0.001844,6.951316,1.261622,3.153207,481.573303,1.878510,0.000000,41.659993,44.966167,6999.609159,-1.000000,1.000000,1.000000,0.297464
21.800000,0.514737,-0.142462,0.005516,6.932397,1.734995,3.205842,481.630585,1.935760,0.000000,41.659996,44.966175,6999.609159,-0.213098,-0.726574,1.000000,-1.000000
21.900000,0.494094,-0.153699,0.015392,7.055027,1.834313,3.394700,481.703094,2.008270,0.000000,41.660000,44.966184,6999.588722,0.155949,-1.000000,-1.000000,-0.752198
22.000000,0.460585,-0.165085,0.034028,7.108705,1.468638,3.692476,481.748230,2.053406,0.000000,41.660003,44.966192,6999.588722,1.000000,1.000000,-0.981221,1.000000
22.100000,0.427374,-0.174941,0.053401,7.037779,0.850063,3.897422,481.722839,2.028046,0.000000,41.660007,44.966201,6999.569528,0.677311,-1.000000,0.309077,1.000000
22.200000,0.409473,-0.183695,0.055148,6.271533,0.888490,3.599594,481.664063,1.969238,0.000000,41.660010,44.966209,6999.569528,-0.741819,0.987593,1.000000,-0.188708
22.300000,0.400582,-0.193492,0.051120,5.715942,1.086486,3.353086,481.617310,1.922485,0.000000,41.660013,44.966216,6999.550832,1.000000,1.000000,-0.434792,-0.211091
22.400000,0.387812,-0.203743,0.074136,4.734331,1.584178,2.978348,481.632568,1.937744,0.000000,41.660015,44.966222,6999.550832,-0.156214,1.000000,0.030094,-1.000000
22.500000,0.367600,-0.214833,0.110062,3.693190,2.157305,2.609387,481.702087,2.007233,0.000000,41.660018,44.966228,6999.531846,-0.705435,0.776997,-1.000000,0.054079
22.600000,0.338135,-0.228380,0.149625,3.658146,2.247938,2.701513,481.811127,2.116302,0.000000,41.660019,44.966233,6999.531846,0.846714,-1.000000,0.943570,-1.000000
22.700000,0.303782,-0.240685,0.182700,3.800616,1.905671,2.982349,481.878326,2.183472,0.000000,41.660021,44.966239,6999.511533,-0.647816,-0.020625,0.143557,-0.646776
22.800000,0.264434,-0.249573,0.211609,3.783051,1.903465,3.215956,481.900330,2.205536,0.000000,41.660023,44.966244,6999.511533,-1.000000,-0.435676,0.825467,0.242899
22.900000,0.223871,-0.259095,0.237878,3.817698,2.739218,3.392248,481.948883,2.254059,0.000000,41.660025,44.966250,6999.489893,-1.000000,-0.727661,-1.000000,-0.810615
23.000000,0.186668,-0.272299,0.265965,3.791714,4.098962,3.437622,482.096680,2.401886,0.000000,41.660028,44.966257,6999.489893,-0.713280,-0.234108,-1.000000,1.000000
23.100000,0.158989,-0.287839,0.287164,3.985954,4.571299,3.647257,482.295776,2.600952,0.000000,41.660030,44.966264,6999.468627,-0.041920,0.937777,0.402432,0.954752
23.200000,0.144961,-0.307571,0.297643,4.233253,4.718493,3.846892,482.499695,2.804871,0.000000,41.660033,44.966271,6999.468627,-1.000000,0.073108,1.000000,0.557523
23.300000,0.147106,-0.330996,0.297031,4.593123,5.340770,4.007188,482.705383,3.010559,0.000000,41.660037,44.966279,6999.447070,-0.974159,0.012071,-0.670090,0.874533
23.400000,0.162848,-0.356677,0.288886,5.004111,6.096254,4.109064,482.943146,3.248322,0.000000,41.660040,44.966287,6999.447070,-0.571626,-0.149387,-0.379819,0.268879
23.500000,0.190979,-0.385661,0.273731,5.483585,6.630874,4.194605,483.220886,3.526062,0.000000,41.660044,44.966296,6999.424063,-1.000000,0.851130,0.100032,-0.715796
23.600000,0.223452,-0.413561,0.256893,5.982018,6.890188,4.262168,483.507782,3.812958,0.000000,41.660049,44.966306,6999.424063,0.406043,1.000000,-0.108723,0.831521
23.700000,0.260140,-0.438070,0.237344,6.473057,6.713648,4.252441,483.745941,4.051147,0.000000,41.660053,44.966315,6999.399853,-1.000000,0.550679,0.409712,0.311497
23.800000,0.309752,-0.462326,0.209320,7.068119,6.490488,4.153899,483.950684,4.255859,0.000000,41.660058,44.966326,6999.399853,0.469068,1.000000,0.112553,-0.269267
23.900000,0.364576,-0.482978,0.178156,7.696634,6.034863,4.010136,484.096466,4.401672,0.000000,41.660063,44.966336,6999.373902,-0.272768,-0.429773,-1.000000,0.320781
24.000000,0.418325,-0.498216,0.147777,8.304513,5.435217,3.823435,484.159851,4.465027,0.000000,41.660068,44.966347,6999.373902,1.000000,1.000000,1.000000,-0.658295
24.100000,0.472881,-0.509180,0.118566,8.953119,4.853461,3.618883,484.143555,4.448730,0.000000,41.660073,44.966357,6999.345837,-0.907427,0.491733,-0.491248,-1.000000
24.200000,0.516424,-0.514162,0.101093,9.576290,4.577102,3.423871,484.057312,4.362488,0.000000,41.660079,44.966368,6999.345837,-0.614027,-1.000000,-0.608677,1.000000
24.300000,0.558344,-0.514284,0.088564,10.168743,4.708906,3.090153,483.951630,4.256805,0.000000,41.660084,44.966380,6999.317399,-0.210623,1.000000,0.820114,1.000000
24.400000,0.616696,-0.509953,0.068584,10.828561,4.591315,2.528220,483.823639,4.128815,0.000000,41.660090,44.966392,6999.317399,1.000000,-0.583611,1.000000,0.990360
24.500000,0.688583,-0.500707,0.040121,11.489983,3.832302,1.860412,483.638733,3.943878,0.000000,41.660096,44.966403,6999.287966,0.165423,1.000000,0.072943,-1.000000
24.600000,0.753000,-0.487190,0.016524,12.053540,3.055782,1.270479,483.386505,3.691681,0.000000,41.660101,44.966416,6999.287966,-1.000000,-1.000000,0.965984,-1.000000
24.700000,0.804051,-0.466702,0.005844,12.523851,2.864665,0.810085,483.069122,3.374298,0.000000,41.660107,44.966428,6999.256957,-0.081549,-0.531287,-1.000000,-1.000000
24.800000,0.832541,-0.437586,0.014043,12.923343,3.128846,0.541767,482.778229,3.083405,0.000000,41.660113,44.966441,6999.256957,-0.766065,-0.965154,-1.000000,-1.000000
24.900000,0.840563,-0.404131,0.034206,13.301217,3.313725,0.486075,482.542267,2.847443,0.000000,41.660119,44.966454,6999.226156,-0.629663,0.192550,-0.053218,0.590234
25.000000,0.839546,-0.363860,0.057866,13.724099,3.881796,0.461730,482.363922,2.669098,0.000000,41.660126,44.966468,6999.226156,-0.917910,-0.130461,0.602069,0.563493
25.100000,0.844303,-0.323165,0.073031,14.226430,4.243678,0.359819,482.275391,2.580566,0.000000,41.660132,44.966483,6999.195770,-0.488893,0.987011,-0.626488,0.107023
25.200000,0.855931,-0.288002,0.079854,14.696764,4.070111,0.224959,482.241882,2.547058,0.000000,41.660139,44.966498,6999.195770,0.251424,0.101850,-0.829869,0.873218
25.300000,0.875956,-0.254512,0.079384,15.114684,3.391408,0.019969,482.199005,2.504181,0.000000,41.660146,44.966514,6999.167041,-0.611810,-1.000000,0.654707,-0.070935
25.400000,0.902118,-0.224223,0.071714,15.471439,2.998212,-0.277869,482.139313,2.444489,0.000000,41.660153,44.966530,6999.167041,-1.000000,-0.168516,0.097167,1.000000
25.500000,0.932322,-0.198640,0.058866,15.814088,3.374523,-0.675852,482.122589,2.427765,0.000000,41.660161,44.966546,6999.141339,-0.873682,-1.000000,-1.000000,-0.001140
25.600000,0.969235,-0.175987,0.042572,16.187819,3.950479,-1.171871,482.191620,2.496796,0.000000,41.660168,44.966563,6999.141339,-0.998720,-0.512831,-1.000000,0.665147
25.700000,1.006815,-0.157894,0.026806,16.514355,4.566618,-1.703360,482.347595,2.652771,0.000000,41.660175,44.966581,6999.115554,-1.000000,-0.691519,1.000000,0.017218
25.800000,1.044661,-0.144316,0.011617,16.756193,4.968369,-2.260575,482.569946,2.875122,0.000000,41.660183,44.966599,6999.115554,-0.305273,1.000000,-0.418116,0.333240
25.900000,1.085351,-0.131959,-0.004897,16.915713,4.735278,-2.836293,482.829468,3.134644,0.000000,41.660191,44.966617,6999.087696,-0.218323,0.201963,0.227968,-0.330374
26.000000,1.124744,-0.120903,-0.020829,17.026091,4.470278,-3.420201,483.068298,3.373474,0.000000,41.660198,44.966635,6999.087696,-1.000000,-0.910493,-0.980622,1.000000
26.100000,1.163434,-0.112090,-0.035521,17.096442,4.484398,-4.026991,483.294769,3.599945,0.000000,41.660206,44.966654,6999.059922,-0.112275,-1.000000,0.280470,-1.000000
26.200000,1.202712,-0.104489,-0.049008,17.132512,4.503435,-4.626320,483.542633,3.847839,0.000000,41.660214,44.966672,6999.059922,-1.000000,1.000000,-0.569856,-0.557786
26.300000,1.233368,-0.099305,-0.056557,17.204602,5.012947,-5.096645,483.812256,4.117432,0.000000,41.660221,44.966692,6999.031152,-1.000000,-0.060398,-0.471976,-0.343552
26.400000,1.255063,-0.097576,-0.056108,17.282291,5.587910,-5.447291,484.134949,4.440125,0.000000,41.660229,44.966711,6999.031152,0.417381,-0.137146,1.000000,-1.000000
26.500000,1.270154,-0.097566,-0.049450,17.326628,5.265472,-5.710342,484.488892,4.794067,0.000000,41.660237,44.966731,6999.000599,-0.450350,-0.143121,0.652066,0.999618
26.600000,1.286070,-0.097770,-0.042671,17.357064,4.849629,-6.021943,484.795990,5.101166,0.000000,41.660245,44.966750,6999.000599,-1.000000,0.193591,0.327180,0.938816
26.700000,1.310100,-0.098479,-0.038602,17.369284,5.220210,-6.522984,485.081757,5.386932,0.000000,41.660252,44.966770,6998.970130,-1.000000,-0.334322,-0.480851,-0.562177
26.800000,1.343675,-0.100909,-0.033839,17.322988,5.896602,-7.151169,485.453125,5.758331,0.000000,41.660260,44.966790,6998.970130,-0.122895,-0.284361,-0.067221,1.000000
26.900000,1.377945,-0.104224,-0.029287,17.191164,5.700344,-7.748648,485.842010,6.147186,0.000000,41.660268,44.966811,6998.939163,-0.159002,-1.000000,0.530735,-0.750961
27.000000,1.409164,-0.107038,-0.026552,17.060507,5.453523,-8.265498,486.175720,6.480896,0.000000,41.660276,44.966831,6998.939163,-0.712346,0.547339,0.802959,1.000000
27.100000,1.442383,-0.109868,-0.024789,16.908379,5.183139,-8.816201,486.508820,6.813995,0.000000,41.660284,44.966852,6998.906662,0.502659,-1.000000,-0.434519,0.058231
27.200000,1.478514,-0.111969,-0.025515,16.707812,4.740835,-9.384194,486.798981,7.104156,0.000000,41.660292,44.966872,6998.906662,-0.589299,-0.270361,-1.000000,0.414147
27.300000,1.512648,-0.113524,-0.026819,16.529685,4.603898,-9.924985,487.035065,7.340240,0.000000,41.660299,44.966893,6998.874783,-1.000000,1.000000,0.680553,1.000000
27.400000,1.552145,-0.116128,-0.026905,16.317625,4.909969,-10.552451,487.302399,7.607574,0.000000,41.660307,44.966915,6998.874783,0.974332,-1.000000,0.158638,-1.000000
27.500000,1.586109,-0.119412,-0.023882,16.088503,4.438534,-11.034126,487.558685,7.863861,0.000000,41.660315,44.966936,6998.842490,0.253723,-1.000000,-0.154307,0.936822
27.600000,1.610142,-0.122174,-0.019941,15.935269,3.715995,-11.360301,487.736816,8.041992,0.000000,41.660322,44.966957,6998.842490,0.210831,-1.000000,-1.000000,0.118716
27.700000,1.631504,-0.124962,-0.017098,15.839964,3.242513,-11.643356,487.863251,8.168427,0.000000,41.660329,44.966979,6998.809782,-0.452653,-0.002127,1.000000,-0.652328
27.800000,1.642297,-0.128341,-0.013152,15.871093,2.840415,-11.732997,487.952118,8.257294,0.000000,41.660337,44.967000,6998.809782,1.000000,1.000000,0.856870,1.000000
27.900000,1.644794,-0.131592,-0.010276,15.966383,2.152713,-11.709102,487.980804,8.285980,0.000000,41.660344,44.967022,6998.780681,1.000000,-0.048678,0.386551,-0.262673
28.000000,1.641390,-0.134335,-0.009885,16.129411,1.266879,-11.567585,487.921204,8.226379,0.000000,41.660351,44.967043,6998.780681,-0.752929,0.224271,1.000000,0.565341
28.100000,1.629333,-0.136837,-0.010059,16.431033,0.904981,-11.298954,487.790070,8.095245,0.000000,41.660358,44.967065,6998.754522,0.375130,0.910293,-0.306009,-0.025718
28.200000,1.611315,-0.139831,-0.009220,16.802818,0.796960,-10.933657,487.643951,7.949097,0.000000,41.660365,44.967087,6998.754522,0.363972,-0.196142,-0.588311,-1.000000
28.300000,1.577107,-0.143446,-0.003173,17.348518,0.605668,-10.215905,487.456329,7.761505,0.000000,41.660372,44.967109,6998.730686,-1.000000,1.000000,0.106401,-0.429770
28.400000,1.524608,-0.148067,0.014024,18.090185,1.072287,-9.191544,487.276062,7.581268,0.000000,41.660378,44.967131,6998.730686,-1.000000,-0.229529,1.000000,0.041818
28.500000,1.470563,-0.153756,0.037744,18.783503,1.766110,-8.190792,487.170746,7.475922,0.000000,41.660385,44.967154,6998.710248,-0.160059,0.387801,-0.803680,1.000000
28.600000,1.417880,-0.160546,0.063084,19.402733,2.274953,-7.188367,487.109558,7.414734,0.000000,41.660392,44.967176,6998.710248,-0.832628,0.879164,-0.830138,-0.856036
28.700000,1.366031,-0.167302,0.088492,19.946861,2.624441,-6.128743,487.081665,7.386810,0.000000,41.660398,44.967200,6998.692091,1.000000,-0.939368,-1.000000,-0.534777
28.800000,1.312403,-0.172047,0.113445,20.393009,2.354501,-4.948251,487.044830,7.350006,0.000000,41.660404,44.967223,6998.692091,1.000000,0.869422,0.585193,0.063187
28.900000,1.252806,-0.174248,0.138676,20.792717,1.742970,-3.605982,486.939545,7.244720,0.000000,41.660411,44.967247,6998.674970,-0.349154,1.000000,-1.000000,0.578593
29.000000,1.198205,-0.174678,0.159360,21.132625,1.478525,-2.355956,486.767334,7.072540,0.000000,41.660417,44.967271,6998.674970,-1.000000,-0.334727,-0.555601,-0.446970
29.100000,1.150421,-0.174265,0.176044,21.406362,1.477123,-1.201285,486.579926,6.885132,0.000000,41.660423,44.967295,6998.657476,1.000000,-0.269738,-0.592577,-0.189257
29.200000,1.098307,-0.172196,0.192851,21.624011,1.298572,0.119151,486.350952,6.656097,0.000000,41.660429,44.967319,6998.657476,1.000000,-0.419185,0.075932,-1.000000
29.300000,1.044637,-0.167854,0.209528,21.755175,0.982932,1.480698,486.069855,6.375031,0.000000,41.660435,44.967343,6998.637329,-0.447672,-0.543603,1.000000,1.000000
29.400000,1.001957,-0.163700,0.221352,21.841110,0.850293,2.563699,485.765381,6.070557,0.000000,41.660441,44.967368,6998.637329,0.413003,-0.425660,-0.224694,0.712265
29.500000,0.971473,-0.161357,0.226581,21.936162,0.676937,3.380703,485.415009,5.720184,0.000000,41.660446,44.967392,6998.614363,0.192533,-0.269612,-0.933154,0.105494
29.600000,0.953798,-0.161079,0.225091,22.065481,0.510382,3.953885,485.026184,5.331360,0.000000,41.660452,44.967417,6998.614363,-0.888681,-0.140879,0.305243,-1.000000
29.700000,0.938528,-0.161526,0.223900,22.241194,1.032564,4.526333,484.661163,4.966339,0.000000,41.660458,44.967443,6998.590153,-0.611618,0.745812,-1.000000,-1.000000
29.800000,0.912788,-0.161521,0.231628,22.395823,2.221803,5.328564,484.341278,4.646454,0.000000,41.660463,44.967469,6998.590153,-1.000000,0.069493,-0.231088,1.000000
29.900000,0.888938,-0.163219,0.243459,22.532468,3.796424,5.963741,484.128754,4.433929,0.000000,41.660469,44.967495,6998.564327,-1.000000,-1.000000,0.297093,-1.000000
30.000000,0.875068,-0.167211,0.254102,22.684344,5.298600,6.368724,484.047791,4.352966,0.000000,41.660474,44.967523,6998.564327,-0.952765,0.780108,-0.711736,-0.317939
30.100000,0.862710,-0.171183,0.267217,22.823096,6.201949,6.779759,484.057098,4.362305,0.000000,41.660479,44.967551,6998.536345,1.000000,-0.187578,-0.339043,0.797911
30.200000,0.862260,-0.176213,0.276494,22.997444,6.106481,6.901028,484.068359,4.373505,0.000000,41.660484,44.967580,6998.536345,-1.000000,0.529547,-0.103310,1.000000
30.300000,0.881843,-0.183920,0.277059,23.321729,6.043105,6.579263,484.042786,4.347931,0.000000,41.660489,44.967608,6998.508031,-1.000000,-1.000000,0.000848,-0.981314
30.400000,0.912941,-0.192845,0.273988,23.781886,6.879007,6.051328,484.035950,4.341125,0.000000,41.660494,44.967638,6998.508031,-1.000000,-0.080346,0.358365,-0.911397
30.500000,0.939333,-0.197965,0.275544,24.216613,7.830895,5.669692,484.116791,4.421967,0.000000,41.660498,44.967668,6998.478764,-0.117456,-0.829313,-0.430574,0.364177
30.600000,0.961325,-0.198999,0.281161,24.584739,7.777752,5.357963,484.223877,4.529022,0.000000,41.660503,44.967698,6998.478764,0.666076,0.423493,1.000000,-1.000000
30.700000,0.985384,-0.196608,0.288839,24.971445,7.259841,5.060552,484.300995,4.606171,0.000000,41.660507,44.967729,6998.447797,-0.997511,0.607170,1.000000,-0.160008
30.800000,1.007258,-0.190451,0.299138,25.366344,6.947800,4.808246,484.338715,4.643890,0.000000,41.660511,44.967760,6998.447797,-1.000000,1.000000,-1.000000,0.976519
30.900000,1.035376,-0.185152,0.306348,25.807948,7.380957,4.282866,484.394623,4.699799,0.000000,41.660515,44.967791,6998.417037,-0.586128,-0.178587,-0.765595,1.000000
31.000000,1.083693,-0.183246,0.305800,26.326158,7.429360,3.253174,484.508514,4.813690,0.000000,41.660519,44.967824,6998.417037,-0.474832,-1.000000,-0.374449,0.571098
31.100000,1.145625,-0.182587,0.298011,26.813392,6.954904,1.951358,484.628204,4.933899,0.000000,41.660522,44.967856,6998.385821,-0.197655,1.000000,1.000000,0.345239
31.200000,1.208245,-0.180374,0.287495,27.213465,6.530758,0.648346,484.730927,5.041595,0.000000,41.660526,44.967889,6998.385821,-1.000000,-0.978018,0.224108,-0.416793
31.300000,1.272592,-0.175169,0.277547,27.584559,6.698263,-0.706325,484.865906,5.181580,0.000000,41.660529,44.967922,6998.353196,-1.000000,1.000000,-1.000000,1.000000
31.400000,1.337375,-0.168515,0.269464,27.885297,6.892694,-2.127050,485.088715,5.409454,0.000000,41.660532,44.967956,6998.353196,0.071719,-0.024375,0.232987,0.050352
31.500000,1.400038,-0.161218,0.261714,28.052645,6.368065,-3.485692,485.323486,5.649353,0.000000,41.660534,44.967990,6998.321110,-1.000000,0.730159,0.402205,0.804143
31.600000,1.465313,-0.151864,0.255865,28.142707,5.959920,-4.881112,485.580475,5.911438,0.000000,41.660536,44.968024,6998.321110,-0.420257,-1.000000,-0.167906,-1.000000
31.700000,1.522841,-0.140148,0.256296,28.173812,5.399010,-6.051202,485.863251,6.199341,0.000000,41.660538,44.968058,6998.288775,0.918717,-0.099550,1.000000,1.000000
31.800000,1.570457,-0.127296,0.259430,28.134141,4.189363,-6.964211,486.104706,6.445923,0.000000,41.660540,44.968093,6998.288775,0.019365,0.913319,-0.781329,0.861259
31.900000,1.623266,-0.114452,0.258743,27.989981,2.963778,-8.037016,486.298370,6.644684,0.000000,41.660541,44.968128,6998.255114,-0.551443,-0.779727,-1.000000,1.000000
32.000000,1.681574,-0.104590,0.251973,27.737223,2.388137,-9.260505,486.470398,6.821777,0.000000,41.660542,44.968162,6998.255114,0.147268,0.064184,0.323435,0.699730
32.100000,1.735416,-0.096715,0.241721,27.405367,1.698349,-10.331695,486.626434,6.982880,0.000000,41.660543,44.968197,6998.222281,1.000000,-0.271935,0.758317,0.180610
32.200000,1.784385,-0.087614,0.228348,27.038426,0.794294,-11.229720,486.744659,7.106201,0.000000,41.660544,44.968232,6998.222281,-1.000000,-0.042349,0.376714,1.000000
32.300000,1.826017,-0.078942,0.213302,26.717727,0.408861,-11.965282,486.832794,7.199371,0.000000,41.660544,44.968266,6998.189449,1.000000,0.030307,-0.383032,0.105691
32.400000,1.857542,-0.071582,0.199412,26.470291,0.194240,-12.474163,486.908264,7.279877,0.000000,41.660544,44.968301,6998.189449,-1.000000,-1.000000,0.708174,1.000000
32.500000,1.880736,-0.064450,0.186689,26.319225,0.420841,-12.747432,486.994598,7.371246,0.000000,41.660544,44.968336,6998.157777,-1.000000,0.011608,0.632439,-1.000000
32.600000,1.886269,-0.056846,0.181333,26.403565,1.307541,-12.556044,487.155518,7.537201,0.000000,41.660544,44.968370,6998.157777,-0.308703,1.000000,1.000000,0.133270
32.700000,1.872091,-0.048280,0.184906,26.696324,1.643955,-11.854384,487.380005,7.766724,0.000000,41.660543,44.968405,6998.130541,-0.062196,-0.687804,1.000000,-1.000000
32.800000,1.837479,-0.036692,0.195344,27.176464,1.403544,-10.559888,487.637054,8.028839,0.000000,41.660542,44.968440,6998.130541,0.896836,-1.000000,1.000000,-0.934986
32.900000,1.781721,-0.021175,0.211333,27.760394,0.642398,-8.618088,487.857666,8.254425,0.000000,41.660540,44.968474,6998.106580,0.804723,1.000000,-0.669045,-0.768685
33.000000,1.715124,-0.003168,0.229147,28.275722,-0.183674,-6.358505,487.998688,8.400421,0.000000,41.660539,44.968508,6998.106580,-0.484264,-1.000000,-0.876666,-0.224835
33.100000,1.641150,0.016326,0.247786,28.687404,-0.336768,-3.905998,488.107941,8.514618,0.000000,41.660537,44.968543,6998.084941,-1.000000,0.818892,-1.000000,0.893733
33.200000,1.578011,0.031482,0.262294,28.909373,0.235512,-1.861108,488.247284,8.658844,0.000000,41.660535,44.968577,6998.084941,0.327308,1.000000,0.658893,0.662483
33.300000,1.535223,0.039604,0.270817,28.973671,0.690943,-0.456494,488.421631,8.838074,0.000000,41.660532,44.968611,6998.065540,0.315858,-1.000000,1.000000,0.961623
33.400000,1.505802,0.042863,0.273118,28.939744,0.576572,0.595111,488.606354,9.027740,0.000000,41.660530,44.968645,6998.065540,0.346263,0.101931,-0.504240,-1.000000
33.500000,1.481099,0.044425,0.271361,28.886261,0.586668,1.600743,488.757996,9.184296,0.000000,41.660527,44.968679,6998.046512,-0.512750,0.653560,1.000000,-0.963634
33.600000,1.449627,0.047557,0.272398,28.810647,1.041902,2.810351,488.898621,9.329773,0.000000,41.660524,44.968713,6998.046512,-1.000000,0.779761,-0.803577,1.000000
33.700000,1.416055,0.050218,0.275999,28.703356,2.106489,3.962017,489.101440,9.537506,0.000000,41.660521,44.968747,6998.026406,-0.360817,-0.437331,1.000000,-0.218452
33.800000,1.396179,0.048905,0.278823,28.616303,3.162295,4.664964,489.385529,9.826447,0.000000,41.660517,44.968781,6998.026406,-1.000000,-1.000000,0.764839,1.000000
33.900000,1.390735,0.044455,0.279487,28.588936,4.183462,4.929376,489.721802,10.167694,0.000000,41.660513,44.968815,6998.004725,-1.000000,1.000000,-0.496986,0.586998
34.000000,1.402705,0.035947,0.276478,28.651005,5.304713,4.690634,490.180725,10.631592,0.000000,41.660509,44.968849,6998.004725,1.000000,0.954463,-0.215405,0.647608
34.100000,1.431213,0.025362,0.270031,28.753349,5.223472,4.066713,490.673187,11.129059,0.000000,41.660504,44.968883,6997.980972,-0.912155,0.697313,0.500041,0.651212
34.200000,1.470223,0.015199,0.261735,28.887579,4.915671,3.175676,491.102386,11.563263,0.000000,41.660499,44.968917,6997.980972,-1.000000,-1.000000,0.131656,-0.349124
34.300000,1.515715,0.006124,0.254311,29.046745,5.098565,2.137235,491.558380,12.024231,0.000000,41.660494,44.968951,6997.954731,0.757482,-1.000000,0.278490,-1.000000
34.400000,1.555019,0.001515,0.251754,29.144274,4.650871,1.368647,492.011475,12.480225,0.000000,41.660489,44.968985,6997.954731,-0.613922,-0.507135,-1.000000,-0.871985
34.500000,1.578703,0.003188,0.256319,29.203889,4.073717,1.045902,492.390778,12.861359,0.000000,41.660483,44.969019,6997.927826,0.146314,-0.919612,0.583211,-0.429722
34.600000,1.594676,0.009043,0.267707,29.261786,3.579934,0.929656,492.764069,13.236481,0.000000,41.660477,44.969053,6997.927826,0.436307,-0.073904,1.000000,1.000000
34.700000,1.613717,0.015567,0.280164,29.290566,2.716011,0.670744,493.086975,13.561188,0.000000,41.660472,44.969087,6997.899803,0.081860,-1.000000,-0.270511,0.245918
34.800000,1.643697,0.019286,0.289047,29.310785,1.953486,0.082151,493.339722,13.815796,0.000000,41.660466,44.969121,6997.899803,0.281799,0.610365,-1.000000,0.743352
34.900000,1.682848,0.021646,0.296462,29.291893,1.012495,-0.680694,493.557983,14.035950,0.000000,41.660459,44.969154,6997.869831,1.000000,0.471626,0.590572,-1.000000
35.000000,1.717504,0.025658,0.304450,29.225910,-0.093656,-1.220043,493.701477,14.181335,0.000000,41.660453,44.969188,6997.869831,0.359439,-0.980294,0.334433,-0.263776
35.100000,1.737937,0.032777,0.314191,29.160173,-1.009713,-1.320591,493.766907,14.248596,0.000000,41.660447,44.969222,6997.839983,-0.136955,0.347393,0.623183,0.658422
35.200000,1.753438,0.040552,0.324291,29.123071,-1.329073,-1.352747,493.799194,14.282776,0.000000,41.660440,44.969255,6997.839983,-1.000000,0.105504,0.465711,0.716669
35.300000,1.775690,0.043314,0.330337,29.099814,-0.948720,-1.695680,493.864746,14.350220,0.000000,41.660433,44.969289,6997.809762,0.864258,1.000000,-0.929908,1.000000
35.400000,1.805041,0.041039,0.330464,29.027506,-1.061984,-2.273770,493.957214,14.444611,0.000000,41.660426,44.969322,6997.809762,-0.552876,-1.000000,0.038864,0.511011
35.500000,1.839655,0.036167,0.324484,28.907332,-1.339600,-2.958479,494.041473,14.530792,0.000000,41.660418,44.969355,6997.780495,1.000000,-0.296976,0.905748,0.069339
35.600000,1.869022,0.032152,0.315513,28.785369,-1.603512,-3.452666,494.102631,14.593933,0.000000,41.660411,44.969388,6997.780495,-0.445301,-0.866572,-1.000000,-0.545617
35.700000,1.886179,0.030759,0.306894,28.720883,-1.662570,-3.617752,494.140961,14.634186,0.000000,41.660403,44.969420,6997.755207,0.295833,-1.000000,-0.907833,0.590317
35.800000,1.895035,0.030417,0.296906,28.694544,-1.618858,-3.537782,494.182343,14.677490,0.000000,41.660394,44.969453,6997.755207,0.035600,-0.580362,1.000000,-1.000000
35.900000,1.893329,0.031795,0.286927,28.684100,-1.794471,-3.166337,494.206421,14.703491,0.000000,41.660386,44.969485,6997.732739,0.725418,-0.478033,-0.175053,1.000000
36.000000,1.886383,0.033719,0.277024,28.687442,-1.941215,-2.709705,494.201508,14.700500,0.000000,41.660377,44.969518,6997.732739,-0.205486,-0.013012,1.000000,0.322555
