t,yaw,pitch,roll,speed.x,speed.y,speed.z,altBar,altRad,egt,myloclat,myloclon,weightlb,collective,bank,pitch,rudder
0.100000,5.374699,0.031624,0.000931,-0.097073,0.517387,0.032737,481.239288,1.544464,0.000000,41.659724,44.965707,7004.964901,-0.667584,0.761322,1.000000,0.235224
0.200000,5.372191,0.037350,0.004263,-0.080363,0.130265,0.053738,481.265625,1.570801,0.000000,41.659724,44.965707,7004.964901,0.414268,-1.000000,-0.644467,0.887770
0.300000,5.372847,0.041594,0.005418,-0.059289,0.141476,-0.053861,481.275787,1.580994,0.000000,41.659724,44.965707,7000.556034,-1.000000,-0.299313,1.000000,1.000000
0.400000,5.379567,0.044590,0.000048,-0.014070,0.370736,-0.120054,481.299744,1.604919,0.000000,41.659724,44.965707,7000.556034,0.074766,0.005749,0.263091,-0.369889
0.500000,5.390638,0.044816,-0.005093,0.037529,0.610465,-0.147799,481.351593,1.656769,0.000000,41.659724,44.965707,7000.556034,-0.902748,-1.000000,0.593565,-1.000000
0.600000,5.399267,0.042656,-0.008407,0.086200,0.809473,-0.149206,481.418335,1.723511,0.000000,41.659724,44.965707,7000.556034,-0.334986,-1.000000,-1.000000,0.882377
0.700000,5.407923,0.037769,-0.010874,0.128582,0.882335,-0.180771,481.508789,1.813965,0.000000,41.659724,44.965706,7000.541649,-0.326627,1.000000,-0.130155,-0.108479
0.800000,5.421103,0.031079,-0.014100,0.147453,0.633140,-0.210614,481.591064,1.896271,0.000000,41.659724,44.965706,7000.541649,0.788373,-0.606105,0.228398,0.611875
0.900000,5.438139,0.024314,-0.018287,0.137566,-0.006420,-0.237992,481.622894,1.928070,0.000000,41.659724,44.965706,7000.526974,0.985907,-0.148688,-0.241139,0.621728
1.000000,5.463003,0.017606,-0.024674,0.125912,-0.797088,-0.263871,481.578278,1.883453,0.000000,41.659724,44.965706,7000.526974,-0.587470,1.000000,1.000000,-0.918507
1.100000,5.487311,0.011089,-0.028090,0.148439,-1.163913,-0.221213,481.475342,1.780518,0.000000,41.659724,44.965705,7000.509894,1.000000,0.780691,-1.000000,-1.000000
1.200000,5.499028,0.004559,-0.022047,0.188763,-1.307729,-0.137104,481.353790,1.658966,0.000000,41.659724,44.965705,7000.509894,-1.000000,0.396456,-0.417032,-0.388561
1.300000,5.503774,0.002763,-0.003790,-0.070168,0.215150,0.272131,481.281555,1.586731,0.000000,41.659724,44.965705,7000.489374,-0.112845,0.419709,-0.225400,-0.220360
1.400000,5.505638,0.008566,0.011407,-0.042742,0.499245,0.226173,481.329773,1.634949,0.000000,41.659724,44.965705,7000.489374,0.681114,0.610832,0.060368,0.670562
1.500000,5.514393,0.012898,0.024706,-0.014827,0.053100,0.222582,481.357880,1.663055,0.000000,41.659724,44.965706,7000.467444,0.078689,1.000000,0.193907,0.330549
1.600000,5.533917,0.017376,0.036093,0.028624,-0.467811,0.191473,481.333252,1.638428,0.000000,41.659724,44.965706,7000.467444,1.000000,-0.896176,0.001333,0.492623
1.700000,5.554548,0.028537,0.029744,-0.014561,-0.430771,-0.169828,481.282715,1.587891,0.000000,41.659724,44.965706,7000.443815,0.198382,1.000000,-1.000000,-0.390124
1.800000,5.569747,0.041815,0.006046,-0.168865,-0.084255,-0.347434,481.254028,1.559204,0.000000,41.659724,44.965705,7000.443815,0.765309,1.000000,-0.614928,0.276110
1.900000,5.577392,0.052651,-0.006806,-0.204153,0.267783,-0.112894,481.269623,1.574829,0.000000,41.659724,44.965705,7000.417657,-0.375121,-0.798145,-1.000000,1.000000
2.000000,5.589621,0.058775,-0.010381,-0.233847,0.207049,0.026365,481.289734,1.594940,0.000000,41.659724,44.965705,7000.417657,0.598912,-1.000000,0.498822,-0.010971
2.100000,5.603702,0.061310,-0.010672,-0.230693,-0.028197,0.102891,481.298981,1.604156,0.000000,41.659724,44.965706,7000.390877,0.477714,0.742040,-0.924579,-0.689419
2.200000,5.612122,0.061779,-0.006525,-0.084663,-0.123735,0.172516,481.286896,1.592072,0.000000,41.659724,44.965706,7000.390877,0.046158,1.000000,-1.000000,-0.298614
2.300000,5.609357,0.060269,0.006058,0.038888,0.127110,0.214650,481.282074,1.587250,0.000000,41.659724,44.965706,7000.364511,-0.690933,-0.708290,1.000000,-0.804860
2.400000,5.598204,0.054300,0.014735,0.044971,0.389599,0.217208,481.311005,1.616180,0.000000,41.659724,44.965706,7000.364511,0.151223,0.577341,0.656828,-0.063820
2.500000,5.580785,0.045446,0.025031,0.049728,0.169960,0.258034,481.345276,1.650452,0.000000,41.659724,44.965707,7000.339348,0.739480,-0.000073,-1.000000,-0.263304
2.600000,5.561652,0.035610,0.033881,0.037017,-0.302406,0.291131,481.334869,1.640045,0.000000,41.659724,44.965707,7000.339348,-0.258201,0.612064,-0.907691,0.091270
2.700000,5.542020,0.026317,0.029605,-0.065029,-0.184993,0.226462,481.308990,1.614197,0.000000,41.659724,44.965707,7000.317211,0.238127,-0.122613,-0.983924,-1.000000
2.800000,5.513780,0.018530,0.011451,-0.178854,-0.115945,0.217742,481.294434,1.599609,0.000000,41.659724,44.965707,7000.317211,-0.147769,0.025752,0.521772,-1.000000
2.900000,5.477787,0.015316,-0.002091,-0.099029,0.198944,0.275885,481.296173,1.601318,0.000000,41.659724,44.965708,7000.297147,-0.536709,0.399183,0.356291,0.586945
3.000000,5.445532,0.013957,-0.001651,-0.034667,0.516866,0.273461,481.328888,1.634064,0.000000,41.659724,44.965708,7000.297147,-0.551318,-1.000000,-0.622583,-1.000000
3.100000,5.413040,0.010321,0.005380,0.045479,0.853532,0.273454,481.399597,1.704773,0.000000,41.659724,44.965708,7000.277788,-0.677544,-1.000000,1.000000,-0.128283
3.200000,5.379055,0.004228,0.017973,0.134656,1.245449,0.276582,481.505249,1.810425,0.000000,41.659725,44.965708,7000.277788,-0.673409,-1.000000,-0.145342,-0.052905
3.300000,5.350787,-0.003814,0.031501,0.204041,1.325863,0.264309,481.634125,1.939301,0.000000,41.659725,44.965709,7000.259423,0.745729,0.813982,-1.000000,0.027043
3.400000,5.325866,-0.013473,0.044473,0.234853,0.787703,0.308216,481.743073,2.048248,0.000000,41.659725,44.965709,7000.259423,-0.125377,0.700490,-1.000000,-0.812905
3.500000,5.301732,-0.023004,0.056664,0.271471,0.221771,0.392308,481.789307,2.094482,0.000000,41.659726,44.965709,7000.240810,-0.588805,0.430926,0.089881,0.106867
3.600000,5.280016,-0.032128,0.067656,0.356574,0.336531,0.454923,481.806213,2.111389,0.000000,41.659726,44.965709,7000.240810,-0.958247,0.182802,-1.000000,-0.744344
3.700000,5.258510,-0.043608,0.080009,0.525201,1.267416,0.510825,481.878540,2.183716,0.000000,41.659727,44.965709,7000.219253,-1.000000,0.888534,-1.000000,-0.195739
3.800000,5.237149,-0.058070,0.095046,0.678632,1.987793,0.589445,482.045898,2.351074,0.000000,41.659728,44.965709,7000.219253,0.553258,-0.666992,0.404481,-1.000000
3.900000,5.216028,-0.072220,0.110222,0.756232,1.810257,0.707422,482.220734,2.525909,0.000000,41.659729,44.965708,7000.196121,1.000000,0.863509,1.000000,0.056325
4.000000,5.194425,-0.086159,0.125299,0.827217,1.242296,0.861428,482.357513,2.662720,0.000000,41.659730,44.965708,7000.196121,-1.000000,-0.671856,-1.000000,-1.000000
4.100000,5.173608,-0.099083,0.139937,0.956421,1.084582,1.036858,482.446991,2.752167,0.000000,41.659731,44.965708,7000.171165,-0.713872,1.000000,0.244379,-0.235217
4.200000,5.153462,-0.111645,0.155412,1.118959,1.324630,1.204895,482.538269,2.843445,0.000000,41.659733,44.965708,7000.171165,1.000000,-0.402582,-0.626759,-1.000000
4.300000,5.131474,-0.124530,0.172497,1.242082,0.990121,1.431369,482.620605,2.925781,0.000000,41.659734,44.965707,7000.143846,-1.000000,-0.627646,1.000000,-1.000000
4.400000,5.103987,-0.134658,0.190444,1.366170,0.797224,1.701998,482.658234,2.963409,0.000000,41.659736,44.965707,7000.143846,0.340507,0.563242,-0.866754,-1.000000
4.500000,5.073292,-0.141577,0.207106,1.475474,0.604429,1.960741,482.674957,2.980133,0.000000,41.659739,44.965707,7000.116071,0.573612,-1.000000,-0.375088,-0.627128
4.600000,5.040315,-0.146330,0.222619,1.560716,-0.069561,2.257164,482.635498,2.940704,0.000000,41.659741,44.965706,7000.116071,0.919074,-0.233641,-0.379034,0.471339
4.700000,5.016145,-0.150145,0.232136,1.660516,-0.794031,2.500917,482.511597,2.816772,0.000000,41.659743,44.965706,7000.087260,-1.000000,-0.205507,-0.813566,1.000000
4.800000,5.007086,-0.154042,0.228808,1.787094,-1.030102,2.629316,482.342804,2.647980,0.000000,41.659746,44.965705,7000.087260,1.000000,-1.000000,-1.000000,-1.000000
4.900000,5.006467,-0.156546,0.211197,1.939420,-1.352720,2.792612,482.141418,2.446594,0.000000,41.659748,44.965705,7000.056583,1.000000,0.563905,-0.063442,-0.151312
5.000000,5.005558,-0.155639,0.191729,2.082112,-2.084815,2.994143,481.881042,2.186218,0.000000,41.659751,44.965704,7000.056583,0.455839,0.758067,-0.010222,-1.000000
5.100000,4.998566,-0.146656,0.174723,1.588592,-1.623076,2.429864,481.615692,1.920868,0.000000,41.659753,44.965704,7000.026238,-0.380539,-0.079662,-1.000000,-0.350912
5.200000,4.974554,-0.115216,0.147088,0.161632,0.208884,1.048064,481.513367,1.818542,0.000000,41.659755,44.965704,7000.026238,1.000000,0.884372,-0.934459,-1.000000
5.300000,4.941165,-0.072433,0.117632,-0.163451,0.205706,0.826971,481.534302,1.839478,0.000000,41.659755,44.965704,6999.996391,0.002541,0.302253,-1.000000,-0.173969
5.400000,4.908920,-0.034176,0.100266,-0.125333,-0.309542,0.938056,481.517395,1.822571,0.000000,41.659756,44.965705,6999.996391,0.422535,-0.118247,-1.000000,0.267924
5.500000,4.881884,0.001926,0.087450,-0.123878,-0.718396,0.965990,481.456604,1.761780,0.000000,41.659757,44.965705,6999.967372,0.292169,1.000000,-1.000000,0.919358
5.600000,4.868139,0.032942,0.075842,-0.174341,-0.787434,0.835441,481.361572,1.666748,0.000000,41.659758,44.965706,6999.967372,-0.639221,0.696822,-0.034165,1.000000
5.700000,4.871280,0.054218,0.063462,-0.162682,0.175957,0.267241,481.322693,1.627869,0.000000,41.659758,44.965706,6999.942209,-0.425871,-0.628331,-1.000000,0.882304
5.800000,4.888051,0.070126,0.051941,-0.104271,0.518712,0.143908,481.367615,1.672791,0.000000,41.659758,44.965707,6999.942209,1.000000,0.067381,0.076426,0.525859
5.900000,4.913039,0.081880,0.045368,-0.116201,0.208702,0.165279,481.402710,1.707886,0.000000,41.659758,44.965707,6999.919740,-1.000000,0.401077,1.000000,0.037718
6.000000,4.939782,0.089805,0.043444,-0.116683,0.170752,0.172727,481.413422,1.718597,0.000000,41.659758,44.965707,6999.919740,-1.000000,1.000000,-1.000000,1.000000
6.100000,4.971789,0.093364,0.045698,-0.055683,0.804289,0.170539,481.458832,1.764008,0.000000,41.659758,44.965707,6999.899054,-0.522057,0.037886,-0.136740,-1.000000
6.200000,5.002924,0.091213,0.052876,-0.019734,1.186663,0.192964,481.565125,1.870300,0.000000,41.659759,44.965707,6999.899054,-0.431217,-1.000000,-1.000000,1.000000
6.300000,5.032510,0.084836,0.061912,0.012854,1.487450,0.196138,481.688690,1.993866,0.000000,41.659759,44.965708,6999.880607,-1.000000,0.454781,-0.574520,0.998032
6.400000,5.070877,0.072623,0.070582,0.053921,1.887546,0.177279,481.860352,2.165527,0.000000,41.659759,44.965708,6999.880607,-0.375853,0.606480,1.000000,-0.161985
6.500000,5.113919,0.055909,0.077124,0.076614,2.097561,0.207121,482.065918,2.371094,0.000000,41.659759,44.965708,6999.862657,-0.212413,0.094255,-0.294659,0.390607
6.600000,5.155478,0.037822,0.080871,0.082929,1.986755,0.256813,482.259094,2.564270,0.000000,41.659759,44.965709,6999.862657,-0.615090,0.649065,-0.932927,0.508097
6.700000,5.201948,0.016583,0.081893,0.143301,2.187142,0.327042,482.463043,2.768219,0.000000,41.659760,44.965709,6999.842883,-1.000000,0.521291,-1.000000,-1.000000
6.800000,5.245660,-0.007007,0.083915,0.222998,2.454766,0.405816,482.702393,3.007568,0.000000,41.659760,44.965709,6999.842883,0.091866,-0.988404,-0.406210,1.000000
6.900000,5.287711,-0.030106,0.084346,0.269667,2.162730,0.463364,482.923737,3.228912,0.000000,41.659761,44.965709,6999.821285,1.000000,1.000000,0.385687,0.147006
7.000000,5.337750,-0.054090,0.079568,0.329492,1.507864,0.533693,483.103363,3.408539,0.000000,41.659762,44.965709,6999.821285,-0.868220,0.686395,-0.541964,0.121587
7.100000,5.390994,-0.076970,0.070584,0.462442,1.183693,0.589737,483.227112,3.532288,0.000000,41.659762,44.965710,6999.797531,-1.000000,0.408243,0.083617,1.000000
7.200000,5.445978,-0.098655,0.059668,0.649593,1.284687,0.608965,483.337494,3.642670,0.000000,41.659763,44.965710,6999.797531,0.029312,1.000000,0.513094,-0.170029
7.300000,5.507039,-0.121192,0.046439,0.843701,1.156371,0.634922,483.451843,3.756989,0.000000,41.659764,44.965710,6999.771207,-0.549946,0.262852,1.000000,0.107040
7.400000,5.567718,-0.141877,0.033518,1.042219,0.788549,0.632324,483.538574,3.843750,0.000000,41.659765,44.965710,6999.771207,1.000000,0.011760,0.196972,0.377375
7.500000,5.629122,-0.158839,0.018543,1.228703,0.104096,0.592861,483.564575,3.869751,0.000000,41.659766,44.965710,6999.744303,1.000000,0.376645,-0.612531,0.627851
7.600000,5.698343,-0.173323,-0.001048,1.440067,-0.766257,0.513274,483.505493,3.810669,0.000000,41.659768,44.965709,6999.744303,-1.000000,-0.032794,-0.729377,0.608664
7.700000,5.771352,-0.183820,-0.023221,1.672858,-1.182024,0.378261,483.374786,3.679932,0.000000,41.659769,44.965709,6999.716113,0.776006,1.000000,-1.000000,0.446070
7.800000,5.842946,-0.189577,-0.043155,1.888327,-1.229651,0.212283,483.229431,3.534607,0.000000,41.659770,44.965709,6999.716113,-1.000000,-1.000000,0.975740,-1.000000
7.900000,5.913101,-0.191414,-0.055599,2.107180,-0.867020,0.122622,483.079071,3.384247,0.000000,41.659772,44.965709,6999.686100,-0.231329,0.156616,-0.500112,-0.263862
8.000000,5.968379,-0.190236,-0.049864,2.330991,-0.403416,0.041986,482.980835,3.286011,0.000000,41.659774,44.965708,6999.686100,0.171498,1.000000,-0.699318,1.000000
8.100000,6.017695,-0.187227,-0.039663,2.521605,-0.677014,-0.089392,482.888336,3.193512,0.000000,41.659776,44.965708,6999.656667,0.074085,-0.077433,-1.000000,-0.252659
8.200000,6.072670,-0.181931,-0.030245,2.702500,-0.999118,-0.232472,482.753571,3.058746,0.000000,41.659778,44.965708,6999.656667,0.054711,0.668970,-0.846839,1.000000
8.300000,6.131744,-0.174227,-0.024164,2.854967,-1.444779,-0.421060,482.582733,2.887909,0.000000,41.659780,44.965707,6999.627109,1.000000,-0.050029,0.599579,-0.425598
8.400000,6.188174,-0.164845,-0.021940,2.968767,-2.112406,-0.535880,482.368134,2.673309,0.000000,41.659782,44.965707,6999.627109,1.000000,0.041852,-1.000000,-0.662946
8.500000,6.234057,-0.153549,-0.017760,3.070331,-2.993333,-0.553581,482.058716,2.363892,0.000000,41.659785,44.965706,6999.597718,0.632567,1.000000,0.376287,0.594365
8.600000,6.268715,-0.141117,-0.012859,3.146461,-3.703265,-0.607100,481.672211,1.977386,0.000000,41.659787,44.965706,6999.597718,0.964098,-0.766066,-0.428653,-0.169561
8.700000,0.014575,-0.122603,-0.007539,0.995628,-1.661783,-0.417485,481.347534,1.652710,0.000000,41.659789,44.965706,6999.570813,0.207155,-0.203081,1.000000,-0.153694
8.800000,0.028667,-0.080123,-0.009946,-0.879739,0.685914,-0.065025,481.368622,1.673798,0.000000,41.659788,44.965705,6999.570813,1.000000,-1.000000,-1.000000,0.340279
8.900000,0.034003,-0.032872,-0.011357,-0.807415,-0.085596,-0.049817,481.404755,1.709930,0.000000,41.659788,44.965705,6999.546438,0.730612,-1.000000,-0.412824,1.000000
9.000000,0.041029,0.006261,-0.015966,-0.802114,-0.788336,-0.082078,481.360687,1.665894,0.000000,41.659787,44.965705,6999.546438,0.419807,-0.084334,1.000000,1.000000
9.100000,0.054968,0.043584,-0.016136,-0.737479,-0.932961,0.053147,481.257446,1.562622,0.000000,41.659786,44.965705,6999.524301,1.000000,0.808557,0.506664,-0.698282
9.200000,0.060042,0.078536,-0.006019,-0.402344,0.495374,0.219047,481.233185,1.538361,0.000000,41.659786,44.965705,6999.524301,-1.000000,-0.015969,-0.593265,0.409569
9.300000,0.058645,0.103640,0.005143,-0.335157,0.846821,0.155592,481.302979,1.608154,0.000000,41.659785,44.965705,6999.505356,-0.773192,-0.963557,0.579253,-0.185797
9.400000,0.053820,0.125459,0.013241,-0.346542,0.868921,0.162073,481.389954,1.695129,0.000000,41.659785,44.965705,6999.505356,1.000000,-0.017866,-1.000000,-0.550814
9.500000,0.041635,0.142613,0.018164,-0.423147,0.406735,0.190343,481.449219,1.754395,0.000000,41.659785,44.965705,6999.488484,-0.550100,-1.000000,0.053537,1.000000
9.600000,0.029571,0.154894,0.018004,-0.509285,0.001838,0.187611,481.460754,1.765900,0.000000,41.659784,44.965705,6999.488484,1.000000,0.143901,-0.812732,0.090385
9.700000,0.019712,0.163891,0.012103,-0.612042,-0.537772,0.164401,481.426727,1.731903,0.000000,41.659784,44.965705,6999.472731,0.978739,0.546447,-0.011312,1.000000
9.800000,0.013592,0.171268,0.002576,-0.154536,-0.362420,-0.069551,481.355927,1.661102,0.000000,41.659783,44.965705,6999.472731,0.226852,-0.264018,-0.497294,-0.243314
9.900000,0.012018,0.175638,-0.002373,-0.121602,-0.314505,-0.071950,481.326843,1.632019,0.000000,41.659783,44.965705,6999.458470,0.115903,0.935266,0.848912,-0.428597
10.000000,0.009473,0.175337,-0.003809,0.056277,0.208159,0.002766,481.319794,1.624969,0.000000,41.659783,44.965705,6999.458470,-0.530090,1.000000,0.377947,0.677112
10.100000,0.008060,0.170256,-0.001963,0.046336,0.424132,0.000450,481.352722,1.657898,0.000000,41.659783,44.965705,6999.444002,-1.000000,-1.000000,-0.680478,1.000000
10.200000,0.009959,0.162950,-0.002915,0.147791,0.886937,-0.049572,481.427673,1.732849,0.000000,41.659783,44.965705,6999.444002,0.269995,0.284057,-0.014096,0.018134
10.300000,0.015804,0.152182,-0.008173,0.050044,0.705322,-0.075199,481.512939,1.818115,0.000000,41.659783,44.965705,6999.428167,-0.446811,-0.389666,-0.192262,0.499823
10.400000,0.025559,0.139159,-0.017390,-0.037931,0.439622,-0.104226,481.569824,1.875000,0.000000,41.659783,44.965705,6999.428167,0.251571,-1.000000,1.000000,0.914712
10.500000,0.039836,0.124941,-0.027715,-0.084172,0.454174,-0.139146,481.608032,1.913239,0.000000,41.659783,44.965705,6999.411833,-1.000000,-0.247969,-1.000000,-0.885477
10.600000,0.055393,0.107402,-0.037834,-0.103125,0.720773,-0.145412,481.662415,1.967590,0.000000,41.659783,44.965704,6999.411833,-0.383257,-0.676205,-0.200501,0.119132
10.700000,0.064875,0.087553,-0.045107,-0.134840,0.799386,-0.131005,481.744812,2.049988,0.000000,41.659783,44.965704,6999.393386,1.000000,0.675307,1.000000,-1.000000
10.800000,0.068353,0.068544,-0.049420,-0.179614,0.393556,-0.124243,481.799713,2.104889,0.000000,41.659783,44.965704,6999.393386,-1.000000,-0.208554,-0.651615,0.641622
10.900000,0.072786,0.048744,-0.050975,-0.193939,0.040114,-0.157839,481.819031,2.124176,0.000000,41.659783,44.965704,6999.371663,1.000000,0.506713,1.000000,0.662498
11.000000,0.086121,0.029802,-0.049981,-0.190832,-0.378098,-0.213610,481.802856,2.108002,0.000000,41.659782,44.965704,6999.371663,1.000000,0.865421,1.000000,0.361862
11.100000,0.107126,0.013253,-0.046853,-0.170725,-0.785885,-0.241560,481.741486,2.046661,0.000000,41.659782,44.965703,6999.348324,-1.000000,-0.245495,1.000000,0.434148
11.200000,0.136660,-0.003379,-0.037517,-0.113780,-0.837496,-0.247279,481.654633,1.959808,0.000000,41.659782,44.965703,6999.348324,0.780355,-0.475384,0.141008,-0.246353
11.300000,0.168818,-0.019412,-0.021206,-0.052159,-1.073592,-0.185868,481.561676,1.866852,0.000000,41.659782,44.965703,6999.323161,0.134783,1.000000,-0.749665,-1.000000
11.400000,0.190516,-0.033767,-0.001027,0.013442,-1.446937,-0.050831,481.438507,1.743683,0.000000,41.659782,44.965703,6999.323161,0.489398,0.013159,-0.812526,-0.767229
11.500000,0.197201,-0.035279,0.008647,-0.215722,-0.512421,0.000802,481.320190,1.625397,0.000000,41.659782,44.965703,6999.295718,0.352338,-1.000000,0.393399,0.463183
11.600000,0.198258,-0.008109,0.003716,-0.476363,-0.036496,-0.106715,481.316223,1.621399,0.000000,41.659782,44.965702,6999.295718,0.346506,-1.000000,-1.000000,1.000000
11.700000,0.206519,0.020686,-0.000283,-0.474351,-0.462926,-0.127496,481.289368,1.594543,0.000000,41.659782,44.965702,6999.267860,0.891938,-0.755596,0.232600,1.000000
11.800000,0.218688,0.048289,-0.004896,-0.398549,-0.124352,-0.059216,481.250336,1.555511,0.000000,41.659781,44.965702,6999.267860,-0.000081,-1.000000,-0.085105,-0.071946
11.900000,0.225368,0.069724,-0.005984,-0.277518,0.321606,0.027816,481.266724,1.571899,0.000000,41.659781,44.965702,6999.239132,1.000000,-0.937733,-0.904594,0.983957
12.000000,0.228553,0.084680,-0.003091,-0.240113,0.215156,0.094418,481.294067,1.599274,0.000000,41.659781,44.965702,6999.239132,-0.117996,0.326148,-1.000000,-0.750391
12.100000,0.227726,0.097349,0.000543,-0.164410,0.160656,0.079481,481.307037,1.612183,0.000000,41.659780,44.965702,6999.210362,-0.327328,0.363089,-0.347767,0.615988
12.200000,0.223568,0.106245,0.004799,-0.105552,0.511185,0.053086,481.335327,1.640503,0.000000,41.659780,44.965702,6999.210362,-1.000000,-0.558588,0.769735,-0.091086
12.300000,0.219968,0.109722,0.009924,-0.036652,1.312242,0.051469,481.420135,1.725311,0.000000,41.659780,44.965702,6999.184784,-0.710004,1.000000,-1.000000,-1.000000
12.400000,0.206913,0.107725,0.018790,-0.007238,1.902817,0.111308,481.592072,1.897247,0.000000,41.659780,44.965702,6999.184784,1.000000,0.759301,0.087292,-0.923914
12.500000,0.178738,0.102539,0.029386,-0.067365,1.593871,0.178103,481.774323,2.079498,0.000000,41.659780,44.965702,6999.162067,1.000000,-1.000000,-1.000000,1.000000
12.600000,0.150679,0.096388,0.036775,-0.148007,0.976227,0.195451,481.894745,2.199890,0.000000,41.659779,44.965702,6999.162067,-0.431215,0.174816,1.000000,-0.414813
12.700000,0.126860,0.088615,0.040730,-0.204658,0.576351,0.213667,481.964935,2.270111,0.000000,41.659779,44.965702,6999.141132,-0.802906,0.095790,-0.164703,1.000000
12.800000,0.110387,0.078537,0.042861,-0.198816,0.869058,0.208688,482.032288,2.337463,0.000000,41.659779,44.965702,6999.141132,-0.503791,1.000000,-0.908683,0.486276
12.900000,0.104750,0.066200,0.043404,-0.178135,1.117400,0.196918,482.127319,2.432495,0.000000,41.659779,44.965703,6999.121565,-0.547048,-0.247143,-0.839856,1.000000
13.000000,0.109473,0.050244,0.041717,-0.134009,1.474242,0.197673,482.252869,2.558044,0.000000,41.659778,44.965703,6999.121565,-1.000000,0.176046,1.000000,-0.134603
13.100000,0.123309,0.031110,0.039007,-0.057464,2.177635,0.201586,482.434418,2.739563,0.000000,41.659778,44.965703,6999.099760,-1.000000,0.845135,1.000000,1.000000
13.200000,0.144814,0.010211,0.036058,0.008650,2.790186,0.199494,482.679901,2.985107,0.000000,41.659778,44.965703,6999.099760,0.677870,-0.308872,-0.598706,0.939633
13.300000,0.179139,-0.012868,0.029662,0.023874,2.531383,0.218698,482.956451,3.261658,0.000000,41.659778,44.965704,6999.075219,-0.135882,-0.495699,-0.121137,0.439322
13.400000,0.222485,-0.034682,0.018889,0.051514,1.961296,0.262969,483.181183,3.486389,0.000000,41.659778,44.965704,6999.075219,-0.616372,0.322991,0.120955,-0.512086
13.500000,0.263921,-0.054245,0.008592,0.160527,2.022282,0.341041,483.365265,3.670441,0.000000,41.659778,44.965704,6999.049558,-1.000000,-0.208465,-0.361418,-1.000000
13.600000,0.298584,-0.075572,0.004186,0.312986,2.387877,0.411483,483.592834,3.898010,0.000000,41.659778,44.965705,6999.049558,-0.162684,0.045722,-0.965851,0.412417
13.700000,0.331398,-0.097073,0.004423,0.457952,2.522325,0.409494,483.838867,4.144043,0.000000,41.659778,44.965706,6999.022529,-1.000000,0.633227,-0.217864,-0.226307
13.800000,0.368628,-0.117270,0.005469,0.623611,2.805537,0.346549,484.083984,4.389160,0.000000,41.659779,44.965707,6999.022529,-0.548584,0.030831,0.856490,0.703160
13.900000,0.420916,-0.138661,0.003656,0.796585,2.909266,0.263194,484.371216,4.676392,0.000000,41.659780,44.965708,6998.993469,0.632723,-0.010456,1.000000,-0.264578
14.000000,0.482969,-0.157911,-0.002866,0.942004,2.347573,0.198979,484.626038,4.931183,0.000000,41.659780,44.965709,6998.993469,-0.000864,1.000000,-1.000000,1.000000
14.100000,0.545382,-0.172909,-0.012467,1.101255,1.728649,0.144154,484.801208,5.106384,0.000000,41.659781,44.965710,6998.964243,-0.791771,0.682372,0.790966,-1.000000
14.200000,0.611130,-0.186064,-0.023275,1.334443,1.593828,0.099167,484.939850,5.245026,0.000000,41.659782,44.965711,6998.964243,-0.565393,-1.000000,1.000000,-0.573544
14.300000,0.665123,-0.198375,-0.026272,1.608966,1.857332,0.075159,485.086853,5.392029,0.000000,41.659783,44.965713,6998.934271,-0.069019,-0.289115,1.000000,0.186022
14.400000,0.710845,-0.209286,-0.024198,1.837697,1.652555,-0.024081,485.222534,5.527710,0.000000,41.659785,44.965714,6998.934271,0.567938,1.000000,-0.745916,0.958210
14.500000,0.766961,-0.218559,-0.025669,2.053288,0.967597,-0.169604,485.312805,5.617950,0.000000,41.659786,44.965716,6998.902641,1.000000,-1.000000,0.982715,0.225329
14.600000,0.830410,-0.224338,-0.032822,2.263317,0.149600,-0.325282,485.317719,5.622894,0.000000,41.659787,44.965718,6998.902641,0.258778,0.546954,-0.938686,-1.000000
14.700000,0.886587,-0.226674,-0.040096,2.467607,-0.519640,-0.386067,485.246155,5.551331,0.000000,41.659789,44.965720,6998.871426,-1.000000,-1.000000,0.703918,-1.000000
14.800000,0.927607,-0.227070,-0.039187,2.704738,-0.875256,-0.396359,485.113403,5.418579,0.000000,41.659790,44.965723,6998.871426,1.000000,-0.289324,0.663813,0.413713
14.900000,0.958654,-0.225715,-0.034169,2.936941,-1.308971,-0.471001,484.941803,5.246979,0.000000,41.659791,44.965725,6998.839754,0.700347,0.514472,-1.000000,1.000000
15.000000,0.990546,-0.222412,-0.033886,3.133700,-1.931411,-0.585542,484.721985,5.027161,0.000000,41.659793,44.965727,6998.839754,0.289660,-1.000000,1.000000,-0.579556
15.100000,1.026373,-0.216497,-0.038084,3.321684,-2.322752,-0.723617,484.432770,4.737946,0.000000,41.659794,44.965730,6998.807834,0.070421,0.179284,-0.467353,1.000000
15.200000,1.061603,-0.207646,-0.044170,3.482040,-2.361769,-0.858997,484.116577,4.421753,0.000000,41.659796,44.965733,6998.807834,-0.689314,-1.000000,0.772095,-1.000000
15.300000,1.089064,-0.196376,-0.044248,3.621303,-1.759934,-0.950652,483.846954,4.152130,0.000000,41.659797,44.965736,6998.780017,-0.642767,-1.000000,-0.954045,0.664556
15.400000,1.110394,-0.182016,-0.033749,3.796778,-0.719024,-1.018405,483.650665,3.955841,0.000000,41.659799,44.965739,6998.780017,-0.400351,-0.018230,0.339799,-0.668041
15.500000,1.126110,-0.167175,-0.018384,3.995838,-0.149213,-1.095465,483.538422,3.843567,0.000000,41.659801,44.965743,6998.755393,-0.515862,-0.236236,-0.532894,1.000000
15.600000,1.139914,-0.153910,-0.005357,4.199322,0.421005,-1.191147,483.483337,3.788513,0.000000,41.659803,44.965748,6998.755393,-1.000000,-0.978453,0.660516,0.503286
15.700000,1.158118,-0.141603,0.004349,4.406952,0.751163,-1.317181,483.487823,3.792999,0.000000,41.659805,44.965752,6998.733090,1.000000,1.000000,0.123185,0.579666
15.800000,1.179731,-0.130331,0.007962,4.549930,0.280713,-1.425886,483.483063,3.788239,0.000000,41.659807,44.965757,6998.733090,0.754263,-0.578126,0.880255,0.726132
15.900000,1.203578,-0.119770,0.004964,4.643384,-0.390651,-1.533658,483.423004,3.728180,0.000000,41.659810,44.965762,6998.713814,0.220708,-1.000000,1.000000,0.422723
16.000000,1.232700,-0.108130,-0.004415,4.710991,-1.097634,-1.680075,483.293396,3.598572,0.000000,41.659812,44.965767,6998.713814,1.000000,-1.000000,-0.828712,1.000000
16.100000,1.267619,-0.095797,-0.019288,4.748426,-1.588883,-1.895623,483.100861,3.406036,0.000000,41.659814,44.965772,6998.694827,-0.819762,0.531968,0.071755,0.847430
16.200000,1.307074,-0.083418,-0.035354,4.757780,-1.635392,-2.148982,482.896393,3.201569,0.000000,41.659816,44.965777,6998.694827,0.536254,1.000000,1.000000,0.620714
16.300000,1.354227,-0.069431,-0.050238,4.726793,-1.759360,-2.436028,482.682129,2.987305,0.000000,41.659819,44.965782,6998.673022,0.022890,-0.479871,0.442636,0.552300
16.400000,1.405462,-0.054559,-0.063332,4.644211,-2.163536,-2.745565,482.439850,2.745026,0.000000,41.659821,44.965787,6998.673022,1.000000,-1.000000,-1.000000,-1.000000
16.500000,1.449872,-0.040329,-0.070442,4.550013,-2.447834,-2.918572,482.176941,2.482117,0.000000,41.659824,44.965792,6998.649807,-0.481689,0.020708,0.871406,-0.320905
16.600000,1.482662,-0.026282,-0.063765,4.483892,-2.412678,-2.996946,481.887543,2.192719,0.000000,41.659826,44.965798,6998.649807,-0.445400,-1.000000,0.507269,1.000000
16.700000,1.513448,-0.013651,-0.041947,4.447735,-1.714803,-3.110108,481.653320,1.958496,0.000000,41.659828,44.965803,6998.625058,-0.058554,-1.000000,1.000000,0.743717
16.800000,1.548694,-0.003626,-0.018185,4.383771,-1.489779,-3.261264,481.494995,1.800171,0.000000,41.659831,44.965809,6998.625058,1.000000,-1.000000,1.000000,-0.129179
16.900000,1.587870,0.005198,0.001772,4.265304,-1.950964,-3.373000,481.320038,1.625214,0.000000,41.659833,44.965814,6998.598361,0.117092,-0.316870,0.223854,-0.243163
17.000000,1.617766,0.010920,-0.023234,2.711124,0.341218,-2.507237,481.232727,1.537903,0.000000,41.659835,44.965819,6998.598361,-1.000000,-0.925817,0.799418,0.583392
17.100000,1.641456,0.013507,-0.029833,2.323734,0.867742,-2.254475,481.301544,1.606720,0.000000,41.659837,44.965822,7000.107324,0.435924,0.511522,-0.472150,-0.854995
17.200000,1.660357,0.015020,-0.038187,2.324938,0.661586,-2.274975,481.379211,1.684387,0.000000,41.659838,44.965826,7000.107324,0.129079,-0.121632,-0.704045,-0.134946
17.300000,1.669504,0.014825,-0.045895,2.341192,0.443978,-2.287344,481.422546,1.727722,0.000000,41.659840,44.965829,7000.083363,-1.000000,-1.000000,0.895874,-0.313090
17.400000,1.671999,0.012512,-0.051565,2.390899,0.511200,-2.288080,481.464874,1.770050,0.000000,41.659841,44.965832,7000.083363,1.000000,0.107768,1.000000,-0.974193
17.500000,1.660841,0.007883,-0.053934,2.441639,0.059957,-2.197100,481.487823,1.793030,0.000000,41.659843,44.965836,7000.060439,1.000000,-0.258907,-0.907418,-1.000000
17.600000,1.630724,0.001775,-0.050904,2.522595,-0.594093,-2.043326,481.447266,1.752441,0.000000,41.659844,44.965839,7000.060439,-0.182683,-0.366549,0.383237,-1.000000
17.700000,1.588722,-0.004638,-0.039901,2.602465,-0.755680,-1.801128,481.367401,1.672577,0.000000,41.659845,44.965843,7000.039919,0.452143,1.000000,0.319278,-0.727256
17.800000,1.539746,-0.006008,-0.010526,2.401662,-0.058752,-1.193809,481.316528,1.621704,0.000000,41.659846,44.965846,7000.039919,-1.000000,0.121922,-1.000000,0.059240
17.900000,1.493526,-0.002691,0.007635,2.471378,0.674014,-0.992697,481.345306,1.650482,0.000000,41.659847,44.965849,7000.020393,-0.588787,0.221796,-0.401223,-1.000000
18.000000,1.450819,-0.002870,0.024000,2.643862,1.206339,-0.888817,481.442169,1.747345,0.000000,41.659848,44.965852,7000.020393,-0.568137,1.000000,1.000000,0.554665
18.100000,1.409288,-0.006278,0.040132,2.758616,1.205178,-0.756991,481.573303,1.878510,0.000000,41.659849,44.965855,7000.000536,1.000000,0.251263,-0.192235,-1.000000
18.200000,1.370741,-0.010899,0.054258,2.816203,0.590934,-0.571211,481.668182,1.973389,0.000000,41.659849,44.965858,7000.000536,0.397868,0.279948,0.393187,-0.295595
18.300000,1.332185,-0.014960,0.066436,2.858743,-0.115087,-0.351025,481.687927,1.993134,0.000000,41.659850,44.965862,6999.981052,0.483919,-0.828565,0.590327,1.000000
18.400000,1.294984,-0.019241,0.076028,2.914251,-0.611092,-0.174569,481.645386,1.950531,0.000000,41.659850,44.965865,6999.981052,0.157730,0.097094,1.000000,-1.000000
18.500000,1.263574,-0.023730,0.081412,2.979400,-0.741816,0.015113,481.565643,1.870819,0.000000,41.659851,44.965868,6999.960201,-0.328558,1.000000,1.000000,-1.000000
18.600000,1.229733,-0.027311,0.086504,3.031699,-0.417350,0.237570,481.497375,1.802551,0.000000,41.659851,44.965872,6999.960201,-0.214230,0.834552,-1.000000,-0.231198
18.700000,1.193500,-0.029270,0.077721,2.961444,-0.229542,0.420713,481.463226,1.768402,0.000000,41.659852,44.965875,6999.936447,1.000000,-0.844515,-0.938771,0.031152
18.800000,1.164861,-0.029375,0.052980,2.794402,-0.461237,0.530857,481.416138,1.721313,0.000000,41.659852,44.965879,6999.936447,0.055903,-0.578690,-0.758851,-0.486623
18.900000,1.143178,-0.025493,0.016099,2.500430,-0.561966,0.543911,481.355072,1.660248,0.000000,41.659852,44.965882,6999.912030,1.000000,0.464148,-0.216368,-0.216260
19.000000,1.121717,-0.013318,-0.004267,1.801597,-0.026223,0.485360,481.313263,1.618439,0.000000,41.659852,44.965885,6999.912030,-0.868903,0.268508,-0.776203,0.482460
19.100000,1.107331,0.002654,0.002386,1.690632,0.052774,0.470880,481.318268,1.623474,0.000000,41.659852,44.965887,6999.886037,0.673795,-0.193232,0.182187,0.870483
19.200000,1.105549,0.015591,0.009735,1.732662,-0.171878,0.438431,481.316986,1.622162,0.000000,41.659852,44.965889,6999.886037,-0.045502,-1.000000,0.859611,0.650740
19.300000,1.115051,0.026116,0.010538,1.640836,-0.212230,0.361800,481.294495,1.599670,0.000000,41.659852,44.965891,6999.858553,-0.206335,-0.284827,0.969369,0.775866
19.400000,1.134520,0.031542,0.002058,1.510049,-0.117201,0.232526,481.282532,1.587708,0.000000,41.659853,44.965893,6999.858553,1.000000,0.059087,-0.163048,0.864022
19.500000,1.158420,0.034793,-0.000572,1.227012,0.033070,0.094503,481.283478,1.588654,0.000000,41.659853,44.965894,6999.833099,-1.000000,1.000000,-0.477588,-0.410602
19.600000,1.184820,0.035416,0.000691,1.195988,0.136862,0.055190,481.292725,1.597931,0.000000,41.659853,44.965896,6999.833099,-1.000000,0.863332,0.397909,-0.062405
19.700000,1.204121,0.031788,0.008172,1.212766,0.572253,0.082799,481.339111,1.644287,0.000000,41.659853,44.965897,6999.809760,0.115061,0.218601,-0.487612,-1.000000
19.800000,1.211646,0.025188,0.020168,1.262399,0.603632,0.124707,481.403198,1.708374,0.000000,41.659853,44.965899,6999.809760,-0.212897,1.000000,-0.709490,0.265482
19.900000,1.213599,0.015805,0.033864,1.314798,0.524257,0.153339,481.459747,1.764923,0.000000,41.659854,44.965900,6999.787831,-0.334776,1.000000,-0.319484,0.491532
20.000000,1.217986,0.003716,0.046030,1.369418,0.365406,0.176741,481.510956,1.816132,0.000000,41.659854,44.965902,6999.787831,1.000000,-1.000000,1.000000,-1.000000
20.100000,1.219325,-0.008605,0.056159,1.403633,-0.048922,0.263119,481.523712,1.828888,0.000000,41.659854,44.965903,6999.768305,-0.586174,-0.448752,-0.032131,0.275296
20.200000,1.215217,-0.021654,0.065185,1.461980,-0.250289,0.349666,481.498657,1.803802,0.000000,41.659854,44.965905,6999.768305,-0.379425,0.228909,1.000000,-0.613710
20.300000,1.206998,-0.034736,0.070997,1.532328,0.422514,0.432290,481.495300,1.800507,0.000000,41.659854,44.965907,6999.749816,-0.945481,-1.000000,0.555368,-1.000000
20.400000,1.188209,-0.046751,0.074867,1.666941,1.267839,0.568407,481.563141,1.868286,0.000000,41.659853,44.965909,6999.749816,-0.951808,0.617751,0.597907,-1.000000
20.500000,1.157398,-0.061224,0.084974,1.826887,2.257401,0.715181,481.730347,2.035522,0.000000,41.659853,44.965911,6999.729835,-0.783897,1.000000,-0.773896,-0.008351
20.600000,1.125066,-0.078025,0.100463,1.970684,3.137187,0.844996,481.983490,2.288666,0.000000,41.659853,44.965914,6999.729835,-1.000000,-1.000000,1.000000,-1.000000
20.700000,1.093431,-0.095405,0.118699,2.085558,4.028970,0.977360,482.297424,2.602600,0.000000,41.659852,44.965917,6999.708900,-0.943976,0.468971,0.220792,-0.560869
20.800000,1.056787,-0.114223,0.140551,2.169086,4.691003,1.117037,482.708130,3.013306,0.000000,41.659852,44.965921,6999.708900,1.000000,0.388798,-1.000000,1.000000
20.900000,1.026702,-0.132864,0.159708,2.207727,4.445661,1.237612,483.125122,3.430267,0.000000,41.659851,44.965925,6999.686390,-0.935809,-0.180460,-0.711240,-0.220023
21.000000,1.009470,-0.150072,0.172432,2.278732,4.077868,1.373353,483.470459,3.775635,0.000000,41.659851,44.965929,6999.686390,0.454801,0.733466,-0.974289,-0.075249
21.100000,0.999517,-0.167934,0.182588,2.391685,3.640464,1.531318,483.792877,4.098053,0.000000,41.659850,44.965933,6999.661144,-0.008993,-0.781899,-0.548647,0.771111
21.200000,1.001370,-0.185687,0.187557,2.553992,3.152517,1.665746,484.050049,4.355225,0.000000,41.659849,44.965937,6999.661144,-1.000000,-0.083630,0.599772,0.284119
21.300000,1.014627,-0.203138,0.187738,2.777205,3.072189,1.772211,484.257294,4.562469,0.000000,41.659849,44.965941,6999.635110,0.295601,-0.986493,0.342591,-0.313227
21.400000,1.035388,-0.221510,0.185806,3.041356,2.873492,1.903540,484.455902,4.761078,0.000000,41.659848,44.965946,6999.635110,0.005912,-1.000000,-1.000000,-1.000000
21.500000,1.054028,-0.237364,0.186275,3.311904,2.355137,2.088327,484.600220,4.905426,0.000000,41.659847,44.965951,6999.607667,0.308523,0.499624,-0.498364,-0.344392
21.600000,1.068038,-0.249890,0.189490,3.595752,2.011118,2.238921,484.678497,4.983673,0.000000,41.659846,44.965957,6999.607667,-1.000000,1.000000,-0.291053,0.356775
21.700000,1.088808,-0.263476,0.190647,3.959874,2.041261,2.304746,484.733887,5.039063,0.000000,41.659845,44.965962,6999.578275,0.332932,-0.746176,-0.831816,0.017375
21.800000,1.120264,-0.278522,0.186685,4.353532,1.994577,2.313019,484.774658,5.079803,0.000000,41.659844,44.965968,6999.578275,-0.614547,-0.855219,0.124599,1.000000
21.900000,1.161729,-0.293548,0.175801,4.758075,2.049031,2.230716,484.793396,5.098572,0.000000,41.659843,44.965975,6999.548801,-0.254600,1.000000,0.413078,1.000000
22.000000,1.220519,-0.309976,0.154073,5.233575,2.242366,2.034430,484.813293,5.118469,0.000000,41.659842,44.965981,6999.548801,-0.705002,-0.736739,-1.000000,1.000000
22.100000,1.290993,-0.325233,0.123024,5.722158,2.167351,1.788028,484.829010,5.134186,0.000000,41.659841,44.965989,6999.518539,0.612587,0.465701,0.263240,-1.000000
22.200000,1.356870,-0.336031,0.092131,6.156526,1.790947,1.576951,484.807251,5.112457,0.000000,41.659840,44.965996,6999.518539,-0.242403,-1.000000,0.435226,-1.000000
22.300000,1.416024,-0.342652,0.065219,6.591552,1.380495,1.388728,484.729706,5.034882,0.000000,41.659839,44.966004,6999.486701,0.328831,0.752390,-0.356155,0.141973
22.400000,1.467697,-0.345194,0.043685,7.011746,1.213040,1.151180,484.608459,4.913635,0.000000,41.659838,44.966012,6999.486701,-0.805745,0.772008,-1.000000,0.228838
22.500000,1.516664,-0.344458,0.024844,7.414713,1.610814,0.849971,484.492432,4.797607,0.000000,41.659836,44.966021,6999.455361,-0.830531,-0.395559,0.677696,-0.608802
22.600000,1.564547,-0.341303,0.011275,7.881062,2.686864,0.532694,484.434265,4.739441,0.000000,41.659835,44.966030,6999.455361,-1.000000,-1.000000,1.000000,-1.000000
22.700000,1.599655,-0.338375,0.010364,8.366433,3.553003,0.290911,484.465057,4.770233,0.000000,41.659833,44.966040,6999.423690,1.000000,0.283065,0.810552,0.444026
22.800000,1.627759,-0.336649,0.014149,8.753222,3.455974,0.042483,484.515259,4.820404,0.000000,41.659832,44.966051,6999.423690,0.482586,-1.000000,-0.056117,-0.189404
22.900000,1.661992,-0.334305,0.014606,9.110978,2.864504,-0.263285,484.519562,4.824738,0.000000,41.659830,44.966062,6999.392681,-0.216372,-0.758678,0.104849,1.000000
23.000000,1.702847,-0.330586,0.009555,9.450012,2.339834,-0.627245,484.460693,4.765869,0.000000,41.659828,44.966073,6999.392681,0.376447,0.797685,1.000000,-0.683095
23.100000,1.742695,-0.325417,0.003030,9.755160,2.113469,-0.960738,484.362518,4.667694,0.000000,41.659826,44.966084,6999.365362,-0.855291,-1.000000,-1.000000,-1.000000
23.200000,1.774105,-0.318102,0.002823,10.074643,1.951164,-1.183536,484.241821,4.546997,0.000000,41.659824,44.966096,6999.365362,0.722720,0.251016,-1.000000,0.056164
23.300000,1.795165,-0.309261,0.007821,10.380820,1.513129,-1.333894,484.089844,4.395020,0.000000,41.659822,44.966108,6999.338375,-0.488195,-0.663121,1.000000,-1.000000
23.400000,1.806118,-0.299582,0.015387,10.659418,1.025454,-1.360570,483.905029,4.210205,0.000000,41.659820,44.966120,6999.338375,1.000000,-1.000000,0.583474,-1.000000
23.500000,1.802633,-0.287740,0.028415,10.952408,0.298577,-1.219827,483.656372,3.961548,0.000000,41.659818,44.966132,6999.310103,1.000000,0.468560,0.134978,1.000000
23.600000,1.794792,-0.274993,0.038045,11.225455,-0.627896,-1.076036,483.326843,3.632050,0.000000,41.659815,44.966145,6999.310103,0.283417,0.139407,0.207774,-0.971843
23.700000,1.786023,-0.261586,0.042494,11.430353,-1.093264,-0.903953,482.957184,3.262390,0.000000,41.659813,44.966157,6999.283945,-0.439441,-0.712391,-0.264776,-0.155521
23.800000,1.767744,-0.242925,0.046810,11.583408,-1.007908,-0.637883,482.562256,2.867401,0.000000,41.659810,44.966169,6999.283945,0.377251,-0.697370,-1.000000,-0.119571
23.900000,1.744317,-0.218482,0.048526,11.692638,-0.545339,-0.332526,482.211365,2.516541,0.000000,41.659807,44.966182,6999.259735,-0.933803,-0.037898,1.000000,-0.909734
24.000000,1.715926,-0.190055,0.049003,11.793716,0.227809,0.007908,481.962677,2.267853,0.000000,41.659804,44.966195,6999.259735,-1.000000,0.732500,1.000000,0.988150
24.100000,1.687080,-0.156820,0.046431,11.967115,0.937987,0.347671,481.826202,2.131378,0.000000,41.659801,44.966209,6999.237142,0.271225,0.660555,-0.913387,-1.000000
24.200000,1.660810,-0.125158,0.042932,12.141882,0.782079,0.723325,481.744629,2.049805,0.000000,41.659798,44.966222,6999.237142,-0.366617,-0.402090,0.560260,-1.000000
24.300000,1.631858,-0.097554,0.042040,12.254948,0.494154,1.160703,481.669495,1.974670,0.000000,41.659795,44.966236,6999.217368,-0.001900,-1.000000,-0.196044,-0.145574
24.400000,1.597706,-0.070606,0.042916,12.322226,0.082006,1.645307,481.592957,1.898132,0.000000,41.659792,44.966250,6999.217368,0.754131,-0.933230,-1.000000,0.734894
24.500000,1.570287,-0.046645,0.041031,12.339861,-0.627466,1.993675,481.482727,1.787903,0.000000,41.659789,44.966264,6999.198920,-0.151516,-0.210262,-0.240635,0.373791
24.600000,1.558585,-0.026919,0.021684,12.017733,-0.801152,2.043207,481.363770,1.668945,0.000000,41.659785,44.966278,6999.198920,0.317395,0.993749,-0.888044,1.000000
24.700000,1.560984,-0.009774,0.001410,10.998602,-0.055258,1.786395,481.293030,1.598206,0.000000,41.659782,44.966292,6999.179022,-0.211509,-0.353427,0.452228,-0.120857
24.800000,1.573294,-0.003772,0.000980,10.450344,0.177535,1.550259,481.304321,1.609497,0.000000,41.659780,44.966304,6999.179022,0.375668,-0.502610,1.000000,0.355384
24.900000,1.592139,-0.003893,0.000840,10.412888,0.109430,1.315677,481.311401,1.616577,0.000000,41.659777,44.966316,6999.157134,-0.726002,0.497466,1.000000,0.753381
25.000000,1.622282,-0.007965,0.001253,10.303824,0.116089,0.932632,481.318481,1.623657,0.000000,41.659774,44.966328,6999.157134,1.000000,0.025268,-1.000000,1.000000
25.100000,1.663836,-0.014724,-0.000177,9.950389,0.040895,0.421725,481.311310,1.616486,0.000000,41.659772,44.966339,6999.133256,0.511945,1.000000,-0.817039,0.719325
25.200000,1.710286,-0.023844,0.000374,9.056046,0.385716,-0.130386,481.314697,1.619873,0.000000,41.659770,44.966350,6999.133256,0.635321,-0.660639,1.000000,1.000000
25.300000,1.764733,-0.033158,-0.000373,8.323390,0.535979,-0.664333,481.337219,1.642395,0.000000,41.659768,44.966360,6999.107222,-0.256458,-0.475969,0.961246,0.002753
25.400000,1.818970,-0.044354,-0.000801,7.788891,0.581226,-1.081801,481.369537,1.674713,0.000000,41.659766,44.966369,6999.107222,1.000000,0.151908,-0.379294,-0.375739
25.500000,1.863698,-0.054973,-0.001824,7.378540,0.501592,-1.359085,481.384247,1.689453,0.000000,41.659764,44.966378,6999.081934,-0.322967,-0.981989,-0.516480,0.366228
25.600000,1.904580,-0.065613,-0.006328,6.847617,0.585879,-1.541260,481.394043,1.699219,0.000000,41.659763,44.966387,6999.081934,0.788519,-0.731877,-0.639193,-1.000000
25.700000,1.933471,-0.075349,-0.006247,6.256913,0.584033,-1.546233,481.409027,1.714203,0.000000,41.659761,44.966394,6999.057849,0.896572,0.682735,-0.876301,0.092323
25.800000,1.949058,-0.083479,-0.005340,5.600551,0.469023,-1.415105,481.412292,1.717468,0.000000,41.659760,44.966401,6999.057849,1.000000,-0.947199,0.635863,-1.000000
25.900000,1.954313,-0.090229,-0.010074,4.731752,0.560962,-1.131138,481.416473,1.721649,0.000000,41.659758,44.966407,6999.035173,0.562427,-0.176607,0.672047,-0.611305
26.000000,1.943272,-0.094902,-0.010600,4.063739,0.565307,-0.790403,481.432220,1.737396,0.000000,41.659757,44.966412,6999.035173,0.476776,-1.000000,0.669630,-0.705550
26.100000,1.919884,-0.098140,-0.005249,3.706900,0.559572,-0.485292,481.448883,1.754059,0.000000,41.659756,44.966417,6999.015109,-1.000000,1.000000,-0.210265,-1.000000
26.200000,1.882998,-0.101278,0.001899,3.732014,0.548925,-0.264318,481.471741,1.776917,0.000000,41.659755,44.966421,6999.015109,1.000000,-1.000000,-1.000000,0.305265
26.300000,1.842326,-0.104615,0.015060,3.459595,0.628957,0.012940,481.496948,1.802124,0.000000,41.659754,44.966425,6998.996951,-0.592141,0.684851,-1.000000,-0.926952
26.400000,1.803998,-0.107536,0.029313,3.416792,0.501282,0.197796,481.512573,1.817749,0.000000,41.659752,44.966429,6998.996951,0.238133,1.000000,0.915428,0.492756
26.500000,1.767730,-0.110738,0.032354,3.406300,0.330836,0.346521,481.520447,1.825623,0.000000,41.659751,44.966432,6998.979955,1.000000,-0.093453,0.418873,0.096994
26.600000,1.738666,-0.113093,0.028551,3.042318,0.219364,0.443662,481.502991,1.808136,0.000000,41.659750,44.966436,6998.979955,-1.000000,-0.194432,-0.959763,0.768535
26.700000,1.718336,-0.114543,0.027554,2.624956,0.560092,0.451354,481.510162,1.815308,0.000000,41.659749,44.966439,6998.964243,0.719173,0.913698,0.857093,0.675347
26.800000,1.707151,-0.116571,0.029031,2.647754,0.398095,0.435832,481.531097,1.836273,0.000000,41.659748,44.966442,6998.964243,0.179081,1.000000,1.000000,1.000000
26.900000,1.706815,-0.118633,0.030858,2.454449,0.168916,0.370862,481.522980,1.828156,0.000000,41.659747,44.966445,6998.948117,-1.000000,0.795058,-1.000000,-0.257450
27.000000,1.713100,-0.120334,0.035280,2.183127,0.552923,0.281124,481.527618,1.832794,0.000000,41.659746,44.966447,6998.948117,-0.180830,-0.887393,-0.991626,0.698189
27.100000,1.724887,-0.123650,0.035653,2.256240,0.734574,0.242804,481.567627,1.872803,0.000000,41.659745,44.966450,6998.929753,1.000000,-0.267313,-0.359059,-1.000000
27.200000,1.739687,-0.128003,0.021876,2.168740,0.445592,0.175355,481.603516,1.908691,0.000000,41.659744,44.966452,6998.929753,-0.316306,0.921406,-0.463733,1.000000
27.300000,1.757117,-0.131438,0.004218,2.233109,0.211776,0.122624,481.602631,1.907837,0.000000,41.659743,44.966455,6998.910020,-0.517123,-0.189023,0.054184,-0.869186
27.400000,1.778062,-0.134451,-0.005360,2.311806,0.636387,0.051279,481.614410,1.919586,0.000000,41.659743,44.966457,6998.910020,-0.492589,1.000000,-0.011181,-0.435237
27.500000,1.795673,-0.138529,-0.004041,2.514640,0.661186,0.038280,481.652405,1.957581,0.000000,41.659742,44.966460,6998.888381,0.414804,0.447380,-0.178014,-0.031245
27.600000,1.811287,-0.143212,0.002051,2.693956,0.578136,0.035099,481.672729,1.977905,0.000000,41.659741,44.966463,6998.888381,-0.965700,0.472605,0.326937,-1.000000
27.700000,1.824029,-0.149296,0.014759,2.919313,0.961190,0.030909,481.703247,2.008392,0.000000,41.659740,44.966466,6998.864088,-0.433563,-1.000000,0.436937,0.108532
27.800000,1.835148,-0.157990,0.030968,3.172757,1.353587,0.004461,481.778107,2.083282,0.000000,41.659739,44.966469,6998.864088,-0.411699,-0.378118,1.000000,-0.172821
27.900000,1.849663,-0.168248,0.043903,3.371092,1.213905,-0.034202,481.853638,2.158813,0.000000,41.659737,44.966473,6998.839339,1.000000,0.129788,0.064711,0.231856
28.000000,1.870024,-0.179368,0.053387,3.559731,0.791990,-0.050087,481.890839,2.196014,0.000000,41.659736,44.966477,6998.839339,-1.000000,1.000000,0.648489,-0.831664
28.100000,1.888402,-0.189463,0.062241,3.769362,0.911742,-0.014952,481.900360,2.205536,0.000000,41.659735,44.966481,6998.813845,-0.609954,-1.000000,0.655564,-1.000000
28.200000,1.896174,-0.197905,0.074576,4.009041,1.389140,0.042453,481.942078,2.247253,0.000000,41.659733,44.966485,6998.813845,0.563525,-0.754917,-0.858589,0.617968
28.300000,1.905207,-0.206980,0.085503,4.238510,1.123483,0.053505,481.987152,2.292328,0.000000,41.659731,44.966490,6998.786857,0.243286,-0.575157,0.865810,0.492904
28.400000,1.924536,-0.215712,0.088063,4.453568,0.523171,0.028338,481.976654,2.281830,0.000000,41.659729,44.966494,6998.786857,0.941438,0.666384,0.367967,0.170729
28.500000,1.950269,-0.222759,0.083190,4.657492,-0.089729,-0.015070,481.900787,2.205963,0.000000,41.659727,44.966499,6998.759746,0.271447,-0.166741,-0.689994,0.280195
28.600000,1.985291,-0.228712,0.062580,4.265896,-0.112388,-0.263290,481.774445,2.079620,0.000000,41.659725,44.966504,6998.759746,0.125442,1.000000,-1.000000,0.349354
28.700000,2.034134,-0.235523,0.011700,3.017932,0.798856,-0.815579,481.719025,2.024200,0.000000,41.659724,44.966508,6998.732759,-1.000000,1.000000,-0.053261,0.653118
28.800000,2.079117,-0.245506,-0.011385,2.412139,1.549635,-0.973613,481.778412,2.083588,0.000000,41.659723,44.966511,6998.732759,0.146863,1.000000,-0.544448,-0.767784
28.900000,2.120375,-0.258187,-0.023071,2.673809,1.654876,-1.068494,481.873962,2.179169,0.000000,41.659722,44.966514,6998.705523,0.750201,1.000000,-1.000000,-0.430375
29.000000,2.150995,-0.270902,-0.031738,2.918869,1.206230,-1.104533,481.939575,2.244781,0.000000,41.659721,44.966518,6998.705523,0.225461,-0.731039,-1.000000,-0.432619
29.100000,2.168972,-0.281808,-0.035455,3.159388,0.835011,-1.112046,481.946625,2.251801,0.000000,41.659720,44.966522,6998.680981,-0.846489,0.582390,0.859586,-0.862168
29.200000,2.176419,-0.291868,-0.031219,3.440269,0.851129,-1.120610,481.933472,2.238647,0.000000,41.659719,44.966526,6998.680981,1.000000,-0.505238,-0.136154,0.264567
29.300000,2.177444,-0.300224,-0.020701,3.553670,0.783868,-1.070991,481.902100,2.207275,0.000000,41.659717,44.966530,6998.658761,-1.000000,0.847257,0.391554,-1.000000
29.400000,2.171557,-0.307307,-0.002579,3.372795,1.169672,-0.926256,481.883453,2.188629,0.000000,41.659716,44.966534,6998.658761,-0.631968,-1.000000,-0.536635,0.742218
29.500000,2.168541,-0.315289,0.003661,3.544120,1.736067,-0.917961,481.923859,2.229034,0.000000,41.659714,44.966538,6998.637785,-0.361575,-1.000000,0.269994,-0.181890
29.600000,2.170610,-0.323669,0.004102,3.909439,1.881937,-0.952232,481.985809,2.290985,0.000000,41.659712,44.966542,6998.637785,0.492856,0.775942,1.000000,0.173124
29.700000,2.173450,-0.331005,0.002357,4.213843,1.454182,-0.932106,482.014374,2.319550,0.000000,41.659710,44.966547,6998.618550,1.000000,-1.000000,-0.455014,-1.000000
29.800000,2.173143,-0.336919,0.001145,4.530789,0.840638,-0.896457,481.975616,2.280792,0.000000,41.659708,44.966551,6998.618550,-0.770973,0.699936,-0.502172,1.000000
29.900000,2.177903,-0.341930,-0.006894,4.006565,1.196712,-0.851827,481.910706,2.215881,0.000000,41.659706,44.966556,6998.599854,0.522482,0.176211,0.137476,-0.075815
30.000000,2.187373,-0.355217,-0.018473,3.068698,1.702336,-0.748951,481.934692,2.239868,0.000000,41.659704,44.966560,6998.599854,1.000000,0.288083,1.000000,0.144517
30.100000,2.194017,-0.376517,-0.019920,2.774664,1.671131,-0.680283,481.988525,2.293671,0.000000,41.659703,44.966563,6998.579789,-1.000000,0.123486,-0.985443,1.000000
30.200000,2.206926,-0.401358,-0.023887,2.630540,1.758911,-0.688262,482.048004,2.353180,0.000000,41.659701,44.966566,6998.579789,0.824341,1.000000,-0.272997,0.108913
30.300000,2.225762,-0.425124,-0.029148,2.755579,1.581306,-0.760055,482.091431,2.396606,0.000000,41.659700,44.966570,6998.558274,0.100770,-1.000000,0.153244,1.000000
30.400000,2.249029,-0.450400,-0.032085,2.668138,1.412740,-0.796362,482.105316,2.410492,0.000000,41.659698,44.966573,6998.558274,-0.108307,-1.000000,-0.005347,-1.000000
30.500000,2.266350,-0.478559,-0.026541,2.432594,1.625894,-0.741180,482.125061,2.430206,0.000000,41.659697,44.966576,6998.535515,-0.016723,0.091273,-1.000000,1.000000
30.600000,2.278289,-0.506473,-0.019974,2.254372,2.009797,-0.726927,482.168335,2.473511,0.000000,41.659696,44.966579,6998.535515,-1.000000,0.879990,1.000000,0.140095
30.700000,2.298368,-0.531220,-0.021909,2.479929,2.249347,-0.836826,482.243225,2.548370,0.000000,41.659694,44.966582,6998.511762,1.000000,1.000000,0.069740,0.628682
30.800000,2.325545,-0.550092,-0.032063,2.634462,2.069059,-0.936818,482.297302,2.602478,0.000000,41.659692,44.966586,6998.511762,0.035476,-0.878732,-0.027084,-0.286775
30.900000,2.353552,-0.561084,-0.045850,2.659643,1.869685,-0.995604,482.317535,2.622711,0.000000,41.659691,44.966589,6998.489169,0.093170,-0.084044,0.579366,-0.934800
31.000000,2.375038,-0.565393,-0.055214,2.666705,1.851894,-0.952088,482.327515,2.632690,0.000000,41.659689,44.966592,6998.489169,-0.217783,0.267312,-0.731305,-1.000000
31.100000,2.381093,-0.564062,-0.052172,2.921682,1.904214,-0.883637,482.331848,2.637024,0.000000,41.659687,44.966595,6998.467695,-0.197693,1.000000,0.945154,0.325542
31.200000,2.381231,-0.558906,-0.044181,3.250706,1.866607,-0.879133,482.325745,2.630920,0.000000,41.659685,44.966599,6998.467695,1.000000,0.120498,-0.119521,-0.870787
31.300000,2.381253,-0.548838,-0.035929,3.428889,1.396107,-0.792222,482.286194,2.591370,0.000000,41.659683,44.966602,6998.446470,1.000000,-0.573763,-0.996870,-1.000000
31.400000,2.372064,-0.533141,-0.022476,3.115615,0.874721,-0.526963,482.203705,2.508881,0.000000,41.659680,44.966605,6998.446470,0.561490,0.497915,1.000000,-0.898561
31.500000,2.355811,-0.516755,-0.008969,1.987761,0.837128,-0.146097,482.147705,2.452881,0.000000,41.659679,44.966608,6998.426530,0.523517,-1.000000,-1.000000,-0.074550
31.600000,2.337177,-0.509380,-0.006585,1.221593,0.825028,0.079820,482.143250,2.448425,0.000000,41.659678,44.966609,6998.426530,-1.000000,1.000000,-1.000000,-0.812232
31.700000,2.315836,-0.511026,-0.007962,1.152019,0.880819,0.181455,482.162964,2.468140,0.000000,41.659676,44.966610,6998.407046,0.928957,0.993561,-1.000000,0.578520
31.800000,2.297811,-0.513623,-0.008975,1.213971,0.810338,0.236830,482.178497,2.483673,0.000000,41.659675,44.966611,6998.407046,-0.224842,-1.000000,1.000000,0.127792
31.900000,2.284868,-0.514337,-0.011225,1.174524,0.677525,0.257757,482.184052,2.489227,0.000000,41.659674,44.966612,6998.387314,0.508184,-1.000000,0.194936,0.063670
32.000000,2.274240,-0.512246,-0.010139,1.266523,0.695166,0.265109,482.182739,2.487915,0.000000,41.659673,44.966612,6998.387314,-0.871343,0.580516,-1.000000,-0.294458
32.100000,2.264318,-0.508881,-0.004882,1.648853,0.860495,0.271241,482.180115,2.485321,0.000000,41.659672,44.966614,6998.368908,0.443989,1.000000,-0.631700,-0.077070
32.200000,2.254206,-0.504205,0.004574,2.089810,1.074731,0.290226,482.172882,2.478058,0.000000,41.659670,44.966615,6998.368908,-1.000000,0.241963,1.000000,-0.636244
32.300000,2.245695,-0.500169,0.015170,2.515561,1.721820,0.283044,482.179504,2.484680,0.000000,41.659669,44.966617,6998.350709,-0.677590,1.000000,-1.000000,0.342221
32.400000,2.240588,-0.498519,0.025919,3.073893,2.383774,0.264577,482.230255,2.535431,0.000000,41.659666,44.966619,6998.350709,-0.106631,0.371785,0.426382,-0.811011
32.500000,2.237966,-0.499414,0.036829,3.630267,2.649379,0.245586,482.290771,2.595917,0.000000,41.659663,44.966623,6998.332137,-0.825955,1.000000,-0.014638,1.000000
32.600000,2.242881,-0.502354,0.043046,4.171006,2.862483,0.196792,482.346680,2.651855,0.000000,41.659660,44.966626,6998.332137,0.145243,0.370305,-0.170152,-0.201941
32.700000,2.256942,-0.506323,0.042127,4.666646,3.053741,0.112936,482.388580,2.693756,0.000000,41.659656,44.966630,6998.313980,-1.000000,-1.000000,0.327935,0.852045
32.800000,2.281555,-0.511039,0.033295,5.200870,3.477067,-0.025659,482.429718,2.734894,0.000000,41.659652,44.966635,6998.313980,-0.595694,0.290923,-0.056851,-0.296930
32.900000,2.313983,-0.516414,0.018587,5.747116,3.858002,-0.181281,482.486481,2.791656,0.000000,41.659648,44.966640,6998.294289,-0.174010,0.749868,-1.000000,-1.000000
33.000000,2.342518,-0.521336,0.006422,6.228879,3.820530,-0.293108,482.524933,2.830109,0.000000,41.659643,44.966645,6998.294289,0.488700,0.314015,0.760675,1.000000
33.100000,2.375496,-0.525158,-0.008357,6.707125,3.649842,-0.484085,482.520538,2.825714,0.000000,41.659638,44.966651,6998.271530,-1.000000,1.000000,-0.020900,-1.000000
33.200000,2.413652,-0.525851,-0.025132,7.173879,3.912850,-0.723046,482.492218,2.797394,0.000000,41.659632,44.966657,6998.271530,-0.896305,0.199367,-0.809063,-1.000000
33.300000,2.443639,-0.523459,-0.031450,7.670587,4.819488,-0.920775,482.496185,2.801361,0.000000,41.659626,44.966663,6998.247403,-0.759919,0.221260,0.239286,-1.000000
33.400000,2.462362,-0.521189,-0.024209,8.256308,5.388575,-1.089604,482.544739,2.849915,0.000000,41.659620,44.966670,6998.247403,-0.488897,-1.000000,0.031495,-0.969182
33.500000,2.469054,-0.520248,-0.007773,8.827936,5.634871,-1.185262,482.597748,2.902924,0.000000,41.659613,44.966678,6998.221618,-0.695866,1.000000,0.063599,-1.000000
33.600000,2.466439,-0.520022,0.012960,9.373103,5.987453,-1.231142,482.645447,2.950623,0.000000,41.659605,44.966686,6998.221618,-0.784012,1.000000,-0.206288,0.862495
33.700000,2.467347,-0.521114,0.030631,9.982985,6.682973,-1.377796,482.715698,3.020874,0.000000,41.659596,44.966694,6998.193553,-1.000000,-0.853497,0.032208,0.430437
33.800000,2.485177,-0.525127,0.034683,10.575952,7.528258,-1.680333,482.822815,3.127991,0.000000,41.659587,44.966703,6998.193553,-1.000000,-0.335901,-1.000000,0.472113
33.900000,2.518322,-0.531252,0.025258,11.081896,8.237037,-2.107200,482.959167,3.264343,0.000000,41.659578,44.966712,6998.165198,-0.754803,-0.293570,0.661403,1.000000
34.000000,2.570091,-0.538498,-0.001091,11.528261,8.613586,-2.655639,483.118896,3.424072,0.000000,41.659567,44.966722,6998.165198,1.000000,1.000000,0.020426,-1.000000
34.100000,2.628590,-0.543351,-0.037291,11.877951,8.220974,-3.171015,483.238098,3.543274,0.000000,41.659557,44.966732,6998.135930,1.000000,-0.506525,-1.000000,-1.000000
34.200000,2.677682,-0.544401,-0.070309,12.196026,7.481098,-3.545387,483.269958,3.575134,0.000000,41.659546,44.966742,6998.135930,0.753468,-1.000000,0.998401,-1.000000
34.300000,2.714211,-0.542798,-0.095802,12.588695,6.481940,-3.817640,483.195801,3.500977,0.000000,41.659535,44.966752,6998.104922,1.000000,-0.685416,1.000000,-1.000000
34.400000,2.735724,-0.539873,-0.111604,13.046897,5.437224,-3.993021,483.004639,3.309814,0.000000,41.659524,44.966761,6998.104922,1.000000,-0.311519,0.925503,-0.489672
34.500000,2.746474,-0.536801,-0.121233,13.516335,4.450605,-4.099063,482.714722,3.019897,0.000000,41.659514,44.966771,6998.074080,0.569392,0.160771,0.082931,0.627885
34.600000,2.756564,-0.531879,-0.130834,13.973960,3.667864,-4.262620,482.303345,2.608551,0.000000,41.659503,44.966780,6998.074080,-0.920484,-0.706267,1.000000,-1.000000
34.700000,2.744419,-0.550712,-0.141997,11.104463,4.931656,-3.136911,481.956238,2.261414,0.000000,41.659493,44.966789,6998.042864,-0.146264,1.000000,-0.312375,-0.141174
34.800000,2.732591,-0.622214,-0.197026,5.973817,7.521170,-1.435804,481.985352,2.290527,0.000000,41.659485,44.966795,6998.042864,-1.000000,0.711497,1.000000,-0.631368
34.900000,2.725250,-0.704910,-0.238419,5.403906,8.266604,-0.922924,482.251801,2.557007,0.000000,41.659478,44.966802,6998.011856,0.392535,0.442758,0.881463,0.036545
35.000000,2.720006,-0.779209,-0.223752,5.226107,8.404372,0.039590,482.529907,2.835083,0.000000,41.659471,44.966807,6998.011856,0.458948,-0.125649,0.363510,-0.415058
35.100000,2.725441,-0.849821,-0.200699,4.712739,8.345973,-0.190338,482.728088,3.033264,0.000000,41.659463,44.966812,6997.983210,-0.903219,1.000000,-0.002797,-0.601889
35.200000,2.726223,-0.911778,-0.174801,4.546172,8.465282,-0.274868,482.884094,3.189270,0.000000,41.659456,44.966817,6997.983210,-0.548335,-0.053984,1.000000,-1.000000
35.300000,2.733901,-0.977735,-0.158065,3.813231,8.682228,-0.352381,483.052032,3.357239,0.000000,41.659448,44.966822,6997.954565,-0.331529,0.715460,1.000000,-0.855376
35.400000,2.736658,-1.036396,-0.136040,3.482084,8.871657,-0.196647,483.193024,3.498199,0.000000,41.659441,44.966827,6997.954565,-1.000000,0.405595,-1.000000,1.000000
35.500000,2.747359,-1.088030,-0.111553,4.023597,9.032061,-0.355578,483.287720,3.592896,0.000000,41.659432,44.966831,6997.925505,-1.000000,1.000000,0.809461,1.000000
35.600000,2.823568,-1.149066,-0.133999,3.077163,9.436838,-0.948189,483.380402,3.685577,0.000000,41.659425,44.966836,6997.925505,-0.824723,0.688598,1.000000,1.000000
35.700000,2.944730,-1.200453,-0.240073,3.107210,9.461416,-1.355343,483.426361,3.731537,0.000000,41.659416,44.966840,6997.898435,-1.000000,1.000000,0.243979,-0.314726
35.800000,3.158796,-1.258946,-0.427971,2.039562,9.708904,-1.434034,483.491241,3.796417,0.000000,41.659408,44.966845,6997.898435,-0.106701,-0.427755,-0.121648,-0.047440
35.900000,3.442633,-1.300935,-0.691928,1.844364,9.441610,-1.984939,483.485748,3.790924,0.000000,41.659400,44.966850,6997.871447,-0.573009,-1.000000,1.000000,-1.000000
36.000000,3.761959,-1.325996,-1.028809,0.860052,9.410924,-1.226003,483.502014,3.807190,0.000000,41.659392,44.966855,6997.871447,1.000000,-0.596351,-1.000000,-0.790655
