t,yaw,pitch,roll,speed.x,speed.y,speed.z,altBar,altRad,egt,myloclat,myloclon,weightlb,collective,bank,pitch,rudder
0.000000,5.375005,0.027157,0.000000,0.000000,0.000000,0.000000,481.204865,1.510040,0.000000,41.659724,44.965707,7008.602206,1.000000,0.330570,-0.132027,0.906840
0.100000,5.375070,0.031622,0.000724,-0.092721,0.517175,0.015561,481.239288,1.544464,0.000000,41.659724,44.965707,7004.964901,-1.000000,-1.000000,0.436647,0.099035
0.200000,5.376439,0.037011,0.001149,-0.064609,0.004807,0.013336,481.263000,1.568176,0.000000,41.659724,44.965707,7004.964901,1.000000,0.432216,-0.021976,-0.189297
0.300000,5.376449,0.039389,0.001277,-0.025739,-0.087078,-0.004805,481.255646,1.560822,0.000000,41.659724,44.965707,7000.556034,-1.000000,1.000000,0.506850,0.415026
0.400000,5.376464,0.040128,0.000497,0.009834,0.076270,-0.018551,481.255096,1.560272,0.000000,41.659724,44.965707,7000.556034,-0.781760,1.000000,-1.000000,1.000000
0.500000,5.379255,0.037165,-0.001014,0.075186,0.123045,-0.005477,481.266815,1.571991,0.000000,41.659724,44.965707,7000.556034,1.000000,0.583269,0.370425,-0.272013
0.600000,5.380879,0.032950,-0.003075,0.051937,0.025626,-0.034049,481.276917,1.582092,0.000000,41.659724,44.965707,7000.556034,1.000000,0.412342,-1.000000,-0.992339
0.700000,5.377659,0.031560,-0.003897,-0.002201,0.038907,0.021536,481.275208,1.580383,0.000000,41.659724,44.965707,7000.541649,-1.000000,0.476912,0.342516,0.287718
0.800000,5.372101,0.032687,-0.002371,-0.029252,0.087282,0.059278,481.281982,1.587158,0.000000,41.659724,44.965707,7000.541649,1.000000,1.000000,1.000000,0.608821
0.900000,5.371038,0.035552,0.000877,-0.053282,-0.014737,0.040703,481.285583,1.590759,0.000000,41.659724,44.965707,7000.527761,-0.789221,-0.495607,0.053386,0.137902
1.000000,5.372688,0.039010,0.001784,-0.042289,0.096458,-0.002301,481.285980,1.591156,0.000000,41.659724,44.965707,7000.527761,-1.000000,-0.356159,-0.304935,-0.104995
1.100000,5.375861,0.040203,0.003244,0.052635,0.698577,-0.041984,481.321564,1.626740,0.000000,41.659724,44.965707,7000.513376,-0.641767,0.254726,-1.000000,0.662233
1.200000,5.383479,0.037190,0.005780,0.150538,1.281704,-0.096465,481.420502,1.725677,0.000000,41.659724,44.965707,7000.513376,-0.753333,-0.225968,0.547824,0.293561
1.300000,5.397364,0.030031,0.008257,0.247546,1.929417,-0.140122,481.582031,1.887207,0.000000,41.659724,44.965707,7000.497375,-1.000000,1.000000,1.000000,-0.138278
1.400000,5.414362,0.019027,0.011601,0.317813,2.358080,-0.166545,481.810547,2.115723,0.000000,41.659724,44.965706,7000.497375,0.921813,1.000000,-0.991964,0.316461
1.500000,5.432965,0.007132,0.014245,0.325084,2.001795,-0.153755,482.024811,2.330017,0.000000,41.659725,44.965706,7000.480212,0.524642,-0.547218,-1.000000,-0.774201
1.600000,5.452456,-0.005367,0.016489,0.329518,1.348593,-0.111530,482.193359,2.498535,0.000000,41.659725,44.965706,7000.480212,-1.000000,-1.000000,-1.000000,0.548373
1.700000,5.472052,-0.018096,0.018952,0.396823,1.231949,-0.081850,482.319977,2.625153,0.000000,41.659725,44.965705,7000.460853,-0.037058,-0.513443,0.363614,-1.000000
1.800000,5.490779,-0.031061,0.022557,0.473638,1.148550,-0.064876,482.437256,2.742432,0.000000,41.659725,44.965705,7000.460853,0.385630,1.000000,0.568105,1.000000
1.900000,5.515133,-0.044861,0.025439,0.529210,0.536408,-0.055880,482.523468,2.828644,0.000000,41.659726,44.965704,7000.438218,0.456788,0.651936,1.000000,0.321910
2.000000,5.548825,-0.057695,0.024430,0.590532,-0.235073,-0.048785,482.536896,2.842072,0.000000,41.659726,44.965704,7000.438218,0.978244,-1.000000,1.000000,-1.000000
2.100000,5.581936,-0.068205,0.022168,0.659837,-1.039054,0.025627,482.471619,2.776794,0.000000,41.659726,44.965704,7000.414299,0.647094,-0.136448,-0.188104,-0.697522
2.200000,5.606829,-0.077241,0.023559,0.751965,-1.757226,0.135260,482.319733,2.624908,0.000000,41.659727,44.965703,7000.414299,-0.315274,1.000000,0.225860,1.000000
2.300000,5.629407,-0.084173,0.027912,0.857196,-1.791455,0.168624,482.124512,2.429688,0.000000,41.659727,44.965703,7000.388638,-0.709870,0.528427,1.000000,-1.000000
2.400000,5.654021,-0.088368,0.035862,0.976425,-0.795191,0.179794,481.985840,2.291016,0.000000,41.659728,44.965703,7000.388638,-1.000000,-1.000000,-0.829729,0.618596
2.500000,5.682562,-0.091809,0.049244,1.191005,0.671584,0.148966,481.973145,2.278320,0.000000,41.659729,44.965702,7000.360822,-0.952583,0.726295,-0.932319,-0.424724
2.600000,5.715556,-0.098105,0.063506,1.429640,1.389138,0.134220,482.074921,2.380096,0.000000,41.659730,44.965702,7000.360822,0.871181,-1.000000,0.440366,-0.089874
2.700000,5.747565,-0.105554,0.075495,1.586527,1.220044,0.138875,482.187469,2.492645,0.000000,41.659732,44.965701,7000.333835,-1.000000,-1.000000,-0.448673,1.000000
2.800000,5.788231,-0.113884,0.082042,1.754153,0.958158,0.117823,482.273865,2.579041,0.000000,41.659733,44.965701,7000.333835,0.323014,0.299630,-0.278910,-0.478102
2.900000,5.835472,-0.122560,0.082426,1.943546,0.913443,0.119534,482.344757,2.649933,0.000000,41.659735,44.965700,7000.306060,-1.000000,-1.000000,0.754338,-0.912494
3.000000,5.872223,-0.129843,0.083956,2.143087,1.065620,0.202717,482.408630,2.713806,0.000000,41.659737,44.965700,7000.306060,-0.482548,-0.171521,-1.000000,-1.000000
3.100000,5.897781,-0.137160,0.090596,2.373730,1.248428,0.302866,482.498657,2.803833,0.000000,41.659739,44.965699,7000.276295,-0.093502,-0.628383,0.702053,-0.505861
3.200000,5.914208,-0.143933,0.099362,2.570977,0.990436,0.410235,482.576813,2.881989,0.000000,41.659741,44.965699,7000.276295,1.000000,1.000000,-0.182372,1.000000
3.300000,5.931179,-0.149529,0.104628,2.734104,0.445811,0.477385,482.602844,2.908020,0.000000,41.659744,44.965699,7000.246572,-0.364122,-0.603065,0.586430,-1.000000
3.400000,5.953991,-0.154314,0.105200,2.915707,0.016213,0.532775,482.572601,2.877777,0.000000,41.659746,44.965699,7000.246572,-0.632729,0.954594,0.504681,0.981996
3.500000,5.980243,-0.157582,0.100190,3.124749,0.243920,0.533951,482.531006,2.836182,0.000000,41.659749,44.965699,7000.216102,0.115726,0.698715,0.070650,1.000000
3.600000,6.010673,-0.159566,0.089001,3.318396,0.148077,0.496740,482.501068,2.806244,0.000000,41.659752,44.965699,7000.216102,1.000000,0.084080,0.897212,-0.538844
3.700000,6.047533,-0.159964,0.071797,3.503097,-0.443226,0.463977,482.428406,2.733582,0.000000,41.659755,44.965699,7000.184141,0.013090,-1.000000,-1.000000,0.775941
3.800000,6.084932,-0.157960,0.051584,3.674788,-0.978791,0.386274,482.292969,2.598145,0.000000,41.659758,44.965699,7000.184141,0.562877,-0.018639,-0.537930,1.000000
3.900000,6.123364,-0.153583,0.029651,3.817586,-1.137514,0.244182,482.131775,2.436981,0.000000,41.659761,44.965700,7000.153754,-0.657230,-1.000000,1.000000,-0.204080
4.000000,6.163814,-0.145405,0.008293,3.951174,-0.802533,0.091568,481.966980,2.272186,0.000000,41.659764,44.965700,7000.153754,-0.523859,0.763635,0.798478,0.897210
4.100000,6.201560,-0.133745,-0.005946,4.089987,-0.381274,-0.071327,481.859894,2.165070,0.000000,41.659768,44.965700,7000.125813,0.396710,0.494824,-0.426954,0.088666
4.200000,6.237657,-0.121082,-0.014945,4.207727,-0.473181,-0.232217,481.769989,2.075165,0.000000,41.659772,44.965700,7000.125813,0.040488,0.186098,-0.318168,-1.000000
4.300000,6.272502,-0.106655,-0.018959,4.306020,-0.817653,-0.335970,481.653992,1.959167,0.000000,41.659775,44.965700,7000.100194,0.314451,1.000000,1.000000,0.367453
4.400000,0.013041,-0.091676,-0.011895,4.285246,-1.132583,-0.378874,481.509399,1.814575,0.000000,41.659779,44.965701,7000.100194,1.000000,1.000000,0.677064,0.303456
4.500000,0.031565,-0.072648,0.000818,3.436578,-0.805601,-0.355079,481.383118,1.688293,0.000000,41.659782,44.965701,7000.078140,0.719947,0.996528,0.265762,0.018924
4.600000,0.050374,-0.041632,0.001982,2.165414,0.008298,-0.341934,481.331848,1.636993,0.000000,41.659785,44.965701,7000.078140,0.876350,1.000000,0.274224,0.537036
4.700000,0.070967,-0.005445,-0.000085,1.840208,-0.301798,-0.389198,481.315491,1.620667,0.000000,41.659787,44.965701,7000.058325,0.087503,-1.000000,0.224656,1.000000
4.800000,0.093372,0.025083,-0.001529,1.529877,-0.358245,-0.390276,481.279785,1.584991,0.000000,41.659788,44.965701,7000.058325,0.382753,-0.102401,-0.382357,-0.020944
4.900000,0.114913,0.042557,-0.004826,1.009095,-0.098406,-0.289557,481.256561,1.561707,0.000000,41.659789,44.965701,7000.039587,0.654658,1.000000,-0.182063,0.016934
5.000000,0.127817,0.040160,-0.009733,0.493735,0.161431,-0.172406,481.268280,1.573486,0.000000,41.659790,44.965701,7000.039587,-0.527288,0.508003,1.000000,0.647394
5.100000,0.137093,0.029189,-0.008830,0.419009,0.288963,-0.145850,481.288818,1.593994,0.000000,41.659790,44.965701,7000.022839,-1.000000,-1.000000,0.628927,0.243438
5.200000,0.148175,0.014093,-0.007441,0.488180,0.686211,-0.173047,481.342743,1.647888,0.000000,41.659791,44.965701,7000.022839,0.043299,-0.275355,-0.481681,-0.615330
5.300000,0.153993,-0.003944,-0.005292,0.565930,0.833074,-0.151134,481.421387,1.726563,0.000000,41.659791,44.965701,7000.007211,-0.937235,0.227127,-0.778837,0.067498
5.400000,0.152932,-0.023201,-0.002949,0.640742,0.778104,-0.142157,481.501617,1.806793,0.000000,41.659792,44.965701,7000.007211,0.762300,1.000000,-0.184762,0.998540
5.500000,0.152828,-0.044526,-0.003669,0.701922,0.291050,-0.155504,481.556976,1.862152,0.000000,41.659792,44.965701,6999.991789,1.000000,1.000000,1.000000,-0.073866
5.600000,0.156809,-0.065164,-0.009034,0.774728,-0.359296,-0.167880,481.545990,1.851196,0.000000,41.659793,44.965701,6999.991789,-0.474349,-1.000000,-0.588527,1.000000
5.700000,0.163811,-0.083129,-0.013346,0.760822,-0.385686,-0.158413,481.494354,1.799561,0.000000,41.659794,44.965701,6999.976741,0.107936,1.000000,-1.000000,-1.000000
5.800000,0.171562,-0.096070,-0.009517,0.405131,0.230423,-0.107184,481.487152,1.792297,0.000000,41.659794,44.965701,6999.976741,-0.359100,0.326240,0.810957,-1.000000
5.900000,0.172036,-0.104788,-0.015010,0.239168,0.188503,-0.073973,481.510406,1.815613,0.000000,41.659795,44.965701,6999.959371,0.929627,-0.928834,-0.383060,0.034538
6.000000,0.167054,-0.109632,-0.021939,0.101093,0.033865,-0.030100,481.518066,1.823212,0.000000,41.659795,44.965701,6999.959371,-0.408581,-0.390257,0.674358,1.000000
6.100000,0.167353,-0.109205,-0.024473,-0.010406,0.108954,-0.062078,481.521454,1.826630,0.000000,41.659795,44.965701,6999.938644,-0.068766,0.083911,0.546990,1.000000
6.200000,0.180066,-0.105726,-0.022553,0.130144,0.164398,-0.125447,481.535217,1.840393,0.000000,41.659795,44.965701,6999.938644,-0.412585,1.000000,-0.261190,-0.641567
6.300000,0.197704,-0.100097,-0.013827,0.139503,0.070840,-0.164347,481.555634,1.860809,0.000000,41.659795,44.965701,6999.916258,0.906681,-0.406741,-1.000000,0.953801
6.400000,0.221908,-0.093533,-0.002161,0.227577,-0.482267,-0.170614,481.533936,1.839111,0.000000,41.659795,44.965701,6999.916258,0.938719,-1.000000,-0.384790,0.475893
6.500000,0.249474,-0.079960,0.008650,0.016005,-0.585813,-0.257070,481.471283,1.776459,0.000000,41.659795,44.965701,6999.891841,0.335202,-0.875464,0.807831,0.222186
6.600000,0.273124,-0.056238,0.016615,-0.216138,-0.531859,-0.204842,481.413483,1.718689,0.000000,41.659795,44.965700,6999.891841,-1.000000,-0.235649,-0.844530,0.051956
6.700000,0.295666,-0.022594,0.019120,-0.273901,-0.302127,-0.292437,481.373749,1.678925,0.000000,41.659795,44.965700,6999.865061,0.799866,0.545307,-0.353951,0.300034
6.800000,0.319741,0.010171,0.024112,-0.247588,-0.456838,-0.275302,481.341461,1.646637,0.000000,41.659795,44.965700,6999.865061,0.019205,1.000000,0.634730,0.453288
6.900000,0.342342,0.038419,0.014094,-0.198051,-0.395405,-0.221276,481.293304,1.598511,0.000000,41.659795,44.965699,6999.837950,-1.000000,-0.318349,1.000000,0.127971
7.000000,0.352350,0.061811,-0.001506,-0.237241,0.488682,-0.210474,481.296753,1.601929,0.000000,41.659795,44.965699,6999.837950,-0.464170,-0.996194,-0.740806,1.000000
7.100000,0.365539,0.077871,-0.008610,-0.166213,1.165181,-0.245131,481.381561,1.686737,0.000000,41.659795,44.965698,6999.811999,-1.000000,0.057927,0.998994,-1.000000
7.200000,0.379392,0.088398,-0.011370,-0.133152,1.474577,-0.218650,481.512634,1.817810,0.000000,41.659795,44.965698,6999.811999,0.487989,1.000000,-1.000000,-0.183729
7.300000,0.385984,0.095975,-0.009861,-0.145269,1.344137,-0.182608,481.654694,1.959900,0.000000,41.659795,44.965698,6999.787416,-1.000000,-1.000000,1.000000,1.000000
7.400000,0.393693,0.100340,-0.007057,-0.170689,1.182310,-0.192894,481.781403,2.086578,0.000000,41.659795,44.965697,6999.787416,0.546422,1.000000,-1.000000,-1.000000
7.500000,0.403114,0.101563,-0.003550,-0.196566,1.016794,-0.179462,481.884369,2.189545,0.000000,41.659794,44.965697,6999.765694,-1.000000,0.740262,-1.000000,1.000000
7.600000,0.415670,0.099418,0.001829,-0.209866,1.021921,-0.178378,481.980652,2.285828,0.000000,41.659794,44.965697,6999.765694,-0.512936,-0.641841,-0.650181,-0.045407
7.700000,0.435640,0.092589,0.008360,-0.193336,1.447264,-0.199902,482.108643,2.413818,0.000000,41.659794,44.965696,6999.744593,0.460765,-0.030331,-0.264536,-0.594392
7.800000,0.456667,0.082899,0.014969,-0.236096,1.161172,-0.142950,482.236664,2.541840,0.000000,41.659794,44.965696,6999.744593,0.392159,1.000000,-1.000000,0.000826
7.900000,0.476169,0.071174,0.021665,-0.289325,0.552387,-0.071092,482.321014,2.626190,0.000000,41.659794,44.965695,6999.720839,0.047866,-0.888356,-0.700359,-0.259722
8.000000,0.494790,0.058312,0.027335,-0.319023,-0.009534,0.016460,482.346161,2.651337,0.000000,41.659794,44.965695,6999.720839,0.554910,-0.247924,0.106356,-0.406948
8.100000,0.508759,0.045559,0.032536,-0.331670,-0.560278,0.116980,482.316986,2.622162,0.000000,41.659793,44.965695,6999.695925,0.322716,0.127450,-1.000000,-0.331705
8.200000,0.519784,0.031774,0.037836,-0.327903,-1.166300,0.215200,482.227386,2.532593,0.000000,41.659793,44.965695,6999.695925,0.838939,0.189481,-0.025435,0.057744
8.300000,0.528704,0.018187,0.041975,-0.314296,-1.930773,0.331658,482.069092,2.374237,0.000000,41.659793,44.965695,6999.669518,1.000000,1.000000,-0.291650,-0.740538
8.400000,0.532733,0.006110,0.045203,-0.288483,-2.732474,0.436406,481.843231,2.148376,0.000000,41.659792,44.965695,6999.669518,1.000000,0.274999,-0.675897,0.489728
8.500000,0.534870,-0.005906,0.046632,-0.242863,-3.580060,0.529682,481.518311,1.823486,0.000000,41.659792,44.965695,6999.641121,1.000000,1.000000,-1.000000,-0.600997
8.600000,0.531907,-0.004785,0.037641,-0.431132,-1.297376,-0.167951,481.184448,1.489594,0.000000,41.659792,44.965695,6999.641121,-0.527132,1.000000,1.000000,0.610707
8.700000,0.528864,0.035575,0.009683,-0.592679,1.055503,-0.434807,481.228516,1.533691,0.000000,41.659792,44.965694,6999.614217,0.190980,0.011988,-0.912303,-0.584633
8.800000,0.524646,0.074123,-0.010663,-0.543651,0.746684,-0.339759,481.322052,1.627197,0.000000,41.659791,44.965693,6999.614217,0.644041,1.000000,0.383255,-0.112842
8.900000,0.512327,0.107546,-0.020399,-0.500157,0.281110,-0.212439,481.367584,1.672760,0.000000,41.659791,44.965693,6999.589717,0.393517,0.241306,-0.735611,-1.000000
9.000000,0.494411,0.135999,-0.011227,-0.390599,0.043129,-0.014664,481.374268,1.679443,0.000000,41.659791,44.965692,6999.589717,0.307329,-0.535672,-1.000000,1.000000
9.100000,0.478137,0.158336,-0.000557,-0.358589,0.309677,0.063507,481.384216,1.689392,0.000000,41.659790,44.965692,6999.567497,-0.358433,0.173783,0.966489,-1.000000
9.200000,0.464640,0.171902,0.006232,-0.351634,0.509248,0.005128,481.418030,1.723206,0.000000,41.659790,44.965692,6999.567497,-0.559786,-0.149879,-0.774751,0.257487
9.300000,0.446995,0.179431,0.013647,-0.408304,0.696980,0.002664,481.470673,1.775848,0.000000,41.659790,44.965692,6999.548262,-0.106385,-0.769314,0.710517,-0.247943
9.400000,0.427475,0.182951,0.020073,-0.505319,0.607026,-0.010615,481.532928,1.838104,0.000000,41.659789,44.965691,6999.548262,0.471298,0.464991,-1.000000,0.714621
9.500000,0.409935,0.183242,0.023611,-0.642513,0.051306,-0.000573,481.556091,1.861237,0.000000,41.659789,44.965691,6999.530726,0.377485,1.000000,0.400514,-0.311142
9.600000,0.394605,0.180993,0.024664,-0.770384,-0.514347,0.033106,481.522003,1.827179,0.000000,41.659788,44.965690,6999.530726,0.726516,1.000000,-0.389129,-0.434904
9.700000,0.373840,0.175970,0.024231,-0.821710,-0.895717,0.058511,481.429962,1.735138,0.000000,41.659788,44.965690,6999.513813,-0.106212,0.211060,0.019966,0.031706
9.800000,0.347063,0.170981,0.013747,-0.209983,-0.209727,-0.215854,481.357941,1.663116,0.000000,41.659788,44.965690,6999.513813,-0.570484,0.227784,1.000000,0.331885
9.900000,0.331214,0.167648,0.018451,0.037334,0.249914,-0.024548,481.367462,1.672638,0.000000,41.659788,44.965690,6999.496941,0.325291,0.005071,-0.132748,-0.890280
10.000000,0.313600,0.161686,0.028722,-0.047774,0.017006,0.056183,481.384857,1.690033,0.000000,41.659788,44.965690,6999.496941,0.921518,0.036842,1.000000,-1.000000
10.100000,0.284552,0.152523,0.036661,-0.217232,-0.436545,0.090150,481.361328,1.666504,0.000000,41.659787,44.965690,6999.477954,1.000000,-0.894975,0.036126,0.721289
10.200000,0.256370,0.139447,0.038945,-0.033321,-0.284481,-0.128767,481.316711,1.621887,0.000000,41.659787,44.965689,6999.477954,-0.024284,-0.909319,-1.000000,0.089316
10.300000,0.238890,0.122072,0.030133,0.224803,0.206530,-0.235035,481.321472,1.626648,0.000000,41.659788,44.965689,6999.456563,0.327990,1.000000,1.000000,-0.282139
10.400000,0.227949,0.101952,0.018398,0.202116,0.128315,-0.237964,481.339417,1.644592,0.000000,41.659788,44.965689,6999.456563,-1.000000,0.814103,-0.127736,0.789168
10.500000,0.223722,0.081359,0.008742,0.243920,0.657700,-0.261189,481.373383,1.678528,0.000000,41.659788,44.965689,6999.434053,-1.000000,-0.292462,-0.631657,1.000000
10.600000,0.230763,0.056327,0.001735,0.309010,1.457856,-0.300981,481.492096,1.797272,0.000000,41.659788,44.965689,6999.434053,0.561264,0.553787,-1.000000,-0.557118
10.700000,0.245684,0.030414,-0.003596,0.296646,1.289264,-0.306044,481.639404,1.944611,0.000000,41.659789,44.965688,6999.410507,0.460438,1.000000,0.599868,1.000000
10.800000,0.265611,0.007466,-0.008958,0.274504,0.641183,-0.299267,481.734131,2.039307,0.000000,41.659789,44.965688,6999.410507,0.919491,0.378001,-0.906750,-0.275462
10.900000,0.292897,-0.014547,-0.015288,0.289525,-0.007967,-0.331198,481.761139,2.066315,0.000000,41.659789,44.965688,6999.386421,-1.000000,1.000000,0.365954,0.792678
11.000000,0.332915,-0.034516,-0.022821,0.364221,-0.021526,-0.374365,481.749786,2.054962,0.000000,41.659790,44.965688,6999.386421,-0.731832,0.320983,0.125050,-0.921163
11.100000,0.369088,-0.052389,-0.023467,0.455892,0.095924,-0.340079,481.757660,2.062836,0.000000,41.659790,44.965688,6999.362875,1.000000,-0.183619,0.494145,-0.499949
11.200000,0.395922,-0.070032,-0.015308,0.543526,-0.270776,-0.277834,481.744965,2.050140,0.000000,41.659791,44.965688,6999.362875,-0.665703,-0.788523,0.472503,1.000000
11.300000,0.421410,-0.085803,-0.002868,0.648966,-0.420189,-0.289320,481.701202,2.006378,0.000000,41.659791,44.965688,6999.337712,0.513614,0.948335,1.000000,1.000000
11.400000,0.454075,-0.098666,0.007984,0.751735,-0.590538,-0.337145,481.650116,1.955322,0.000000,41.659792,44.965688,6999.337712,0.096577,-0.162969,1.000000,1.000000
11.500000,0.498718,-0.109726,0.014979,0.852457,-0.829799,-0.427713,481.565613,1.870758,0.000000,41.659793,44.965688,6999.310807,0.254662,-1.000000,-0.445303,1.000000
11.600000,0.545659,-0.109779,0.017341,0.431207,-0.411078,-0.591639,481.497253,1.802429,0.000000,41.659793,44.965688,6999.310807,1.000000,1.000000,-0.769548,0.815864
11.700000,0.587919,-0.093888,0.019459,0.036482,-0.240223,-0.568670,481.470520,1.775696,0.000000,41.659794,44.965687,6999.284691,1.000000,0.395429,1.000000,1.000000
11.800000,0.628914,-0.062637,0.018340,-0.130803,-0.576392,-0.610982,481.430847,1.736053,0.000000,41.659794,44.965687,6999.284691,0.661505,1.000000,-1.000000,0.170977
11.900000,0.664330,-0.022262,0.013460,-0.282786,-0.722466,-0.637680,481.363037,1.668213,0.000000,41.659794,44.965686,6999.259652,-0.787433,1.000000,0.983696,-1.000000
12.000000,0.685739,0.018461,0.005049,-0.359004,-0.650776,-0.490761,481.297333,1.602509,0.000000,41.659794,44.965685,6999.259652,1.000000,-0.606231,0.764735,-0.290135
12.100000,0.687985,0.057684,-0.011379,-0.588366,0.026203,-0.136367,481.266144,1.571350,0.000000,41.659794,44.965685,6999.235857,1.000000,-0.221439,0.384654,0.038421
12.200000,0.684276,0.090990,-0.011371,-0.455267,0.324249,0.144886,481.278198,1.583405,0.000000,41.659794,44.965684,6999.235857,-1.000000,-0.305166,-0.313877,-0.416119
12.300000,0.677541,0.116366,-0.000548,-0.421305,0.421671,0.216876,481.311066,1.616241,0.000000,41.659794,44.965684,6999.215129,-1.000000,0.120041,-0.269330,-0.803449
12.400000,0.659995,0.136988,0.012110,-0.439519,0.697630,0.198201,481.362061,1.667236,0.000000,41.659793,44.965684,6999.215129,0.461680,-0.455372,-0.397149,1.000000
12.500000,0.640415,0.151935,0.024233,-0.466532,0.529996,0.143592,481.424591,1.729767,0.000000,41.659793,44.965683,6999.196557,0.092740,1.000000,-0.154205,-0.904260
12.600000,0.621057,0.162598,0.032902,-0.516220,0.252704,0.127603,481.450073,1.755249,0.000000,41.659792,44.965683,6999.196557,-0.257587,0.426823,-0.476208,0.353544
12.700000,0.596902,0.169130,0.038536,-0.536129,0.437902,0.106169,481.472626,1.777802,0.000000,41.659792,44.965683,6999.179146,-0.463600,-0.521464,-0.180367,-0.122648
12.800000,0.573499,0.169930,0.041391,-0.605373,0.444089,0.126062,481.513397,1.818573,0.000000,41.659791,44.965682,6999.179146,1.000000,0.158788,-0.411873,-0.128588
12.900000,0.551323,0.167273,0.040738,-0.715347,-0.011366,0.146763,481.523102,1.828308,0.000000,41.659791,44.965682,6999.163393,-0.322653,0.014812,-0.222762,1.000000
13.000000,0.533015,0.161173,0.035203,-0.806168,-0.356102,0.137245,481.486633,1.791779,0.000000,41.659790,44.965682,6999.163393,-0.402761,1.000000,-0.618631,1.000000
13.100000,0.524297,0.149991,0.025917,-0.803275,0.166847,0.097152,481.457123,1.762268,0.000000,41.659790,44.965681,6999.147309,-1.000000,1.000000,1.000000,0.358327
13.200000,0.524076,0.134304,0.016824,-0.817677,0.618590,0.083837,481.491364,1.796509,0.000000,41.659789,44.965681,6999.147309,0.782659,1.000000,1.000000,-0.110928
13.300000,0.526643,0.115500,0.007213,-0.896819,0.256428,0.137325,481.529419,1.834595,0.000000,41.659788,44.965680,6999.128903,0.015127,0.049566,0.333825,-0.312705
13.400000,0.527945,0.096521,-0.000961,-0.955166,-0.193043,0.177081,481.517883,1.823059,0.000000,41.659788,44.965679,6999.128903,-0.842074,0.423836,1.000000,0.310706
13.500000,0.530615,0.077893,-0.005145,-0.949522,-0.080973,0.201238,481.494843,1.800018,0.000000,41.659787,44.965679,6999.108383,0.320847,-1.000000,-0.733177,-0.731971
13.600000,0.534287,0.057077,-0.004703,-0.931124,0.033791,0.211784,481.487823,1.792999,0.000000,41.659786,44.965678,6999.108383,-0.692587,0.326666,-0.067936,1.000000
13.700000,0.543474,0.035565,-0.000225,-0.877553,0.279542,0.219580,481.496979,1.802155,0.000000,41.659785,44.965678,6999.085541,-0.155681,1.000000,-1.000000,-0.854920
13.800000,0.556981,0.014347,0.008351,-0.817386,0.414079,0.248438,481.531372,1.836578,0.000000,41.659785,44.965678,6999.085541,-0.313035,0.690212,0.060079,0.606009
13.900000,0.575180,-0.008352,0.019892,-0.759900,0.292886,0.275687,481.568512,1.873718,0.000000,41.659784,44.965677,6999.060129,0.110534,0.606760,0.721968,1.000000
14.000000,0.604084,-0.030410,0.030305,-0.692735,-0.024620,0.301217,481.586548,1.891724,0.000000,41.659783,44.965677,6999.060129,0.632802,0.619115,0.065364,-0.877734
14.100000,0.636095,-0.049642,0.038659,-0.622741,-0.669097,0.415261,481.556549,1.861725,0.000000,41.659783,44.965677,6999.033763,1.000000,0.942895,0.076319,-0.525230
14.200000,0.657594,-0.062716,0.043841,-0.384908,-1.027405,0.440868,481.460266,1.765442,0.000000,41.659782,44.965676,6999.033763,-1.000000,-0.638590,-0.869223,-0.541810
14.300000,0.655451,-0.049994,0.032134,-0.385602,-0.251159,0.027304,481.386749,1.691925,0.000000,41.659782,44.965676,6999.006154,-1.000000,-0.851679,1.000000,0.603899
14.400000,0.651734,-0.025645,0.023675,-0.350439,0.543434,-0.073798,481.407166,1.712341,0.000000,41.659781,44.965676,6999.006154,-0.355348,-0.784339,-1.000000,-1.000000
14.500000,0.645468,-0.002728,0.022927,-0.216522,0.781307,-0.005463,481.484344,1.789490,0.000000,41.659781,44.965676,6998.976929,1.000000,-1.000000,-0.363039,-0.393885
14.600000,0.629591,0.018011,0.028966,-0.161969,0.395630,0.074957,481.544098,1.849274,0.000000,41.659781,44.965676,6998.976929,-0.908506,1.000000,-1.000000,0.866128
14.700000,0.613906,0.035541,0.036990,-0.103297,0.412734,0.105893,481.575592,1.880768,0.000000,41.659781,44.965676,6998.949734,-1.000000,-0.403490,0.582832,-1.000000
14.800000,0.598318,0.049969,0.048898,0.000234,0.977790,0.149560,481.648041,1.953217,0.000000,41.659781,44.965676,6998.949734,-0.255819,0.058223,1.000000,0.191854
14.900000,0.581188,0.060264,0.063168,0.043267,1.096615,0.192096,481.757935,2.063110,0.000000,41.659781,44.965676,6998.924903,-0.211584,-0.445466,0.294046,1.000000
15.000000,0.572172,0.067040,0.074459,0.064757,1.142967,0.193636,481.860504,2.165649,0.000000,41.659780,44.965676,6998.924903,-0.890539,0.388956,-0.153707,0.936854
15.100000,0.575349,0.070559,0.083646,0.074282,1.091992,0.220603,481.979401,2.284576,0.000000,41.659780,44.965676,6998.901024,0.915372,0.178710,0.475700,0.501952
15.200000,0.589162,0.071604,0.090531,0.045297,0.569651,0.284463,482.064209,2.369385,0.000000,41.659780,44.965677,6998.901024,1.000000,-1.000000,0.841683,0.733703
15.300000,0.610471,0.071109,0.093784,0.013881,0.016334,0.354983,482.087219,2.392395,0.000000,41.659780,44.965677,6998.878805,-0.449108,-0.081073,-0.419433,0.494086
15.400000,0.641113,0.069018,0.092679,0.003616,-0.337437,0.415161,482.063080,2.368256,0.000000,41.659780,44.965677,6998.878805,0.111435,1.000000,-1.000000,1.000000
15.500000,0.680400,0.064870,0.085609,0.008889,-0.615445,0.449399,482.015564,2.320709,0.000000,41.659779,44.965678,6998.855756,1.000000,1.000000,-1.000000,1.000000
15.600000,0.725075,0.059859,0.073651,0.011235,-1.041799,0.480060,481.929565,2.234741,0.000000,41.659779,44.965678,6998.855756,-1.000000,-1.000000,0.624727,-0.100201
15.700000,0.775052,0.053357,0.057960,0.079630,-0.720205,0.486043,481.827301,2.132477,0.000000,41.659779,44.965678,6998.830261,-1.000000,-0.703151,-0.620337,0.465043
15.800000,0.826408,0.043641,0.042277,0.229649,0.574668,0.458014,481.813965,2.119141,0.000000,41.659779,44.965679,6998.830261,-1.000000,-1.000000,-1.000000,0.703407
15.900000,0.877354,0.030746,0.028948,0.334441,1.182877,0.449799,481.908356,2.213531,0.000000,41.659778,44.965679,6998.805222,0.141903,-0.064632,-1.000000,-0.567325
16.000000,0.930828,0.015554,0.015329,0.398992,1.135613,0.473890,482.029510,2.334686,0.000000,41.659778,44.965680,6998.805222,-0.597879,1.000000,0.905527,0.795652
16.100000,0.982702,0.000265,0.002398,0.446332,0.703988,0.497764,482.126648,2.431824,0.000000,41.659778,44.965681,6998.781344,1.000000,1.000000,0.638413,-0.685076
16.200000,1.028849,-0.013223,-0.007812,0.493873,0.110315,0.533405,482.166901,2.472076,0.000000,41.659778,44.965682,6998.781344,1.000000,0.967976,0.157184,-1.000000
16.300000,1.065419,-0.026294,-0.012451,0.558968,-0.516007,0.631892,482.141296,2.446472,0.000000,41.659777,44.965682,6998.758461,-0.525225,-0.337688,1.000000,-0.773224
16.400000,1.085876,-0.038591,-0.006425,0.652002,-0.713615,0.717791,482.070923,2.376099,0.000000,41.659777,44.965683,6998.758461,-0.491790,-0.623997,0.879164,-0.408621
16.500000,1.098411,-0.050178,0.008062,0.778057,-0.233249,0.743644,482.020813,2.325989,0.000000,41.659777,44.965684,6998.735743,-0.364913,-0.351272,-1.000000,0.039636
16.600000,1.112123,-0.063157,0.025937,0.916834,0.080900,0.738961,482.012390,2.317566,0.000000,41.659776,44.965686,6998.735743,0.011875,-0.732053,0.375121,1.000000
16.700000,1.133627,-0.076434,0.039739,1.041976,-0.070071,0.701396,482.006409,2.311615,0.000000,41.659776,44.965687,6998.711160,0.040871,1.000000,1.000000,1.000000
16.800000,1.164778,-0.088453,0.046644,1.165866,-0.393823,0.673302,481.974762,2.279938,0.000000,41.659776,44.965688,6998.711160,1.000000,0.373741,0.330189,-0.293627
16.900000,1.202366,-0.099797,0.049415,1.299535,-1.117583,0.690114,481.885834,2.191010,0.000000,41.659775,44.965690,6998.685666,1.000000,0.662616,0.742072,1.000000
17.000000,1.241769,-0.109206,0.047305,1.443263,-1.956037,0.693224,481.709747,2.014923,0.000000,41.659775,44.965691,6998.685666,0.739045,1.000000,1.000000,-0.086285
17.100000,1.277107,-0.112445,0.036379,1.280858,-1.860938,0.330711,481.495026,1.800201,0.000000,41.659775,44.965693,7000.195831,-0.122378,-1.000000,0.576131,-0.003416
17.200000,1.300860,-0.096443,0.028717,-0.214032,0.005538,-0.359226,481.395447,1.700623,0.000000,41.659775,44.965693,7000.195831,0.205068,-1.000000,1.000000,1.000000
17.300000,1.318114,-0.066637,0.007625,-0.325498,0.451552,-0.499021,481.434143,1.739288,0.000000,41.659775,44.965693,7000.172367,-0.697077,1.000000,-0.466393,-0.353855
17.400000,1.334589,-0.039620,-0.009264,-0.198031,0.688103,-0.491631,481.485687,1.790863,0.000000,41.659776,44.965693,7000.172367,-1.000000,-0.670389,0.304591,-0.722471
17.500000,1.347887,-0.014609,-0.018900,-0.056142,0.990997,-0.491789,481.578735,1.883881,0.000000,41.659776,44.965692,7000.149982,0.404202,1.000000,0.336696,1.000000
17.600000,1.361099,0.007095,-0.024301,0.019972,0.762930,-0.515160,481.672241,1.977417,0.000000,41.659777,44.965692,7000.149982,0.158412,0.497650,0.185362,-0.474645
17.700000,1.375767,0.025512,-0.026946,0.054187,0.495747,-0.544344,481.725769,2.030945,0.000000,41.659777,44.965692,7000.130332,-1.000000,0.692546,0.205015,1.000000
17.800000,1.394194,0.042276,-0.025519,0.091562,0.484070,-0.572846,481.778870,2.084045,0.000000,41.659778,44.965692,7000.130332,1.000000,-1.000000,0.024460,-1.000000
17.900000,1.410309,0.056422,-0.019360,0.077204,0.053551,-0.540556,481.806213,2.111389,0.000000,41.659778,44.965693,7000.112216,-0.637293,-0.100455,0.593873,-0.532479
18.000000,1.415146,0.067630,-0.008428,0.065859,-0.181108,-0.475468,481.794769,2.099976,0.000000,41.659779,44.965693,7000.112216,-0.433225,0.002802,0.946650,-0.621902
18.100000,1.411895,0.076437,0.007749,0.075556,-0.064497,-0.419924,481.785309,2.090485,0.000000,41.659779,44.965693,7000.093644,0.094331,1.000000,0.973214,-0.327874
18.200000,1.403830,0.082096,0.025823,0.083481,0.053370,-0.374931,481.783783,2.088928,0.000000,41.659779,44.965693,7000.093644,-0.727329,-1.000000,-0.784076,0.183246
18.300000,1.397468,0.083827,0.041594,0.132362,0.577004,-0.363074,481.809875,2.115051,0.000000,41.659780,44.965693,7000.073870,-1.000000,-1.000000,-0.191961,-0.461187
18.400000,1.393482,0.080278,0.055156,0.187636,1.171751,-0.361330,481.911194,2.216370,0.000000,41.659780,44.965693,7000.073870,1.000000,1.000000,1.000000,1.000000
18.500000,1.396832,0.072952,0.063927,0.158441,0.872649,-0.325805,482.024078,2.329254,0.000000,41.659780,44.965693,7000.051941,0.799973,1.000000,0.323014,-0.367037
18.600000,1.407169,0.064580,0.068003,0.109592,0.235701,-0.251067,482.079956,2.385132,0.000000,41.659780,44.965693,7000.051941,0.171593,-1.000000,-1.000000,-0.393202
18.700000,1.420020,0.055157,0.069193,0.071758,-0.469553,-0.152377,482.069641,2.374847,0.000000,41.659781,44.965693,7000.027399,1.000000,-0.495620,0.235998,0.725456
18.800000,1.437945,0.045193,0.065396,0.047802,-1.196600,-0.073982,481.986420,2.291595,0.000000,41.659781,44.965693,7000.027399,0.560958,1.000000,-0.627894,-0.672243
18.900000,1.458614,0.035647,0.057468,0.050162,-1.690260,-0.026135,481.843628,2.148804,0.000000,41.659781,44.965693,7000.001904,-0.593599,-1.000000,1.000000,1.000000
19.000000,1.484544,0.024835,0.045703,0.112714,-1.371302,-0.018253,481.678467,1.983643,0.000000,41.659781,44.965694,7000.001904,-1.000000,-1.000000,-0.107256,-1.000000
19.100000,1.511933,0.012630,0.033920,0.198820,-0.871034,-0.011089,481.574158,1.879333,0.000000,41.659781,44.965694,6999.975000,0.904112,-0.233998,-1.000000,1.000000
19.200000,1.538800,0.000531,0.023126,0.253621,-0.975794,-0.006047,481.489960,1.795135,0.000000,41.659781,44.965694,6999.975000,1.000000,0.005653,1.000000,0.208631
19.300000,1.572635,-0.012000,0.009904,0.300113,-1.437160,-0.033897,481.366577,1.671753,0.000000,41.659781,44.965694,6999.946728,0.013699,1.000000,-0.859380,1.000000
19.400000,1.598789,-0.011144,-0.002859,-0.219092,0.160557,-0.264485,481.277740,1.582916,0.000000,41.659781,44.965695,6999.946728,1.000000,0.262938,0.955768,0.243380
19.500000,1.611149,0.004689,-0.006869,-0.370393,0.044005,-0.108613,481.303345,1.608490,0.000000,41.659781,44.965694,6999.920901,1.000000,-0.113452,0.866463,-0.975480
19.600000,1.616507,0.023717,-0.002672,-0.331018,-0.297620,0.037589,481.281281,1.586456,0.000000,41.659781,44.965694,6999.920901,-1.000000,-1.000000,0.452728,0.956342
19.700000,1.614886,0.042976,0.000679,-0.267458,0.098085,0.031622,481.259277,1.564423,0.000000,41.659781,44.965693,6999.897106,1.000000,-0.710471,0.923263,0.857728
19.800000,1.615717,0.057660,0.000791,-0.211334,0.279942,-0.014676,481.281158,1.586334,0.000000,41.659781,44.965693,6999.897106,-0.651601,1.000000,-0.956705,-0.353512
19.900000,1.615386,0.071008,0.000527,-0.193463,0.294067,0.008396,481.305298,1.610443,0.000000,41.659781,44.965693,6999.874803,-0.184824,1.000000,1.000000,-0.189371
20.000000,1.609424,0.080721,0.006607,-0.157223,0.707764,0.074570,481.353882,1.659027,0.000000,41.659781,44.965693,6999.874803,-1.000000,-0.035395,-0.340617,-1.000000
20.100000,1.595284,0.086160,0.020921,-0.133233,0.973418,0.116733,481.436493,1.741669,0.000000,41.659781,44.965692,6999.855444,0.924784,-1.000000,-0.257629,0.982226
20.200000,1.578148,0.089031,0.037336,-0.170295,0.585396,0.119943,481.518311,1.823486,0.000000,41.659781,44.965692,6999.855444,0.310882,-0.926339,-0.671404,-0.257938
20.300000,1.565174,0.089901,0.050062,-0.219087,0.111916,0.144010,481.548126,1.853302,0.000000,41.659781,44.965692,6999.837950,-0.173165,-0.674467,1.000000,0.622921
20.400000,1.555591,0.088629,0.059096,-0.235883,0.019840,0.182887,481.545746,1.850891,0.000000,41.659781,44.965692,6999.837950,-1.000000,0.396667,-1.000000,-1.000000
20.500000,1.545153,0.083740,0.067109,-0.181628,0.795071,0.210190,481.576324,1.881470,0.000000,41.659781,44.965691,6999.821077,-0.983320,-0.634765,0.346443,0.770202
20.600000,1.536533,0.073618,0.075193,-0.105578,1.894433,0.216624,481.711273,2.016449,0.000000,41.659781,44.965691,6999.821077,-1.000000,-0.236333,-0.363263,1.000000
20.700000,1.536993,0.059458,0.080957,-0.080969,2.394791,0.200112,481.923309,2.228485,0.000000,41.659780,44.965691,6999.803501,0.349231,-0.189174,-0.110937,1.000000
20.800000,1.551164,0.041628,0.081556,-0.098348,2.223706,0.230711,482.157867,2.463074,0.000000,41.659780,44.965690,6999.803501,-0.793592,-1.000000,0.490461,-0.600229
20.900000,1.572368,0.022667,0.077559,-0.083716,2.264536,0.321211,482.376831,2.682037,0.000000,41.659780,44.965690,6999.783188,-1.000000,-0.362611,0.201097,-0.732515
21.000000,1.589129,0.004196,0.073304,-0.035681,2.618146,0.425689,482.613525,2.918671,0.000000,41.659779,44.965690,6999.783188,1.000000,0.310113,-0.260659,1.000000
21.100000,1.608994,-0.015551,0.067265,-0.015671,2.252281,0.496410,482.863434,3.168610,0.000000,41.659779,44.965690,6999.759848,0.585891,-1.000000,-0.069308,0.297422
21.200000,1.639003,-0.034423,0.056715,0.011176,1.456384,0.573163,483.050507,3.355682,0.000000,41.659778,44.965690,6999.759848,1.000000,-0.225174,1.000000,-0.540370
21.300000,1.670619,-0.050363,0.045234,0.070881,0.709035,0.674499,483.147919,3.453094,0.000000,41.659777,44.965689,6999.735224,-0.655150,-0.529336,-0.196216,-0.022293
21.400000,1.703911,-0.065452,0.033850,0.182194,0.253172,0.732162,483.189362,3.494568,0.000000,41.659777,44.965689,6999.735224,0.440869,0.340579,0.753287,1.000000
21.500000,1.743561,-0.079136,0.021527,0.315467,-0.213987,0.737831,483.190552,3.495758,0.000000,41.659776,44.965689,6999.709066,1.000000,0.552295,0.339260,-0.343126
21.600000,1.786896,-0.090114,0.008866,0.442231,-0.981895,0.749431,483.130585,3.435791,0.000000,41.659775,44.965690,6999.709066,0.960410,-1.000000,-1.000000,-0.056937
21.700000,1.834428,-0.099291,-0.003786,0.593115,-1.722820,0.738423,482.983307,3.288483,0.000000,41.659775,44.965690,6999.680752,-0.610338,-0.467356,1.000000,1.000000
21.800000,1.888549,-0.105786,-0.015717,0.763657,-1.838258,0.659289,482.788818,3.093994,0.000000,41.659774,44.965690,6999.680752,-0.092791,1.000000,-0.460752,0.213515
21.900000,1.946299,-0.109151,-0.022461,0.947207,-1.181392,0.570635,482.634766,2.939911,0.000000,41.659773,44.965690,6999.652687,-0.861044,-1.000000,-0.869194,0.084695
22.000000,2.010661,-0.110850,-0.021465,1.168387,-0.219846,0.468343,482.547546,2.852722,0.000000,41.659772,44.965691,6999.652687,-1.000000,-1.000000,0.590616,0.501779
22.100000,2.073853,-0.113146,-0.012990,1.438045,0.868998,0.346763,482.576599,2.881775,0.000000,41.659771,44.965692,6999.623834,0.276074,0.007471,-0.176187,-1.000000
22.200000,2.130001,-0.116748,-0.004216,1.632300,0.849332,0.286941,482.647461,2.952667,0.000000,41.659770,44.965693,6999.623834,1.000000,-1.000000,-0.759153,-1.000000
22.300000,2.177356,-0.120474,0.007278,1.799649,0.382751,0.276683,482.688995,2.994171,0.000000,41.659769,44.965695,6999.594401,-0.637396,0.430131,0.138629,1.000000
22.400000,2.223879,-0.123598,0.015681,1.972542,0.107267,0.183504,482.684326,2.989502,0.000000,41.659768,44.965696,6999.594401,-1.000000,0.043698,-0.462125,1.000000
22.500000,2.276717,-0.126264,0.016965,2.166131,0.449844,0.016762,482.685242,2.990417,0.000000,41.659766,44.965698,6999.565341,0.214066,-1.000000,-0.847593,-0.888538
22.600000,2.338775,-0.128894,0.012248,2.364750,0.673123,-0.130017,482.713470,3.018646,0.000000,41.659765,44.965699,6999.565341,-1.000000,1.000000,-0.835409,-0.183228
22.700000,2.394358,-0.131157,0.006786,2.570101,0.952591,-0.216427,482.760345,3.065521,0.000000,41.659763,44.965701,6999.535825,-1.000000,-0.555599,-0.462335,-0.967813
22.800000,2.436897,-0.134491,0.004227,2.821261,1.762401,-0.317331,482.856049,3.161224,0.000000,41.659761,44.965703,6999.535825,-0.649769,0.945663,-0.083405,-0.133627
22.900000,2.476153,-0.140510,0.002984,3.062441,2.470110,-0.459678,483.031219,3.336395,0.000000,41.659759,44.965706,6999.505024,-0.882253,-1.000000,1.000000,0.400818
23.000000,2.518541,-0.148022,-0.001097,3.263186,2.812467,-0.621610,483.259247,3.564423,0.000000,41.659756,44.965708,6999.505024,0.948200,-0.963470,0.517433,-0.840382
23.100000,2.559611,-0.154856,-0.008016,3.400834,2.437678,-0.754313,483.463593,3.768768,0.000000,41.659753,44.965711,6999.476545,0.057912,-0.481910,-1.000000,0.815816
23.200000,2.606177,-0.160369,-0.021530,3.532014,1.790945,-0.913645,483.617737,3.922913,0.000000,41.659751,44.965714,6999.476545,0.235231,1.000000,0.538850,-0.520554
23.300000,2.655440,-0.163750,-0.041032,3.668866,1.266499,-1.082442,483.708191,4.013367,0.000000,41.659748,44.965717,6999.449765,0.081825,0.325494,0.841785,0.171875
23.400000,2.700520,-0.164902,-0.060318,3.791647,0.769128,-1.245127,483.740509,4.045685,0.000000,41.659745,44.965719,6999.449765,0.618761,0.906328,-0.587316,-0.766889
23.500000,2.743290,-0.164113,-0.078153,3.912862,0.072756,-1.388189,483.711121,4.016296,0.000000,41.659742,44.965722,6999.421865,1.000000,0.395448,-1.000000,-0.698032
23.600000,2.774808,-0.161978,-0.090171,4.034614,-0.792832,-1.507500,483.597351,3.902527,0.000000,41.659739,44.965725,6999.421865,1.000000,0.776000,-0.422812,-0.330399
23.700000,2.797076,-0.158979,-0.097390,4.152348,-1.509570,-1.617141,483.408752,3.713959,0.000000,41.659736,44.965728,6999.393676,0.214613,0.059822,-0.193359,-0.689222
23.800000,2.812338,-0.154945,-0.097485,4.279353,-1.960713,-1.674932,483.146545,3.451721,0.000000,41.659733,44.965730,6999.393676,-0.469553,0.578361,-1.000000,-1.000000
23.900000,2.814310,-0.150009,-0.081579,4.413370,-1.633709,-1.630133,482.874725,3.179901,0.000000,41.659729,44.965733,6999.365943,-1.000000,0.181481,-0.345217,-0.393191
24.000000,2.807688,-0.143734,-0.051338,4.570008,-0.566228,-1.584511,482.697815,3.003021,0.000000,41.659726,44.965736,6999.365943,-0.256855,0.919319,1.000000,1.000000
24.100000,2.801551,-0.136352,-0.018971,4.776119,0.308072,-1.640141,482.616455,2.921631,0.000000,41.659722,44.965738,6999.339702,-1.000000,0.816262,-0.515129,0.371843
24.200000,2.805043,-0.129990,0.003600,4.996837,0.974724,-1.768757,482.614594,2.919769,0.000000,41.659718,44.965742,6999.339702,-0.409113,0.748129,0.768962,1.000000
24.300000,2.817258,-0.126080,0.016078,5.179181,1.144602,-1.896181,482.662048,2.967224,0.000000,41.659714,44.965745,6999.317192,1.000000,0.509953,0.751053,0.041614
24.400000,2.837101,-0.123077,0.020803,5.305559,0.702961,-2.013687,482.693207,2.998383,0.000000,41.659710,44.965748,6999.317192,-0.949787,-0.280407,-0.107661,0.514771
24.500000,2.862267,-0.120237,0.018151,5.413729,0.413501,-2.156888,482.683075,2.988251,0.000000,41.659705,44.965752,6999.296920,0.036952,0.337733,-0.831645,1.000000
24.600000,2.893577,-0.117668,0.009034,5.504868,0.437781,-2.360377,482.668365,2.973541,0.000000,41.659701,44.965755,6999.296920,0.271233,1.000000,0.981668,0.150328
24.700000,2.933741,-0.114485,-0.006353,5.563956,0.352407,-2.600142,482.636871,2.942047,0.000000,41.659696,44.965759,6999.276358,-1.000000,-0.712992,0.951729,0.315182
24.800000,2.977407,-0.110675,-0.023199,5.606670,0.380933,-2.851689,482.610962,2.916138,0.000000,41.659691,44.965762,6999.276358,1.000000,-1.000000,-0.103737,-0.763841
24.900000,3.014783,-0.106374,-0.037192,5.622101,-0.046707,-3.011866,482.562653,2.867828,0.000000,41.659686,44.965766,6999.254221,1.000000,0.716748,-0.345536,-1.000000
25.000000,3.042163,-0.101249,-0.047011,5.648109,-0.775031,-3.115929,482.446930,2.752106,0.000000,41.659681,44.965769,6999.254221,0.179575,-0.437245,-0.882149,1.000000
25.100000,3.068571,-0.095279,-0.054795,5.669490,-1.173225,-3.313089,482.269318,2.574493,0.000000,41.659676,44.965773,6999.230136,-1.000000,0.037380,-0.513900,-0.060732
25.200000,3.101398,-0.088325,-0.058340,5.669183,-0.687498,-3.549693,482.103882,2.409058,0.000000,41.659671,44.965776,6999.230136,-0.733245,0.100302,1.000000,-1.000000
25.300000,3.136643,-0.080391,-0.049343,5.670220,-0.144138,-3.741159,482.004700,2.309875,0.000000,41.659665,44.965779,6999.203480,1.000000,-0.819698,-0.366809,-0.115836
25.400000,3.164613,-0.072906,-0.034908,5.656299,-0.600563,-3.882163,481.910828,2.216003,0.000000,41.659660,44.965783,6999.203480,0.739400,1.000000,-1.000000,0.210445
25.500000,3.192568,-0.065835,-0.024339,5.611719,-1.264001,-4.060083,481.771698,2.076874,0.000000,41.659655,44.965786,6999.176493,0.392732,-0.191843,1.000000,1.000000
25.600000,3.229784,-0.057929,-0.017733,5.516364,-1.711628,-4.287639,481.570709,1.875885,0.000000,41.659649,44.965790,6999.176493,-0.667382,0.673600,-0.039511,-0.020997
25.700000,3.271917,-0.048451,-0.009905,5.145593,-0.794569,-4.340609,481.384460,1.689636,0.000000,41.659643,44.965793,6999.150003,-0.977616,-0.160054,1.000000,0.340356
25.800000,3.316001,-0.031246,-0.010680,4.681884,0.370364,-4.328012,481.361298,1.666473,0.000000,41.659638,44.965796,6999.150003,0.632383,-0.976416,0.663474,-0.179062
25.900000,3.360575,-0.012727,-0.006564,4.552053,-0.020620,-4.521145,481.370270,1.675446,0.000000,41.659633,44.965800,6999.123721,1.000000,-0.284273,0.174354,0.070930
26.000000,3.400707,0.004622,-0.002903,4.344180,-0.754157,-4.655761,481.325867,1.631042,0.000000,41.659628,44.965803,6999.123721,0.473047,1.000000,1.000000,0.754407
26.100000,3.440011,0.021983,-0.014380,3.641528,-0.424904,-4.366384,481.259705,1.564880,0.000000,41.659623,44.965806,6999.099884,1.000000,0.470370,-0.933024,0.979677
26.200000,3.482247,0.034391,-0.021467,2.840458,0.235128,-3.863523,481.257080,1.562256,0.000000,41.659619,44.965808,6999.099884,-0.929781,-1.000000,0.132158,0.176136
26.300000,3.521334,0.037360,-0.027474,2.495234,0.549086,-3.691663,481.294617,1.599792,0.000000,41.659615,44.965811,6999.078037,0.230559,-0.280615,1.000000,0.854798
26.400000,3.556380,0.033960,-0.046450,2.375775,0.774994,-3.785435,481.354218,1.659393,0.000000,41.659612,44.965813,6999.078037,-1.000000,-1.000000,0.965448,-0.808120
26.500000,3.590474,0.028126,-0.063275,2.318435,1.301005,-3.902547,481.437622,1.742767,0.000000,41.659608,44.965816,6999.056978,-1.000000,-1.000000,1.000000,0.226592
26.600000,3.618140,0.018343,-0.077766,2.307783,2.153791,-4.039568,481.598175,1.903351,0.000000,41.659604,44.965818,6999.056978,-0.277486,-1.000000,-0.266549,0.292190
26.700000,3.645796,0.007054,-0.091836,2.237166,2.240843,-4.185744,481.782959,2.088135,0.000000,41.659600,44.965821,6999.037992,-0.033658,-1.000000,-0.675834,0.696937
26.800000,3.680834,-0.005175,-0.108652,2.111165,1.925575,-4.358778,481.953339,2.258545,0.000000,41.659596,44.965823,6999.037992,0.108568,-1.000000,-0.466307,1.000000
26.900000,3.722955,-0.016262,-0.127342,1.942290,1.364856,-4.541996,482.066132,2.371277,0.000000,41.659592,44.965826,6999.020166,1.000000,1.000000,0.463075,-0.294135
27.000000,3.765090,-0.025307,-0.144101,1.779827,0.833252,-4.705570,482.103577,2.408752,0.000000,41.659588,44.965828,6999.020166,-1.000000,-1.000000,-0.572451,-0.536419
27.100000,3.807901,-0.034402,-0.154671,1.659811,0.853738,-4.869763,482.102875,2.408051,0.000000,41.659584,44.965831,6999.001180,-0.535554,-0.289710,0.640030,0.601003
27.200000,3.852769,-0.043831,-0.152843,1.579253,1.525646,-5.093207,482.137054,2.442230,0.000000,41.659580,44.965834,6999.001180,-1.000000,-0.890944,0.835204,0.235800
27.300000,3.900676,-0.053721,-0.146178,1.483020,2.306032,-5.374149,482.234863,2.540009,0.000000,41.659575,44.965836,6998.980287,-0.968406,1.000000,0.363163,1.000000
27.400000,3.958671,-0.065215,-0.139158,1.322870,3.174033,-5.686178,482.424072,2.729248,0.000000,41.659570,44.965839,6998.980287,-1.000000,1.000000,1.000000,0.407342
27.500000,4.022167,-0.077440,-0.132568,1.102707,3.880586,-5.956323,482.692780,2.997955,0.000000,41.659565,44.965842,6998.957196,-0.856280,0.828685,-1.000000,-1.000000
27.600000,4.079160,-0.090088,-0.123355,0.874383,4.175286,-6.144959,483.000153,3.305328,0.000000,41.659559,44.965844,6998.957196,0.514588,0.063253,-0.654529,0.256786
27.700000,4.132649,-0.103769,-0.111858,0.631581,3.817834,-6.307019,483.323608,3.628754,0.000000,41.659554,44.965847,6998.931577,-1.000000,0.431716,-0.502775,-0.928714
27.800000,4.179439,-0.116840,-0.099931,0.440801,3.321974,-6.415302,483.610413,3.915619,0.000000,41.659548,44.965849,6998.931577,0.776389,1.000000,1.000000,-1.000000
27.900000,4.211577,-0.128772,-0.086146,0.341344,2.609157,-6.448738,483.832428,4.137604,0.000000,41.659542,44.965851,6998.905129,0.622601,-0.500093,0.467290,-1.000000
28.000000,4.232610,-0.140440,-0.069112,0.333590,1.673856,-6.462217,483.990631,4.295776,0.000000,41.659536,44.965853,6998.905129,-1.000000,-0.628235,-1.000000,1.000000
28.100000,4.251650,-0.150648,-0.054350,0.396257,1.201734,-6.543376,484.083710,4.388885,0.000000,41.659531,44.965855,6998.877395,-0.714953,-0.934510,-0.250304,-0.144538
28.200000,4.277809,-0.159419,-0.045663,0.442077,1.167678,-6.626088,484.160065,4.465240,0.000000,41.659525,44.965857,6998.877395,-0.011235,0.842849,0.355209,-0.428463
28.300000,4.307243,-0.167938,-0.038002,0.457307,0.764101,-6.630916,484.226990,4.532166,0.000000,41.659519,44.965859,6998.847755,1.000000,0.574042,0.086941,-0.427224
28.400000,4.333795,-0.174538,-0.030367,0.467788,-0.075505,-6.620536,484.232941,4.538116,0.000000,41.659513,44.965860,6998.847755,1.000000,-0.004246,0.422991,1.000000
28.500000,4.363835,-0.178169,-0.027315,0.446029,-0.866763,-6.634587,484.159149,4.464325,0.000000,41.659507,44.965861,6998.818197,-0.658662,0.256435,0.361378,-0.307579
28.600000,4.401422,-0.179099,-0.026928,0.394577,-1.331791,-6.650723,484.020782,4.325958,0.000000,41.659502,44.965863,6998.818197,0.792470,1.000000,-0.359257,0.647873
28.700000,4.445448,-0.176750,-0.028627,0.292540,-1.733824,-6.672434,483.843323,4.148499,0.000000,41.659496,44.965864,6998.788018,0.564916,0.269501,-0.676427,1.000000
28.800000,4.493580,-0.171403,-0.034057,0.131612,-2.404678,-6.709905,483.625763,3.930939,0.000000,41.659490,44.965865,6998.788018,1.000000,0.348848,-1.000000,0.516165
28.900000,4.550882,-0.162290,-0.045611,-0.106102,-3.025687,-6.753554,483.322571,3.627747,0.000000,41.659484,44.965866,6998.756264,0.092643,1.000000,1.000000,1.000000
29.000000,4.611352,-0.149430,-0.060129,-0.399425,-3.473287,-6.789793,482.962219,3.267395,0.000000,41.659478,44.965867,6998.756264,1.000000,-0.081115,0.863529,0.084732
29.100000,4.667072,-0.134061,-0.072042,-0.707962,-3.707226,-6.798786,482.584015,2.889191,0.000000,41.659472,44.965867,6998.725794,-0.213467,-0.506397,-0.124234,0.186279
29.200000,4.721766,-0.114503,-0.077171,-1.043039,-3.711595,-6.742596,482.165131,2.470306,0.000000,41.659466,44.965868,6998.725794,0.306331,1.000000,-0.414168,-0.342547
29.300000,4.769748,-0.092198,-0.065878,-1.361597,-2.984007,-6.625229,481.780914,2.086090,0.000000,41.659461,44.965869,6998.696527,-1.000000,0.865015,1.000000,1.000000
29.400000,4.813441,-0.069016,-0.038834,-1.635899,-1.933623,-6.483201,481.525482,1.830627,0.000000,41.659455,44.965869,6998.696527,0.195041,-0.198052,0.509468,0.474022
29.500000,4.864203,-0.036515,-0.010631,-1.880010,-1.045573,-5.984280,481.377838,1.683014,0.000000,41.659449,44.965869,6998.669664,1.000000,-0.920241,0.365032,0.346349
29.600000,4.919663,0.013293,-0.011331,-2.138720,-0.660927,-5.307077,481.286987,1.592163,0.000000,41.659444,44.965869,6998.669664,0.939526,-0.162603,-0.957943,-0.945901
29.700000,4.959653,0.063557,-0.027582,-2.092199,0.191414,-4.257798,481.235657,1.540833,0.000000,41.659439,44.965870,6998.646781,-0.383734,0.916914,-0.020665,-1.000000
29.800000,4.970356,0.108199,-0.066059,-1.595153,1.555292,-3.016512,481.288727,1.593903,0.000000,41.659435,44.965870,6998.646781,-1.000000,-1.000000,0.066659,1.000000
29.900000,4.959066,0.146593,-0.138447,-1.087908,2.683401,-2.388408,481.480072,1.785248,0.000000,41.659432,44.965870,6998.626675,-0.046055,0.118299,-1.000000,-0.497899
30.000000,4.954258,0.177955,-0.177385,-1.067189,2.816470,-2.455205,481.688660,1.993835,0.000000,41.659430,44.965871,6998.626675,-0.096397,1.000000,-0.370152,0.958775
30.100000,4.952029,0.205633,-0.204879,-1.129969,2.643777,-2.563029,481.886627,2.191803,0.000000,41.659427,44.965871,6998.607896,-0.268220,0.221615,-0.616076,-1.000000
30.200000,4.949881,0.227717,-0.223514,-1.226001,2.571052,-2.715520,482.056580,2.361755,0.000000,41.659424,44.965872,6998.607896,-0.371005,0.930733,-1.000000,0.941269
30.300000,4.948025,0.243660,-0.235062,-1.355838,2.346483,-2.882797,482.195068,2.500244,0.000000,41.659420,44.965872,6998.591231,0.462786,-0.879577,-0.050512,-1.000000
30.400000,4.945615,0.256082,-0.242548,-1.521143,2.065920,-3.062969,482.296753,2.601929,0.000000,41.659417,44.965872,6998.591231,-1.000000,-0.518486,-1.000000,-0.323133
30.500000,4.937320,0.261871,-0.244254,-1.643433,2.165672,-3.272691,482.380188,2.685333,0.000000,41.659413,44.965873,6998.574732,0.047747,0.821168,-0.351373,1.000000
30.600000,4.932872,0.262677,-0.240892,-1.788089,2.140613,-3.537423,482.459717,2.764893,0.000000,41.659410,44.965873,6998.574732,0.179030,0.212968,-1.000000,0.801333
30.700000,4.939674,0.261950,-0.234586,-2.030802,1.637332,-3.790719,482.505341,2.810516,0.000000,41.659406,44.965874,6998.555621,0.201198,0.949343,1.000000,0.750024
30.800000,4.958416,0.260206,-0.224924,-2.322326,1.043659,-3.994399,482.490784,2.795959,0.000000,41.659401,44.965875,6998.555621,1.000000,-1.000000,1.000000,1.000000
30.900000,4.986183,0.257651,-0.212573,-2.620997,0.529333,-4.117580,482.415497,2.720673,0.000000,41.659397,44.965875,6998.534438,-1.000000,1.000000,0.776305,-1.000000
31.000000,5.019747,0.250941,-0.190178,-2.877207,0.455985,-4.138132,482.304352,2.609528,0.000000,41.659393,44.965876,6998.534438,0.185198,0.535254,-1.000000,0.307197
31.100000,5.050104,0.236960,-0.156622,-3.107339,0.334197,-4.135036,482.206085,2.511261,0.000000,41.659388,44.965877,6998.511098,1.000000,-0.769750,0.226720,-1.000000
31.200000,5.073293,0.219380,-0.126169,-3.330858,-0.199809,-4.100614,482.087006,2.392181,0.000000,41.659384,44.965878,6998.511098,-0.527682,-1.000000,-0.262412,-0.096094
31.300000,5.091489,0.196804,-0.095293,-3.463789,-0.391751,-4.056288,481.933380,2.238556,0.000000,41.659379,44.965879,6998.485189,0.017808,-0.443209,-1.000000,-0.231515
31.400000,5.109771,0.169909,-0.063552,-3.561793,-0.434618,-4.005513,481.801453,2.106628,0.000000,41.659375,44.965880,6998.485189,0.185944,0.038163,1.000000,0.012309
31.500000,5.127803,0.142672,-0.037700,-3.632662,-0.394747,-3.946991,481.682159,1.987305,0.000000,41.659370,44.965881,6998.458616,-1.000000,1.000000,-0.448559,0.098032
31.600000,5.149975,0.111309,-0.012761,-3.666354,0.187490,-3.883426,481.611969,1.917145,0.000000,41.659366,44.965882,6998.458616,-0.340644,-0.561140,0.441459,0.465710
31.700000,5.179085,0.078692,0.005129,-3.764024,0.354196,-3.828132,481.611816,1.916992,0.000000,41.659361,44.965883,6998.430842,0.966455,-1.000000,-0.840545,0.553134
31.800000,5.211807,0.049614,0.011656,-3.907899,-0.197753,-3.705069,481.601746,1.906921,0.000000,41.659356,44.965884,6998.430842,0.623780,-0.226905,0.717527,0.558743
31.900000,5.250392,0.022159,0.007462,-4.051306,-1.064656,-3.521494,481.527222,1.832397,0.000000,41.659352,44.965885,6998.402238,1.000000,-1.000000,-1.000000,-0.953196
32.000000,5.284344,-0.001308,-0.004004,-4.124548,-1.759213,-3.343414,481.374054,1.679230,0.000000,41.659347,44.965886,6998.402238,-1.000000,-0.169302,0.442728,1.000000
32.100000,5.320415,0.004172,-0.022381,-3.261377,-0.151173,-2.609352,481.262482,1.567627,0.000000,41.659343,44.965887,6998.375748,0.920313,-1.000000,-0.029206,1.000000
32.200000,5.378872,0.050990,-0.023013,-2.960110,0.493799,-1.981615,481.276520,1.581696,0.000000,41.659339,44.965888,6998.375748,0.646402,-1.000000,0.407182,-0.096499
32.300000,5.435111,0.097105,-0.023068,-2.698202,0.694665,-1.424784,481.311432,1.616577,0.000000,41.659336,44.965889,6998.350502,-0.034721,-0.368181,1.000000,-0.391822
32.400000,5.475631,0.139294,-0.024687,-2.520740,0.761080,-1.064659,481.346649,1.651825,0.000000,41.659334,44.965890,6998.350502,-1.000000,-0.919378,0.538352,-1.000000
32.500000,5.499253,0.180056,-0.028785,-2.496283,0.790024,-0.882232,481.385773,1.690918,0.000000,41.659331,44.965891,6998.326375,0.931191,-0.397079,-1.000000,-0.127266
32.600000,5.506492,0.215269,-0.036378,-2.513613,0.623318,-0.797120,481.404938,1.710114,0.000000,41.659329,44.965892,6998.326375,-0.169019,0.077822,-0.477294,0.963308
32.700000,5.509736,0.246178,-0.048464,-2.316835,0.719815,-0.733359,481.405518,1.710663,0.000000,41.659327,44.965893,6998.305108,-0.137824,0.096040,1.000000,0.092103
32.800000,5.519856,0.277872,-0.054727,-2.248682,1.111260,-0.700002,481.432587,1.737762,0.000000,41.659325,44.965894,6998.305108,-1.000000,0.601114,0.831454,-1.000000
32.900000,5.525689,0.296357,-0.053686,-1.943867,2.004454,-0.587414,481.519287,1.824493,0.000000,41.659323,44.965895,6998.285790,-0.564210,0.582213,-0.910609,0.507730
33.000000,5.527324,0.305648,-0.046065,-2.089680,2.428038,-0.649734,481.668762,1.973938,0.000000,41.659320,44.965896,6998.285790,0.279158,0.633501,-0.384461,0.696573
33.100000,5.532064,0.311531,-0.038206,-2.331767,2.117528,-0.713608,481.822449,2.127625,0.000000,41.659318,44.965897,6998.267384,-0.110179,-0.161527,-0.210768,0.139703
33.200000,5.541820,0.314989,-0.031735,-2.589405,1.797150,-0.733842,481.927094,2.232269,0.000000,41.659315,44.965898,6998.267384,-0.772672,1.000000,-1.000000,-0.429019
33.300000,5.552056,0.315360,-0.025980,-2.828680,1.600617,-0.730325,482.004150,2.309357,0.000000,41.659313,44.965899,6998.250222,1.000000,0.590992,0.806811,0.739237
33.400000,5.566839,0.313355,-0.020334,-3.111941,1.044083,-0.713503,482.038452,2.343597,0.000000,41.659310,44.965901,6998.250222,1.000000,-0.468983,-1.000000,0.967073
33.500000,5.590050,0.307569,-0.017223,-3.371288,0.364923,-0.673038,482.002838,2.308014,0.000000,41.659307,44.965902,6998.232106,0.097284,0.105871,-0.938105,1.000000
33.600000,5.619863,0.295386,-0.018649,-3.582990,-0.124846,-0.610632,481.910278,2.215485,0.000000,41.659304,44.965904,6998.232106,-0.384953,-0.134157,-1.000000,1.000000
33.700000,5.662534,0.277268,-0.020252,-3.707894,0.035693,-0.527367,481.790771,2.095917,0.000000,41.659301,44.965905,6998.210715,-1.000000,1.000000,-0.012241,1.000000
33.800000,5.716267,0.251900,-0.018008,-3.753697,0.991364,-0.396845,481.737671,2.042847,0.000000,41.659298,44.965906,6998.210715,-0.744707,0.589560,-0.465538,-0.320269
33.900000,5.766426,0.223370,-0.014632,-3.877727,1.655867,-0.189877,481.780182,2.085327,0.000000,41.659295,44.965908,6998.187708,-0.628786,0.691309,0.499935,0.934487
34.000000,5.814096,0.192177,-0.011987,-4.043087,1.753734,-0.007150,481.873230,2.178406,0.000000,41.659291,44.965909,6998.187708,0.564993,0.267893,0.131867,0.637817
34.100000,5.867741,0.162194,-0.012510,-4.193804,1.402073,0.196351,481.957428,2.262604,0.000000,41.659288,44.965911,6998.163166,-1.000000,-1.000000,-1.000000,-0.733443
34.200000,5.918052,0.135250,-0.014514,-4.272251,1.232893,0.447103,482.018982,2.324158,0.000000,41.659284,44.965913,6998.163166,-0.129072,-0.761115,-0.836959,-0.017766
34.300000,5.966076,0.107444,-0.015275,-4.315984,1.019554,0.670713,482.086731,2.391907,0.000000,41.659280,44.965914,6998.136511,0.043142,-1.000000,-0.589671,0.934510
34.400000,6.018060,0.081517,-0.016669,-4.343275,0.409111,0.865316,482.121216,2.426361,0.000000,41.659276,44.965916,6998.136511,0.861683,-0.646377,-0.786537,1.000000
34.500000,6.075765,0.059648,-0.020518,-4.316474,-0.177026,1.071076,482.101837,2.406982,0.000000,41.659273,44.965918,6998.109275,-0.706385,-0.689386,0.662658,0.713830
34.600000,6.143946,0.038850,-0.026546,-4.211313,-0.450146,1.313262,482.045807,2.350983,0.000000,41.659269,44.965919,6998.109275,0.192862,0.631557,0.769747,0.096422
34.700000,6.213503,0.020119,-0.031450,-4.073806,-0.730663,1.599903,481.982788,2.287964,0.000000,41.659265,44.965921,6998.080878,0.287255,1.000000,0.076144,-1.000000
34.800000,6.269997,0.004736,-0.031195,-3.932779,-1.066694,1.866382,481.894196,2.199371,0.000000,41.659261,44.965922,6998.080878,-0.304963,-0.040912,1.000000,1.000000
34.900000,0.042905,-0.009624,-0.024322,-3.744563,-0.933996,2.067296,481.793823,2.099030,0.000000,41.659258,44.965924,6998.050699,-0.221629,-0.903348,0.271711,0.055850
35.000000,0.101436,-0.022207,-0.014154,-3.539041,-0.899054,2.252281,481.717651,2.022797,0.000000,41.659254,44.965926,6998.050699,0.975692,0.446618,1.000000,1.000000
35.100000,0.157476,-0.032003,-0.006423,-3.345407,-1.283411,2.434505,481.623657,1.928833,0.000000,41.659251,44.965927,6998.021763,-0.476085,-1.000000,0.515634,0.484268
35.200000,0.217969,-0.039971,-0.001549,-3.112458,-1.414922,2.612107,481.493134,1.798279,0.000000,41.659247,44.965929,6998.021763,-0.270348,-1.000000,-0.922217,0.920908
35.300000,0.279002,-0.042675,0.006461,-2.718875,-0.613004,2.571035,481.393097,1.698273,0.000000,41.659244,44.965930,6997.994900,-0.267265,-0.700298,-1.000000,1.000000
35.400000,0.331085,-0.023145,0.032196,-2.300763,0.123882,2.407385,481.378845,1.684021,0.000000,41.659241,44.965932,6997.994900,-0.126206,-0.365498,0.893368,0.697855
35.500000,0.381237,0.006436,0.055845,-2.098552,0.003620,2.494401,481.383118,1.688293,0.000000,41.659238,44.965933,6997.970069,1.000000,-0.172581,-0.900354,-0.931944
35.600000,0.422918,0.036491,0.069361,-1.884954,-0.310829,2.507724,481.345673,1.650848,0.000000,41.659235,44.965935,6997.970069,0.994507,-1.000000,0.612491,1.000000
35.700000,0.451410,0.067558,0.063934,-1.475746,-0.083752,2.028508,481.295074,1.600250,0.000000,41.659233,44.965936,6997.948512,-0.196507,-0.971279,-1.000000,0.653045
35.800000,0.477980,0.101126,0.038481,-1.049072,0.437089,1.396176,481.293182,1.598328,0.000000,41.659231,44.965936,6997.948512,-0.065591,0.474167,0.274578,0.290159
35.900000,0.505459,0.134029,0.027351,-0.852425,0.523055,1.084191,481.342560,1.647736,0.000000,41.659230,44.965937,6997.929070,1.000000,1.000000,-0.176334,0.316950
