t,yaw,pitch,roll,speed.x,speed.y,speed.z,altBar,altRad,egt,myloclat,myloclon,weightlb,collective,bank,pitch,rudder
0.100000,5.374699,0.031624,0.000931,-0.097073,0.517387,0.032737,481.239288,1.544464,0.000000,41.659724,44.965707,7004.964901,0.849443,-0.486470,0.664167,-1.000000
0.200000,5.368795,0.037308,0.005340,-0.096184,0.064835,0.084668,481.264496,1.569672,0.000000,41.659724,44.965707,7004.964901,1.000000,-1.000000,0.833260,-0.811914
0.300000,5.358664,0.042114,0.010613,-0.105028,-0.015065,0.070982,481.264709,1.569885,0.000000,41.659724,44.965707,7000.556034,0.542922,0.047306,-1.000000,-0.502922
0.400000,5.348674,0.045158,0.012358,-0.084511,0.002389,-0.034928,481.263458,1.568634,0.000000,41.659724,44.965707,7000.556034,1.000000,-0.731689,1.000000,-0.126644
0.500000,5.344617,0.045390,0.009170,0.017677,0.105727,-0.092275,481.267273,1.572449,0.000000,41.659724,44.965707,7000.556034,-1.000000,0.137740,1.000000,0.575196
0.600000,5.347594,0.044800,0.001305,0.030575,0.263948,-0.141475,481.286041,1.591217,0.000000,41.659724,44.965707,7000.556034,-0.647604,1.000000,1.000000,0.655685
0.700000,5.357110,0.042139,-0.007548,0.073430,0.472985,-0.195680,481.326263,1.631439,0.000000,41.659724,44.965707,7000.541649,-0.053856,0.422203,-0.006429,0.502752
0.800000,5.373292,0.037559,-0.016825,0.113321,0.595477,-0.256101,481.380310,1.685486,0.000000,41.659724,44.965707,7000.541649,-0.802743,1.000000,0.252667,1.000000
0.900000,5.394806,0.031814,-0.025735,0.130649,0.434693,-0.299609,481.434753,1.739929,0.000000,41.659724,44.965706,7000.527430,1.000000,-1.000000,-0.115700,-0.184561
1.000000,5.421293,0.025361,-0.034626,0.128512,-0.048993,-0.325005,481.454010,1.759186,0.000000,41.659724,44.965706,7000.527430,-0.483539,1.000000,-1.000000,0.407687
1.100000,5.450244,0.018824,-0.040973,0.148270,-0.281221,-0.369745,481.430084,1.735260,0.000000,41.659724,44.965705,7000.512257,0.062105,-1.000000,-0.083473,0.451195
1.200000,5.482015,0.012205,-0.042669,0.176844,-0.388426,-0.404859,481.400909,1.706085,0.000000,41.659724,44.965705,7000.512257,0.204558,-0.017177,0.021417,-0.852860
1.300000,5.515339,0.004974,-0.037001,0.145266,-0.413439,-0.398755,481.351074,1.656250,0.000000,41.659724,44.965704,7000.494266,-0.434556,0.170591,0.994821,1.000000
1.400000,5.550624,-0.001105,-0.010420,0.047394,0.051024,-0.305802,481.331573,1.636749,0.000000,41.659723,44.965704,7000.494266,-1.000000,-0.590271,0.071578,0.527241
1.500000,5.587729,-0.005377,0.009649,0.163935,0.482493,-0.324730,481.363251,1.668427,0.000000,41.659723,44.965704,7000.474036,0.136908,0.759528,-0.648398,0.131469
1.600000,5.629345,-0.010746,0.025456,0.236098,0.444156,-0.335633,481.416229,1.721405,0.000000,41.659723,44.965703,7000.474036,0.754712,1.000000,0.135798,0.762816
1.700000,5.676688,-0.017079,0.035685,0.270034,0.012659,-0.343066,481.439240,1.744415,0.000000,41.659723,44.965703,7000.451484,-0.612276,-0.216652,0.463478,0.962069
1.800000,5.728551,-0.022684,0.038635,0.329163,-0.094075,-0.390785,481.429657,1.734833,0.000000,41.659724,44.965702,7000.451484,-0.021942,0.099335,-0.102786,1.000000
1.900000,5.787128,-0.025016,0.033068,0.422547,0.288763,-0.440739,481.439911,1.745087,0.000000,41.659724,44.965702,7000.426197,-1.000000,0.566961,0.442261,-0.823749
2.000000,5.846311,-0.027347,0.026735,0.531425,0.852736,-0.444917,481.492188,1.797363,0.000000,41.659724,44.965701,7000.426197,-1.000000,0.058169,-0.438326,1.000000
2.100000,5.901424,-0.031453,0.021682,0.654347,1.355431,-0.469223,481.606537,1.911713,0.000000,41.659724,44.965700,7000.400038,0.424166,1.000000,-1.000000,-0.316556
2.200000,5.961919,-0.036883,0.013441,0.719999,1.102458,-0.506069,481.735046,2.040222,0.000000,41.659725,44.965700,7000.400038,-0.300209,-1.000000,0.034687,0.763100
2.300000,6.028355,-0.041727,-0.001111,0.766377,0.664002,-0.558350,481.818726,2.123901,0.000000,41.659726,44.965699,7000.373258,-1.000000,-0.747327,-0.504382,-0.041821
2.400000,6.091147,-0.046022,-0.016978,0.859694,0.815805,-0.615113,481.882904,2.188080,0.000000,41.659726,44.965698,7000.373258,-0.202602,-0.998063,-0.921837,0.523430
2.500000,6.154900,-0.051484,-0.033717,0.956288,0.852157,-0.654166,481.965820,2.270966,0.000000,41.659727,44.965697,7000.346478,-0.328350,-0.591047,-1.000000,-1.000000
2.600000,6.208886,-0.057407,-0.047567,1.028871,0.580655,-0.677701,482.034332,2.339508,0.000000,41.659728,44.965696,7000.346478,0.564835,-0.163756,-0.176646,0.719564
2.700000,6.253657,-0.062749,-0.057682,1.101353,0.357493,-0.723475,482.065460,2.370605,0.000000,41.659729,44.965696,7000.320362,-1.000000,1.000000,0.035021,-0.766983
2.800000,0.013773,-0.068691,-0.062529,1.209614,0.509600,-0.764398,482.091705,2.396851,0.000000,41.659730,44.965695,7000.320362,-1.000000,-0.037197,0.292196,-0.952111
2.900000,0.046108,-0.077058,-0.056998,1.392808,1.467555,-0.834211,482.174652,2.479828,0.000000,41.659732,44.965694,7000.294287,-0.939227,-0.943423,0.212321,1.000000
3.000000,0.073902,-0.087856,-0.048681,1.547180,2.149158,-0.949201,482.339172,2.644348,0.000000,41.659733,44.965693,7000.294287,-0.172308,-1.000000,-0.648904,-1.000000
3.100000,0.101314,-0.100578,-0.038652,1.654893,2.039984,-1.001158,482.538147,2.843323,0.000000,41.659735,44.965693,7000.268253,0.669071,0.543938,-1.000000,-0.343721
3.200000,0.118343,-0.113175,-0.025534,1.758777,1.503754,-1.002007,482.694153,2.999329,0.000000,41.659737,44.965692,7000.268253,-0.766354,1.000000,-1.000000,1.000000
3.300000,0.134166,-0.124658,-0.014133,1.893238,1.179623,-1.058283,482.797760,3.102936,0.000000,41.659739,44.965691,7000.244292,0.472781,0.139745,0.409319,1.000000
3.400000,0.161475,-0.136744,-0.006725,2.039950,0.883635,-1.155027,482.874817,3.179993,0.000000,41.659741,44.965691,7000.244292,-0.649432,0.301653,0.170205,0.090309
3.500000,0.198473,-0.148190,-0.004024,2.173318,0.535358,-1.254722,482.916748,3.221924,0.000000,41.659743,44.965690,7000.220662,0.885969,-1.000000,0.448990,-1.000000
3.600000,0.237381,-0.157576,-0.004534,2.285866,0.022891,-1.300887,482.911682,3.216858,0.000000,41.659745,44.965690,7000.220662,1.000000,-0.864185,-1.000000,1.000000
3.700000,0.279904,-0.165443,-0.007739,2.407024,-0.527359,-1.393861,482.842133,3.147308,0.000000,41.659748,44.965689,7000.194712,-0.841144,-0.935807,-1.000000,0.708344
3.800000,0.328362,-0.170724,-0.016033,2.528228,-0.567946,-1.532967,482.735626,3.040802,0.000000,41.659750,44.965689,7000.194712,-1.000000,0.417416,0.019347,-0.372817
3.900000,0.374616,-0.173238,-0.022765,2.681048,0.318354,-1.632883,482.670532,2.975708,0.000000,41.659753,44.965689,7000.167932,-0.935268,0.499389,-0.623113,-0.735675
4.000000,0.411622,-0.176741,-0.017932,2.955379,1.566548,-1.707070,482.716644,3.021820,0.000000,41.659756,44.965689,7000.167932,-1.000000,-0.840037,0.374862,0.287470
4.100000,0.440105,-0.183708,-0.007957,3.196884,2.076386,-1.787243,482.851044,3.156219,0.000000,41.659759,44.965689,7000.141027,0.176031,0.714201,1.000000,-0.867667
4.200000,0.460090,-0.191201,0.002591,3.382211,1.921964,-1.817306,482.984558,3.289734,0.000000,41.659763,44.965690,7000.141027,0.618777,-1.000000,-0.713144,0.109376
4.300000,0.475416,-0.198663,0.013284,3.568586,1.345219,-1.828295,483.080658,3.385834,0.000000,41.659766,44.965691,7000.115035,-0.287808,0.370526,0.702249,-0.093900
4.400000,0.491912,-0.205088,0.019846,3.768397,0.956224,-1.865190,483.118134,3.423279,0.000000,41.659770,44.965692,7000.115035,-0.574304,-0.444226,-0.704012,0.436941
4.500000,0.510839,-0.210537,0.023254,3.995529,1.312945,-1.895990,483.145996,3.451172,0.000000,41.659774,44.965693,7000.091654,-1.000000,1.000000,1.000000,-1.000000
4.600000,0.527988,-0.216981,0.030892,4.271832,1.748224,-1.908109,483.222076,3.527252,0.000000,41.659778,44.965694,7000.091654,0.940398,-0.272799,0.751376,0.519952
4.700000,0.544152,-0.223671,0.039170,4.497610,1.451120,-1.924344,483.292694,3.597870,0.000000,41.659782,44.965696,7000.067072,-1.000000,-0.147825,0.547992,-0.456525
4.800000,0.561709,-0.229081,0.044834,4.710388,1.294265,-1.942046,483.324341,3.629547,0.000000,41.659787,44.965698,7000.067072,-1.000000,0.117796,-0.111392,0.260258
4.900000,0.582790,-0.234528,0.050025,4.992650,2.003937,-2.024166,483.375336,3.680511,0.000000,41.659791,44.965700,7000.040126,-1.000000,0.791627,0.685162,0.466472
5.000000,0.611768,-0.241994,0.053351,5.304687,3.102033,-2.178317,483.516205,3.821411,0.000000,41.659796,44.965703,7000.040126,-1.000000,-0.312842,-0.630100,-0.397330
5.100000,0.645162,-0.250996,0.054630,5.547719,3.619404,-2.328434,483.721649,4.026825,0.000000,41.659801,44.965706,7000.012724,0.207863,-0.486587,0.426023,-1.000000
5.200000,0.674823,-0.260312,0.058351,5.767785,3.431319,-2.376679,483.940796,4.245972,0.000000,41.659807,44.965710,7000.012724,1.000000,1.000000,-0.816216,-0.078689
5.300000,0.697412,-0.268167,0.063816,5.990273,2.898944,-2.417130,484.108307,4.413483,0.000000,41.659812,44.965714,6999.984327,-1.000000,-1.000000,-0.394926,1.000000
5.400000,0.723777,-0.274884,0.064111,6.214474,2.597926,-2.525943,484.215668,4.520844,0.000000,41.659817,44.965718,6999.984327,0.388188,0.271228,-0.410527,-0.307531
5.500000,0.758205,-0.281807,0.059306,6.450937,2.374905,-2.652165,484.298920,4.604095,0.000000,41.659823,44.965722,6999.954811,-0.631778,-0.490684,0.109768,-0.345362
5.600000,0.789737,-0.287640,0.054376,6.698440,2.213301,-2.750333,484.346527,4.651703,0.000000,41.659829,44.965727,6999.954811,-0.008690,0.240567,0.311378,0.299150
5.700000,0.821593,-0.292427,0.046753,6.916540,1.945065,-2.905359,484.367920,4.673096,0.000000,41.659834,44.965732,6999.925212,0.958629,-1.000000,-0.601200,0.789672
5.800000,0.861615,-0.295904,0.031551,7.098780,1.225531,-3.102540,484.328247,4.633423,0.000000,41.659840,44.965737,6999.925212,0.487918,0.010316,0.271319,-0.202077
5.900000,0.903288,-0.296909,0.011017,7.266155,0.479535,-3.314499,484.201294,4.506470,0.000000,41.659846,44.965742,6999.894950,0.069369,0.390229,0.400176,0.014927
6.000000,0.939744,-0.295329,-0.009498,7.422697,0.160273,-3.527452,484.020569,4.325714,0.000000,41.659851,44.965748,6999.894950,-0.551568,0.227633,-0.716225,1.000000
6.100000,0.978018,-0.290163,-0.030229,7.569469,0.535870,-3.799179,483.822510,4.127686,0.000000,41.659857,44.965754,6999.863776,-0.312402,-0.482810,1.000000,-1.000000
6.200000,1.011817,-0.281204,-0.043592,7.731343,1.134317,-4.045559,483.667084,3.972229,0.000000,41.659863,44.965760,6999.863776,-1.000000,1.000000,0.191178,1.000000
6.300000,1.040352,-0.270489,-0.048735,7.905270,1.458193,-4.297443,483.569733,3.874908,0.000000,41.659869,44.965766,6999.835379,0.315208,-0.715717,1.000000,0.256860
6.400000,1.072300,-0.257765,-0.051738,8.067663,1.478916,-4.604959,483.481171,3.786346,0.000000,41.659876,44.965773,6999.835379,-0.825845,0.239879,1.000000,1.000000
6.500000,1.107333,-0.244093,-0.053100,8.210455,1.794877,-4.960581,483.404114,3.709290,0.000000,41.659882,44.965780,6999.810175,-1.000000,1.000000,-1.000000,1.000000
6.600000,1.145483,-0.231658,-0.050940,8.371364,2.703308,-5.371227,483.401093,3.706299,0.000000,41.659889,44.965788,6999.810175,-1.000000,-1.000000,-0.966919,0.626705
6.700000,1.189542,-0.221588,-0.048186,8.499586,3.089132,-5.846069,483.478638,3.783783,0.000000,41.659896,44.965797,6999.787084,0.170988,0.152746,-1.000000,1.000000
6.800000,1.236475,-0.213386,-0.049551,8.514710,2.760512,-6.315968,483.557831,3.863007,0.000000,41.659903,44.965805,6999.787084,1.000000,0.992705,-0.337288,0.728311
6.900000,1.283238,-0.205691,-0.056162,8.444104,2.093997,-6.748625,483.582764,3.887939,0.000000,41.659910,44.965814,6999.766523,-1.000000,0.156812,-1.000000,0.596767
7.000000,1.334245,-0.196884,-0.067440,8.338304,1.754591,-7.210746,483.554260,3.859406,0.000000,41.659918,44.965823,6999.766523,-0.352829,-1.000000,-1.000000,0.797904
7.100000,1.387002,-0.187853,-0.079820,8.222844,2.091964,-7.698217,483.527130,3.832306,0.000000,41.659925,44.965832,6999.746002,-1.000000,-0.596190,-1.000000,-0.563595
7.200000,1.433600,-0.180368,-0.089519,8.129405,2.538552,-8.099833,483.537201,3.842377,0.000000,41.659932,44.965842,6999.746002,-0.513583,-0.129716,0.043353,-1.000000
7.300000,1.472045,-0.174938,-0.094415,8.077088,2.650706,-8.427613,483.581573,3.886749,0.000000,41.659940,44.965852,6999.722788,-0.031175,-0.145234,1.000000,1.000000
7.400000,1.508027,-0.170396,-0.098574,7.987190,2.281460,-8.767065,483.608002,3.913177,0.000000,41.659947,44.965863,6999.722788,0.257201,1.000000,0.690291,-1.000000
7.500000,1.542473,-0.165804,-0.103336,7.864232,1.744986,-9.066518,483.584137,3.889313,0.000000,41.659954,44.965873,6999.698288,-0.151601,1.000000,-0.148169,-1.000000
7.600000,1.569887,-0.161392,-0.102858,7.811802,1.404611,-9.243517,483.510620,3.815796,0.000000,41.659962,44.965884,6999.698288,-1.000000,0.613648,-1.000000,-0.285787
7.700000,1.586364,-0.158619,-0.091394,7.910055,1.913771,-9.408068,483.450409,3.755554,0.000000,41.659969,44.965895,6999.672171,-0.795797,0.040680,0.713223,1.000000
7.800000,1.605774,-0.158392,-0.077483,8.010170,2.650508,-9.682025,483.471466,3.776611,0.000000,41.659976,44.965906,6999.672171,-1.000000,0.100260,-0.041944,0.116901
7.900000,1.634021,-0.161375,-0.066067,8.008527,3.024821,-10.004476,483.561615,3.866791,0.000000,41.659984,44.965918,6999.643857,-0.293387,1.000000,0.069966,0.388830
8.000000,1.665779,-0.166788,-0.057338,7.940509,3.214123,-10.305459,483.679291,3.984497,0.000000,41.659991,44.965930,6999.643857,-1.000000,1.000000,0.680981,-1.000000
8.100000,1.691134,-0.173849,-0.047081,7.888266,3.107374,-10.474368,483.802643,4.107788,0.000000,41.659998,44.965943,6999.615295,0.702772,-0.189091,0.481030,-0.368301
8.200000,1.706633,-0.182263,-0.032835,7.922269,2.538338,-10.555159,483.904083,4.209229,0.000000,41.660005,44.965955,6999.615295,-0.036370,-0.761506,-1.000000,1.000000
8.300000,1.722297,-0.190413,-0.022244,7.968177,1.992439,-10.695411,483.946442,4.251648,0.000000,41.660012,44.965968,6999.585820,-1.000000,-0.462860,-1.000000,1.000000
8.400000,1.747558,-0.198224,-0.019995,7.949040,2.137834,-10.942614,483.969391,4.274536,0.000000,41.660020,44.965981,6999.585820,-0.096841,-1.000000,0.365628,1.000000
8.500000,1.787241,-0.206917,-0.025850,7.783075,2.386050,-11.287700,484.009766,4.314941,0.000000,41.660027,44.965995,6999.554646,-0.815969,0.980553,0.988046,1.000000
8.600000,1.837383,-0.215228,-0.039072,7.505791,2.871441,-11.681970,484.064850,4.370026,0.000000,41.660033,44.966009,6999.554646,-1.000000,-1.000000,1.000000,-0.160029
8.700000,1.885914,-0.223404,-0.052940,7.216213,3.376758,-12.003394,484.160217,4.465393,0.000000,41.660040,44.966023,6999.523762,0.928592,0.192191,0.558460,-0.948256
8.800000,1.927207,-0.231508,-0.064785,6.968637,3.083974,-12.204341,484.250916,4.556091,0.000000,41.660047,44.966038,6999.523762,-0.534003,0.550111,0.041190,0.037460
8.900000,1.956029,-0.238584,-0.072100,6.870624,2.643750,-12.341665,484.283997,4.589172,0.000000,41.660053,44.966052,6999.492505,-0.131867,-1.000000,1.000000,1.000000
9.000000,1.980653,-0.244365,-0.077610,6.833247,2.539751,-12.532647,484.282135,4.587311,0.000000,41.660060,44.966067,6999.492505,-0.003447,0.352373,0.234302,0.794174
9.100000,2.012550,-0.248994,-0.086595,6.705917,2.146241,-12.774074,484.244751,4.549927,0.000000,41.660066,44.966082,6999.461206,0.778058,1.000000,-0.521449,-0.168426
9.200000,2.043174,-0.252177,-0.095825,6.580252,1.521709,-12.962417,484.142670,4.447845,0.000000,41.660072,44.966097,6999.461206,0.562024,0.471069,1.000000,-0.342611
9.300000,2.060158,-0.254746,-0.099421,6.609649,1.004079,-13.008675,483.978973,4.284149,0.000000,41.660079,44.966112,6999.432354,-0.588333,-1.000000,-0.022557,-1.000000
9.400000,2.056342,-0.257779,-0.090326,6.920017,0.685965,-12.912601,483.765503,4.070679,0.000000,41.660085,44.966128,6999.432354,0.782838,-1.000000,0.657194,-0.368000
9.500000,2.029919,-0.260470,-0.067699,7.501099,0.466125,-12.657134,483.530640,3.835785,0.000000,41.660090,44.966143,6999.405657,-1.000000,-0.839642,1.000000,-0.981983
9.600000,1.987028,-0.261005,-0.035988,8.252599,0.542469,-12.265595,483.316650,3.621796,0.000000,41.660096,44.966159,6999.405657,-0.150931,-1.000000,0.566012,-0.223192
9.700000,1.927897,-0.257699,0.005575,9.202252,0.900736,-11.714668,483.146118,3.451294,0.000000,41.660101,44.966175,6999.381032,0.710024,-1.000000,-0.791450,1.000000
9.800000,1.866756,-0.250714,0.044229,10.141893,0.491128,-11.114718,482.998413,3.303589,0.000000,41.660107,44.966191,6999.381032,-0.534730,-0.411871,0.521291,0.042767
9.900000,1.816386,-0.241660,0.071840,10.909492,0.337093,-10.557536,482.844360,3.149536,0.000000,41.660112,44.966207,6999.359849,0.040924,1.000000,-0.322758,1.000000
10.000000,1.770764,-0.229825,0.093508,11.615051,0.200986,-9.991831,482.692688,2.997864,0.000000,41.660117,44.966224,6999.359849,1.000000,0.859023,-1.000000,-0.420854
10.100000,1.719168,-0.215244,0.115101,12.332118,-0.186823,-9.128337,482.519806,2.824982,0.000000,41.660121,44.966241,6999.340779,-1.000000,-0.352776,-1.000000,1.000000
10.200000,1.665326,-0.198865,0.135264,13.002756,-0.180300,-8.343909,482.348694,2.653870,0.000000,41.660126,44.966258,6999.340779,-0.274906,1.000000,0.142616,1.000000
10.300000,1.622131,-0.181341,0.143992,13.568385,0.005434,-7.702375,482.205383,2.510559,0.000000,41.660130,44.966276,6999.321544,0.355253,0.944681,-0.224281,1.000000
10.400000,1.594931,-0.165372,0.142169,13.963531,-0.383275,-7.211611,482.054749,2.359924,0.000000,41.660135,44.966293,6999.321544,1.000000,-1.000000,-0.123170,0.986197
10.500000,1.582052,-0.151924,0.133256,14.211322,-0.764203,-6.925928,481.874908,2.180084,0.000000,41.660139,44.966311,6999.301439,-1.000000,0.988190,-0.314021,0.748688
10.600000,1.580317,-0.138691,0.109421,14.059284,-0.251057,-6.733248,481.682587,1.987793,0.000000,41.660143,44.966329,6999.301439,0.359597,-1.000000,-0.879675,-0.505915
10.700000,1.599146,-0.127698,0.033086,13.448774,1.019863,-6.665629,481.593475,1.898651,0.000000,41.660147,44.966346,6999.279302,-1.000000,-0.835936,0.038749,0.046256
10.800000,1.623210,-0.118369,-0.014541,13.253090,1.764638,-6.801641,481.566223,1.871399,0.000000,41.660151,44.966363,6999.279302,-1.000000,1.000000,-0.863243,0.541566
10.900000,1.652858,-0.109856,-0.047112,13.088024,2.719143,-7.052952,481.631226,1.936401,0.000000,41.660154,44.966380,6999.254553,-0.475610,0.567275,0.072591,0.120716
11.000000,1.685431,-0.105023,-0.065659,13.080470,3.070663,-7.461516,481.745026,2.050201,0.000000,41.660158,44.966398,6999.254553,-0.498507,-0.259975,-0.249189,-0.044179
11.100000,1.716994,-0.102872,-0.074093,12.995263,2.883842,-7.888105,481.852386,2.157562,0.000000,41.660162,44.966415,6999.229473,0.789778,0.488298,0.640609,1.000000
11.200000,1.753424,-0.101702,-0.077525,12.820135,2.210314,-8.376243,481.914551,2.219727,0.000000,41.660165,44.966433,6999.229473,0.323604,-0.441817,0.789015,-0.629387
11.300000,1.788125,-0.101437,-0.074073,12.638888,1.548727,-8.803390,481.902588,2.207794,0.000000,41.660169,44.966451,6999.204309,-1.000000,0.318603,0.780836,-0.793284
11.400000,1.810031,-0.103054,-0.059228,12.590405,1.564030,-9.033125,481.863922,2.169098,0.000000,41.660172,44.966468,6999.204309,-0.865101,-1.000000,-0.540582,-0.536805
11.500000,1.820592,-0.107775,-0.032762,12.674586,1.844033,-9.161415,481.863342,2.168518,0.000000,41.660175,44.966487,6999.177778,-0.194837,-0.921212,1.000000,-0.254163
11.600000,1.822578,-0.115157,-0.004927,12.837610,1.993270,-9.196462,481.895386,2.200531,0.000000,41.660179,44.966505,6999.177778,-1.000000,0.493285,1.000000,0.119339
11.700000,1.824012,-0.124683,0.018354,13.036544,2.624132,-9.269672,481.966248,2.271423,0.000000,41.660182,44.966523,6999.150667,-1.000000,1.000000,1.000000,1.000000
11.800000,1.833189,-0.138512,0.038689,13.171007,3.407011,-9.463142,482.132446,2.437622,0.000000,41.660185,44.966542,6999.150667,1.000000,-0.750660,0.059943,1.000000
11.900000,1.852740,-0.154254,0.052227,13.132416,3.231142,-9.723630,482.321503,2.626678,0.000000,41.660188,44.966562,6999.123845,-0.763615,1.000000,-0.201091,-0.276607
12.000000,1.874439,-0.168861,0.060679,13.064532,2.893359,-9.942646,482.457489,2.762665,0.000000,41.660190,44.966581,6999.123845,-0.938650,0.593149,1.000000,-1.000000
12.100000,1.891726,-0.184135,0.071149,13.111681,3.285385,-10.040404,482.590881,2.896057,0.000000,41.660193,44.966600,6999.096982,-0.750009,-0.510431,-0.530800,-1.000000
12.200000,1.893404,-0.199278,0.089685,13.322081,3.771874,-9.937741,482.775116,3.080292,0.000000,41.660195,44.966620,6999.096982,1.000000,0.248189,1.000000,-1.000000
12.300000,1.881341,-0.211977,0.111396,13.608792,3.447290,-9.654888,482.945313,3.250488,0.000000,41.660197,44.966640,6999.070576,-0.253485,-1.000000,0.558900,0.069051
12.400000,1.861579,-0.222895,0.133771,13.969542,2.765505,-9.249924,483.063538,3.368713,0.000000,41.660199,44.966660,6999.070576,1.000000,-0.047329,-0.976434,-0.103775
12.500000,1.840847,-0.231383,0.152820,14.344075,2.001536,-8.785709,483.101349,3.406525,0.000000,41.660201,44.966680,6999.042925,0.357665,0.206190,1.000000,-0.643565
12.600000,1.818033,-0.236524,0.169019,14.732805,1.376512,-8.269902,483.057312,3.362488,0.000000,41.660202,44.966700,6999.042925,-0.601547,1.000000,0.085843,0.233956
12.700000,1.793787,-0.239580,0.181905,15.154271,1.087437,-7.747568,482.954773,3.259949,0.000000,41.660203,44.966720,6999.013326,0.796363,0.411114,0.017721,1.000000
12.800000,1.776931,-0.241404,0.185176,15.512757,0.812125,-7.335038,482.812744,3.117920,0.000000,41.660205,44.966740,6999.013326,-0.065851,-1.000000,-1.000000,-0.506953
12.900000,1.763900,-0.241235,0.180967,15.829355,0.712354,-6.945480,482.639282,2.944458,0.000000,41.660206,44.966761,6998.983686,-0.545910,1.000000,-0.196388,-0.036925
13.000000,1.744766,-0.237305,0.172016,16.201561,0.953922,-6.455761,482.454620,2.759796,0.000000,41.660207,44.966781,6998.983686,0.657136,0.001184,0.551769,0.254740
13.100000,1.725920,-0.230444,0.158079,16.549992,1.124248,-6.001660,482.267090,2.572266,0.000000,41.660207,44.966802,6998.954709,-1.000000,0.743070,1.000000,0.993174
13.200000,1.713394,-0.221724,0.140933,16.842076,1.524750,-5.664466,482.108429,2.413605,0.000000,41.660208,44.966823,6998.954709,0.156021,-1.000000,0.618450,-0.644393
13.300000,1.700185,-0.209550,0.124093,17.165582,2.001305,-5.274600,481.985077,2.290253,0.000000,41.660208,44.966844,6998.927266,-1.000000,1.000000,-0.360608,0.646688
13.400000,1.684088,-0.195146,0.111996,17.517093,2.448904,-4.836065,481.907440,2.212616,0.000000,41.660208,44.966866,6998.927266,-0.308161,-1.000000,1.000000,-0.721910
13.500000,1.665456,-0.180713,0.106031,17.878713,2.902622,-4.360077,481.889832,2.195007,0.000000,41.660208,44.966888,6998.903429,-1.000000,-1.000000,-1.000000,0.183651
13.600000,1.640213,-0.165561,0.106236,18.289141,3.337268,-3.752896,481.925812,2.230988,0.000000,41.660208,44.966910,6998.903429,-0.553631,0.885403,1.000000,-1.000000
13.700000,1.611384,-0.151733,0.114377,18.678804,3.701211,-3.105244,482.020721,2.325897,0.000000,41.660207,44.966933,6998.882121,-0.829506,-1.000000,-0.432774,0.856539
13.800000,1.586779,-0.140002,0.126802,18.984885,3.732838,-2.559809,482.146210,2.451385,0.000000,41.660206,44.966956,6998.882121,0.877937,-0.805998,0.742150,1.000000
13.900000,1.569518,-0.129039,0.139963,19.226266,3.218222,-2.134111,482.266083,2.571259,0.000000,41.660205,44.966979,6998.861601,-1.000000,-1.000000,0.500796,-0.318800
14.000000,1.559924,-0.119497,0.152516,19.439604,2.851029,-1.811524,482.349182,2.654358,0.000000,41.660204,44.967002,6998.861601,-0.077388,0.190488,0.810359,-1.000000
14.100000,1.550428,-0.111377,0.167036,19.631076,2.692211,-1.448652,482.421326,2.726532,0.000000,41.660203,44.967025,6998.840832,-0.393267,-1.000000,0.546855,0.128418
14.200000,1.537436,-0.102927,0.184974,19.823353,2.599949,-1.013287,482.487793,2.792969,0.000000,41.660202,44.967049,6998.840832,-0.786759,-1.000000,1.000000,0.897721
14.300000,1.531292,-0.096788,0.200883,20.000900,2.729886,-0.767186,482.569061,2.874237,0.000000,41.660200,44.967073,6998.817741,-0.186219,-0.286352,0.356997,0.146585
14.400000,1.537089,-0.093949,0.212006,20.148421,2.784199,-0.753822,482.659454,2.964630,0.000000,41.660199,44.967097,6998.817741,-0.628760,-0.733438,0.846712,1.000000
14.500000,1.556818,-0.094193,0.218810,20.275873,2.621378,-1.017950,482.755920,3.061066,0.000000,41.660197,44.967121,6998.792122,0.274313,-0.669431,-0.111715,1.000000
14.600000,1.592960,-0.097749,0.217658,20.375591,2.451211,-1.589201,482.834778,3.139954,0.000000,41.660195,44.967145,6998.792122,-1.000000,-1.000000,-1.000000,-1.000000
14.700000,1.631763,-0.102042,0.213125,20.467936,2.508256,-2.163880,482.907715,3.212891,0.000000,41.660193,44.967169,6998.765674,0.014421,-1.000000,-0.887247,0.825707
14.800000,1.671028,-0.106606,0.206784,20.558214,2.643321,-2.739144,482.997162,3.302338,0.000000,41.660190,44.967194,6998.765674,-1.000000,-0.622233,0.256735,-0.577039
14.900000,1.708908,-0.111106,0.199037,20.618508,2.706215,-3.264531,483.097229,3.402405,0.000000,41.660188,44.967218,6998.737940,0.264337,-0.165418,1.000000,-0.212457
15.000000,1.738688,-0.113772,0.192817,20.668881,2.547035,-3.623645,483.188751,3.493927,0.000000,41.660185,44.967243,6998.737940,0.894584,0.726823,-0.863896,-0.304794
15.100000,1.767523,-0.115086,0.186692,20.691932,1.831016,-3.957326,483.240814,3.545990,0.000000,41.660182,44.967268,6998.708342,1.000000,-0.031007,-0.253771,0.591464
15.200000,1.798768,-0.115365,0.178354,20.668798,0.758954,-4.360215,483.204163,3.509338,0.000000,41.660178,44.967293,6998.708342,1.000000,0.109368,-0.095499,0.722879
15.300000,1.835074,-0.115602,0.165688,20.605334,-0.081960,-4.935600,483.078796,3.384003,0.000000,41.660175,44.967317,6998.678701,-1.000000,-1.000000,1.000000,0.855908
15.400000,1.880239,-0.116115,0.146797,20.501534,-0.378494,-5.703613,482.891510,3.196686,0.000000,41.660172,44.967342,6998.678701,-0.955943,-0.577452,0.280605,-0.512589
15.500000,1.920844,-0.115583,0.128106,20.412811,-0.271142,-6.343148,482.702484,3.007660,0.000000,41.660168,44.967367,6998.648273,0.710601,-0.156646,0.951803,0.281404
15.600000,1.949937,-0.113846,0.113935,20.359543,-0.391584,-6.765551,482.526398,2.831573,0.000000,41.660165,44.967392,6998.648273,0.637094,-1.000000,-0.062357,-0.184698
15.700000,1.971753,-0.110930,0.102431,20.333577,-0.861747,-7.012598,482.305725,2.610870,0.000000,41.660161,44.967416,6998.617514,0.232985,0.281681,-1.000000,-0.504161
15.800000,1.980310,-0.106809,0.096017,20.389020,-1.361669,-7.010945,482.038483,2.343628,0.000000,41.660157,44.967441,6998.617514,0.857948,0.494074,-0.323113,0.802319
15.900000,1.981072,-0.102590,0.092320,20.482501,-1.811912,-6.884112,481.743896,2.049072,0.000000,41.660153,44.967466,6998.590692,0.188096,0.585637,0.793685,-0.896819
16.000000,1.976473,-0.095411,0.060341,19.893648,-1.222056,-6.552432,481.422424,1.727570,0.000000,41.660149,44.967491,6998.590692,1.000000,1.000000,0.917821,-1.000000
16.100000,1.974875,-0.078534,-0.021114,17.083749,1.927742,-5.687558,481.319946,1.625122,0.000000,41.660145,44.967513,6998.566814,1.000000,-0.514450,0.426440,-0.375204
16.200000,1.960210,-0.058681,-0.017968,16.554858,1.571736,-5.125043,481.384552,1.689728,0.000000,41.660142,44.967534,6998.566814,-1.000000,0.838808,0.640056,-0.310752
16.300000,1.932307,-0.037751,0.006752,16.753089,0.582499,-4.589744,481.403320,1.708496,0.000000,41.660138,44.967554,6998.544926,-0.778331,-0.454265,-1.000000,-1.000000
16.400000,1.890968,-0.019174,0.034836,17.004831,0.489057,-3.798721,481.410126,1.715302,0.000000,41.660134,44.967574,6998.544926,-0.668082,0.351323,-0.785557,-0.245211
16.500000,1.842978,-0.004845,0.063416,17.290282,0.744035,-2.906006,481.469849,1.775024,0.000000,41.660131,44.967594,6998.526022,0.666493,1.000000,0.726313,0.334132
16.600000,1.791212,0.007329,0.091629,17.483110,0.448338,-1.935438,481.553375,1.858551,0.000000,41.660127,44.967614,6998.526022,-1.000000,-1.000000,0.609858,-0.546270
16.700000,1.743485,0.016763,0.114739,17.608416,0.312672,-1.023683,481.626556,1.931732,0.000000,41.660123,44.967634,6998.509067,0.353011,-0.079429,-0.560251,0.936943
16.800000,1.704962,0.022699,0.130734,17.666357,0.145342,-0.264115,481.693298,1.998505,0.000000,41.660119,44.967654,6998.509067,-0.045140,-1.000000,-0.323723,-0.335752
16.900000,1.669924,0.026505,0.142103,17.688165,-0.006572,0.480882,481.736176,2.041351,0.000000,41.660115,44.967675,6998.492941,-0.890811,1.000000,0.378116,-1.000000
17.000000,1.631578,0.028403,0.151636,17.718840,0.487459,1.308990,481.791656,2.096832,0.000000,41.660110,44.967695,6998.492941,-0.590241,-0.653097,-0.603294,0.436286
17.100000,1.596566,0.027494,0.159336,17.717750,0.986130,2.011753,481.888000,2.193176,0.000000,41.660106,44.967715,7000.010444,-0.501489,0.566026,0.588352,0.298599
17.200000,1.568682,0.023041,0.163420,17.712874,1.547689,2.584742,482.019989,2.325165,0.000000,41.660102,44.967735,7000.010444,-1.000000,-1.000000,-0.961548,-1.000000
17.300000,1.545614,0.015426,0.164854,17.750537,2.648147,3.059701,482.215210,2.520386,0.000000,41.660097,44.967756,6999.990711,-1.000000,-1.000000,0.223109,1.000000
17.400000,1.529919,0.004854,0.161889,17.772761,3.493110,3.392082,482.481323,2.786499,0.000000,41.660092,44.967776,6999.990711,0.727888,0.073120,-0.259438,-0.310583
17.500000,1.522397,-0.008167,0.154071,17.754278,3.455019,3.656464,482.777771,3.082947,0.000000,41.660087,44.967797,6999.967911,1.000000,0.558321,-0.342127,-1.000000
17.600000,1.514231,-0.019640,0.145962,17.717244,2.967229,4.025428,483.017517,3.322693,0.000000,41.660082,44.967817,6999.967911,-0.633380,0.625869,-0.530162,-1.000000
17.700000,1.499942,-0.027950,0.141336,17.673086,2.523055,4.460801,483.178650,3.483826,0.000000,41.660076,44.967838,6999.943784,0.934483,0.775707,0.304907,0.675384
17.800000,1.489275,-0.036277,0.137400,17.664194,2.119316,4.765774,483.287567,3.592743,0.000000,41.660071,44.967859,6999.943784,-1.000000,-1.000000,1.000000,0.157683
17.900000,1.491273,-0.045582,0.132569,17.731515,1.792064,4.836349,483.345001,3.650482,0.000000,41.660066,44.967879,6999.917958,1.000000,-1.000000,-0.582278,-1.000000
18.000000,1.498076,-0.054170,0.130040,17.829427,1.512432,4.856377,483.355408,3.664398,0.000000,41.660060,44.967900,6999.917958,-1.000000,-1.000000,0.054478,-0.025710
18.100000,1.507260,-0.062824,0.130535,17.973606,1.486762,4.804001,483.331696,3.644196,0.000000,41.660054,44.967921,6999.889893,0.408972,0.821921,-1.000000,-0.356548
18.200000,1.522227,-0.072057,0.132209,18.150984,1.443589,4.638952,483.297394,3.613403,0.000000,41.660049,44.967942,6999.889893,1.000000,0.236015,-0.221100,-0.133192
18.300000,1.540179,-0.080371,0.134946,18.308009,0.946679,4.448368,483.221710,3.541229,0.000000,41.660043,44.967963,6999.861579,1.000000,0.859483,1.000000,-0.613810
18.400000,1.561173,-0.087900,0.139621,18.477152,0.214842,4.227536,483.058929,3.381989,0.000000,41.660037,44.967984,6999.861579,-0.376577,-1.000000,0.484152,-0.076538
18.500000,1.583946,-0.094277,0.144882,18.674657,-0.081870,3.950541,482.831085,3.157654,0.000000,41.660031,44.968005,6999.832229,0.676831,-1.000000,0.202956,-0.521853
18.600000,1.606824,-0.099293,0.148752,18.871751,-0.104108,3.652706,482.590881,2.920929,0.000000,41.660025,44.968026,6999.832229,-1.000000,-0.631296,-1.000000,-0.232307
18.700000,1.632737,-0.103457,0.149925,19.086902,-0.055196,3.273821,482.337280,2.670868,0.000000,41.660019,44.968047,6999.801220,1.000000,1.000000,0.499086,0.449671
18.800000,1.665712,-0.107110,0.145238,19.307168,-0.188466,2.744557,482.075378,2.412445,0.000000,41.660013,44.968068,6999.801220,-0.768224,-0.628073,-0.057108,-0.104037
18.900000,1.701159,-0.109453,0.135478,19.509192,-0.246787,2.173307,481.818085,2.158661,0.000000,41.660007,44.968089,6999.771000,0.650465,-0.355867,-0.210865,-0.522113
19.000000,1.735828,-0.109574,0.117394,19.230235,0.299367,1.525796,481.563385,1.907227,0.000000,41.660000,44.968111,6999.771000,-1.000000,0.151741,0.920093,-1.000000
19.100000,1.768756,-0.108858,0.068146,18.522323,1.596346,0.870734,481.425507,1.772339,0.000000,41.659994,44.968132,6999.740613,-0.998299,1.000000,0.171465,-0.097102
19.200000,1.798481,-0.107366,0.032610,18.244231,2.736696,0.385388,481.456604,1.806366,0.000000,41.659987,44.968152,6999.740613,-0.277415,0.075609,1.000000,0.991966
19.300000,1.831697,-0.106367,0.012696,18.343609,3.162329,-0.201234,481.560974,1.913666,0.000000,41.659981,44.968172,6999.709398,-1.000000,-0.642278,-0.815006,0.352138
19.400000,1.874164,-0.105395,-0.003342,18.509410,3.466401,-0.977447,481.699127,2.054749,0.000000,41.659975,44.968193,6999.709398,-0.265907,0.981871,-0.945205,-0.060143
19.500000,1.915887,-0.104337,-0.013094,18.624756,3.648864,-1.730258,481.853973,2.212616,0.000000,41.659968,44.968213,6999.681125,-0.270061,-0.162457,1.000000,-1.000000
19.600000,1.953522,-0.102943,-0.014920,18.711912,3.568638,-2.371399,482.018311,2.379944,0.000000,41.659962,44.968234,6999.681125,-0.616813,-0.666431,-0.844391,-0.288661
19.700000,1.981054,-0.101957,-0.006391,18.821933,3.626432,-2.887376,482.184082,2.548767,0.000000,41.659955,44.968255,6999.655382,-0.413081,0.659311,-0.313254,-0.150603
19.800000,2.004761,-0.102154,0.006635,18.929312,3.836435,-3.379387,482.353058,2.720764,0.000000,41.659949,44.968277,6999.655382,-1.000000,1.000000,-1.000000,0.694996
19.900000,2.032616,-0.104364,0.022806,19.061398,4.621012,-3.970710,482.582336,2.953125,0.000000,41.659942,44.968298,6999.629721,-1.000000,1.000000,-1.000000,-1.000000
20.000000,2.059089,-0.109418,0.043165,19.159287,5.275313,-4.523952,482.900909,3.274872,0.000000,41.659935,44.968320,6999.629721,0.182525,0.108498,1.000000,0.277329
20.100000,2.080871,-0.114732,0.062179,19.178443,4.991738,-4.964568,483.212952,3.590027,0.000000,41.659927,44.968342,6999.604102,1.000000,-0.186301,-0.277824,0.059742
20.200000,2.105795,-0.119332,0.078040,19.161710,4.268031,-5.408398,483.488281,3.868500,0.000000,41.659920,44.968364,6999.604102,-0.818049,-1.000000,0.608295,-0.288348
20.300000,2.128627,-0.122406,0.091807,19.177834,3.828590,-5.760028,483.704407,4.087799,0.000000,41.659913,44.968385,6999.577446,0.313153,-1.000000,0.033847,-0.361228
20.400000,2.146727,-0.124018,0.103845,19.215469,3.412740,-6.015072,483.879669,4.266205,0.000000,41.659905,44.968407,6999.577446,1.000000,0.982336,-0.725527,0.289220
20.500000,2.164855,-0.124021,0.114373,19.235871,2.503041,-6.204079,484.004730,4.394379,0.000000,41.659897,44.968429,6999.548884,1.000000,-0.129990,-0.098304,-1.000000
20.600000,2.177863,-0.121270,0.123542,19.267402,1.282979,-6.246551,484.029175,4.421997,0.000000,41.659890,44.968451,6999.548884,1.000000,0.715045,-0.932521,0.399202
20.700000,2.186798,-0.116623,0.129782,19.326163,0.306859,-6.238672,483.955383,4.351349,0.000000,41.659882,44.968473,6999.520031,-0.512198,-1.000000,-0.127770,0.570406
20.800000,2.199497,-0.111524,0.130222,19.392074,-0.192579,-6.330143,483.814697,4.213806,0.000000,41.659874,44.968494,6999.520031,0.442898,1.000000,-0.889902,-1.000000
20.900000,2.208547,-0.106074,0.126720,19.480571,-0.486877,-6.301650,483.649323,4.051544,0.000000,41.659866,44.968516,6999.490349,0.217287,0.254966,-0.714856,-1.000000
21.000000,2.202234,-0.099116,0.124398,19.641344,-0.823718,-5.930732,483.464874,3.870239,0.000000,41.659858,44.968538,6999.490349,-0.453888,-0.965967,-0.116414,-1.000000
21.100000,2.174063,-0.089340,0.125124,19.937091,-0.777231,-5.141600,483.262177,3.670746,0.000000,41.659849,44.968559,6999.460626,0.027096,0.140446,-0.317566,-0.333266
21.200000,2.131518,-0.078308,0.127072,20.280546,-0.415283,-4.111058,483.085236,3.497040,0.000000,41.659841,44.968581,6999.460626,-1.000000,-0.785578,-0.658261,-0.685277
21.300000,2.086191,-0.068273,0.127868,20.621455,0.540891,-3.093364,482.984039,3.399017,0.000000,41.659832,44.968602,6999.434634,-0.949078,-0.545842,-0.262749,0.336415
21.400000,2.039750,-0.060284,0.125441,20.940644,1.615742,-2.058306,483.002502,3.420715,0.000000,41.659822,44.968624,6999.434634,0.287609,1.000000,-1.000000,0.560646
21.500000,2.005035,-0.055199,0.118563,21.117904,1.544024,-1.268443,483.066162,3.487549,0.000000,41.659813,44.968646,6999.411502,1.000000,-0.658249,0.417260,1.000000
21.600000,1.987503,-0.052365,0.106516,21.213714,1.107074,-0.834968,483.092804,3.517426,0.000000,41.659804,44.968667,6999.411502,-1.000000,-0.419393,1.000000,0.506954
21.700000,1.982272,-0.051089,0.090510,21.321606,1.079530,-0.658941,483.092346,3.520142,0.000000,41.659794,44.968689,6999.389987,0.043115,-0.633433,-0.791137,-1.000000
21.800000,1.980142,-0.050925,0.076592,21.431055,1.185042,-0.504371,483.107025,3.537994,0.000000,41.659784,44.968711,6999.389987,0.600872,1.000000,1.000000,0.468657
21.900000,1.978736,-0.050928,0.066811,21.504092,0.898535,-0.395310,483.104034,3.538177,0.000000,41.659775,44.968733,6999.369383,-0.616736,0.569938,1.000000,1.000000
22.000000,1.988406,-0.051507,0.057492,21.579677,0.676757,-0.577369,483.073059,3.510437,0.000000,41.659765,44.968755,6999.369383,0.440624,1.000000,-0.991501,-1.000000
22.100000,2.004810,-0.052671,0.051977,21.671691,0.702138,-0.850920,483.029816,3.470337,0.000000,41.659755,44.968777,6999.346708,-1.000000,-0.745351,-1.000000,0.322462
22.200000,2.019300,-0.054583,0.053055,21.774987,1.012018,-1.113374,483.000336,3.444061,0.000000,41.659745,44.968800,6999.346708,-1.000000,-0.693927,0.140743,1.000000
22.300000,2.040277,-0.058728,0.058773,21.920469,2.211747,-1.580032,483.042084,3.489044,0.000000,41.659735,44.968822,6999.321337,-1.000000,0.151385,-0.277312,-0.964493
22.400000,2.064574,-0.065211,0.069483,22.033527,3.245274,-2.095654,483.201385,3.651581,0.000000,41.659725,44.968844,6999.321337,-0.433718,-1.000000,-0.191859,-0.268156
22.500000,2.083345,-0.071650,0.084177,22.092809,3.538811,-2.455885,483.401794,3.855225,0.000000,41.659714,44.968867,6999.295137,-0.359507,-0.122586,0.829892,-0.324766
22.600000,2.101827,-0.077853,0.101297,22.137555,3.460806,-2.818211,483.617554,4.074249,0.000000,41.659704,44.968890,6999.295137,0.554973,1.000000,1.000000,1.000000
22.700000,2.125324,-0.083310,0.115734,22.140893,2.830100,-3.261156,483.788727,4.248627,0.000000,41.659693,44.968912,6999.267611,0.212335,-1.000000,-0.601649,-1.000000
22.800000,2.149219,-0.087162,0.127417,22.136012,2.142335,-3.650375,483.883575,4.346710,0.000000,41.659682,44.968935,6999.267611,0.637996,-0.487292,0.386807,-1.000000
22.900000,2.166113,-0.088729,0.141769,22.166423,1.451125,-3.783704,483.914917,4.381287,0.000000,41.659672,44.968957,6999.238137,0.024944,0.632938,0.919714,-1.000000
23.000000,2.167720,-0.086952,0.159936,22.268079,0.940166,-3.553647,483.887573,4.357178,0.000000,41.659660,44.968979,6999.238137,-0.356337,-1.000000,-0.887765,-0.881789
23.100000,2.157530,-0.083034,0.178364,22.438320,1.127483,-3.125620,483.850586,4.323486,0.000000,41.659649,44.969002,6999.208621,-1.000000,-0.368736,1.000000,0.760599
23.200000,2.147016,-0.079168,0.193372,22.630008,1.676774,-2.761671,483.862915,4.339050,0.000000,41.659638,44.969024,6999.208621,-0.083484,0.219639,0.070498,0.816971
23.300000,2.150551,-0.077977,0.199956,22.756719,1.761762,-2.739308,483.913635,4.393005,0.000000,41.659626,44.969046,6999.178400,-0.065180,0.388349,1.000000,1.000000
23.400000,2.170134,-0.079445,0.198296,22.815982,1.607926,-3.046106,483.953064,4.435608,0.000000,41.659614,44.969068,6999.178400,-0.308344,-0.653101,0.482161,0.196404
23.500000,2.200706,-0.082364,0.190845,22.862270,1.807277,-3.580280,483.994690,4.480377,0.000000,41.659602,44.969091,6999.147392,-0.957352,1.000000,-0.816060,0.884110
23.600000,2.236807,-0.086136,0.179882,22.877218,2.092715,-4.218615,484.072296,4.561127,0.000000,41.659590,44.969113,6999.147392,0.758174,-1.000000,0.683069,-0.830279
23.700000,2.266743,-0.088203,0.169356,22.869916,1.918830,-4.656924,484.143799,4.635803,0.000000,41.659577,44.969135,6999.119078,-1.000000,0.413699,-0.786974,-0.167798
23.800000,2.286656,-0.087561,0.160367,22.907477,1.664841,-4.859617,484.198792,4.693909,0.000000,41.659564,44.969157,6999.119078,0.963318,-0.461955,-0.412843,0.053357
23.900000,2.298613,-0.084920,0.152143,22.962101,1.115583,-4.880180,484.217377,4.715637,0.000000,41.659551,44.969179,6999.092630,1.000000,0.081268,-0.847461,-1.000000
24.000000,2.299732,-0.080053,0.145727,23.033380,0.275075,-4.672013,484.168549,4.670013,0.000000,41.659538,44.969201,6999.092630,0.404960,-0.434798,1.000000,0.908333
24.100000,2.297768,-0.073883,0.137256,23.119494,-0.516816,-4.461202,484.038605,4.543213,0.000000,41.659525,44.969222,6999.067466,0.783535,-1.000000,-0.313597,1.000000
24.200000,2.305418,-0.068893,0.123120,23.149200,-1.307228,-4.566659,483.839539,4.347290,0.000000,41.659512,44.969244,6999.067466,1.000000,-0.631172,-0.753475,1.000000
24.300000,2.325183,-0.065661,0.104822,23.115171,-1.941409,-4.993409,483.583618,4.094421,0.000000,41.659499,44.969266,6999.044583,-0.162135,0.188985,0.284118,1.000000
24.400000,2.356366,-0.063916,0.082712,23.034090,-2.222143,-5.699822,483.267029,3.780945,0.000000,41.659486,44.969288,6999.044583,-0.672138,-0.857005,1.000000,-1.000000
24.500000,2.385250,-0.063352,0.063748,22.979261,-1.741323,-6.304183,482.954254,3.471283,0.000000,41.659473,44.969310,6999.023400,-0.628235,-1.000000,0.209589,-0.783325
24.600000,2.397460,-0.063251,0.053269,23.022790,-1.091649,-6.488737,482.719604,3.239746,0.000000,41.659459,44.969332,6999.023400,0.143690,0.389628,-0.591438,0.194897
24.700000,2.398735,-0.063791,0.048768,23.133334,-0.689538,-6.449480,482.512695,3.036011,0.000000,41.659446,44.969353,6999.003501,-0.830661,0.307062,1.000000,-0.132337
24.800000,2.394491,-0.065149,0.050600,23.271506,-0.497329,-6.261413,482.337952,2.864441,0.000000,41.659432,44.969375,6999.003501,1.000000,-0.273987,-0.910573,-0.934494
24.900000,2.379589,-0.066454,0.059339,23.448177,-0.732479,-5.787396,482.164734,2.694397,0.000000,41.659418,44.969397,6998.985924,0.641188,0.404611,-0.049816,0.376655
25.000000,2.356405,-0.067787,0.072817,23.657673,-1.169331,-5.134484,481.940460,2.473419,0.000000,41.659404,44.969419,6998.985924,-0.755643,0.208725,0.983391,0.970283
25.100000,2.338543,-0.070413,0.085293,23.861254,-0.948875,-4.702255,481.698242,2.234406,0.000000,41.659390,44.969441,6998.969425,-0.157085,1.000000,-0.446843,1.000000
25.200000,2.335868,-0.075114,0.093379,24.000400,-0.318457,-4.646299,481.509918,2.049255,0.000000,41.659376,44.969462,6998.969425,-1.000000,0.483862,0.173240,0.016261
25.300000,2.340618,-0.081696,0.101091,24.052118,0.850392,-4.707251,481.382324,1.924805,0.000000,41.659362,44.969484,6998.951765,-0.715310,1.000000,0.786147,-1.000000
25.400000,2.344422,-0.087873,0.090917,23.986633,2.016132,-4.658557,481.381531,1.927155,0.000000,41.659348,44.969506,6998.951765,0.989633,-0.256580,0.324648,0.836880
25.500000,2.348146,-0.092815,0.081647,24.070684,2.089021,-4.661367,481.411255,1.960022,0.000000,41.659333,44.969528,6998.932447,-1.000000,0.667585,0.496959,0.678029
25.600000,2.362349,-0.097374,0.072520,24.114705,2.063344,-4.942207,481.421661,1.973541,0.000000,41.659318,44.969549,6998.932447,0.462001,1.000000,1.000000,-0.326736
25.700000,2.383145,-0.101053,0.066122,24.119719,1.883410,-5.358411,481.419098,1.974030,0.000000,41.659303,44.969571,6998.911098,1.000000,-1.000000,-0.540017,1.000000
25.800000,2.407448,-0.103174,0.061939,24.080973,1.404020,-5.860287,481.371674,1.929688,0.000000,41.659288,44.969593,6998.911098,-1.000000,0.144795,-0.696599,-0.373398
25.900000,2.438722,-0.103972,0.041313,23.644387,1.879624,-6.410453,481.309143,1.870148,0.000000,41.659274,44.969614,6998.886888,-0.526526,0.699282,-0.933165,-0.205905
26.000000,2.470719,-0.103908,0.006392,23.507233,2.591130,-6.978681,481.310089,1.874054,0.000000,41.659259,44.969636,6998.886888,-0.146845,-0.717972,0.683673,-0.194340
26.100000,2.498378,-0.102872,-0.012014,23.439007,2.596810,-7.548606,481.326050,1.893005,0.000000,41.659244,44.969657,6998.861684,-0.005193,-1.000000,1.000000,1.000000
26.200000,2.530934,-0.100270,-0.024509,23.308547,2.326677,-8.270842,481.320892,1.890839,0.000000,41.659228,44.969678,6998.861684,0.133785,0.278046,1.000000,-0.565226
26.300000,2.563937,-0.096223,-0.029234,23.039271,2.304324,-8.979445,481.291687,1.864624,0.000000,41.659213,44.969700,6998.834904,-0.736463,0.020834,-0.143394,1.000000
26.400000,2.594299,-0.091478,-0.020125,22.843537,2.472568,-9.675006,481.288971,1.864899,0.000000,41.659198,44.969721,6998.834904,-1.000000,1.000000,0.429318,-0.356064
26.500000,2.625811,-0.086962,-0.000111,22.717338,3.317406,-10.398894,481.363037,1.941925,0.000000,41.659182,44.969743,6998.806175,-0.894562,1.000000,-0.698552,-1.000000
26.600000,2.645916,-0.083547,0.031774,22.686171,3.765705,-10.837734,481.554626,2.136597,0.000000,41.659167,44.969764,6998.806175,1.000000,-0.703504,0.432354,-0.017356
26.700000,2.654145,-0.080378,0.062559,22.719725,3.279462,-11.001953,481.766907,2.351959,0.000000,41.659151,44.969785,6998.777364,-1.000000,0.288049,1.000000,0.652180
26.800000,2.661360,-0.076404,0.089894,22.763560,2.723499,-11.105030,481.969482,2.557587,0.000000,41.659135,44.969807,6998.777364,-1.000000,0.041308,1.000000,-1.000000
26.900000,2.664634,-0.072073,0.115789,22.895713,3.168454,-11.076937,482.200653,2.791840,0.000000,41.659119,44.969828,6998.749506,-1.000000,0.987297,0.876878,0.625497
27.000000,2.663840,-0.068026,0.140724,23.069505,3.746451,-10.982553,482.519470,3.113678,0.000000,41.659102,44.969849,6998.749506,0.876013,-0.134642,1.000000,0.355704
27.100000,2.666460,-0.063719,0.161914,23.163872,3.349928,-10.928683,482.896301,3.493500,0.000000,41.659086,44.969869,6998.721814,0.295880,0.913536,0.496168,0.363972
27.200000,2.673470,-0.058423,0.176581,23.188938,2.603145,-10.894355,483.234009,3.834167,0.000000,41.659069,44.969890,6998.721814,-0.692945,0.317823,-0.784614,0.068207
27.300000,2.680713,-0.052526,0.187351,23.239128,2.374736,-10.825965,483.531250,4.134308,0.000000,41.659052,44.969910,6998.693874,-0.022642,-0.271524,-0.553079,-0.634848
27.400000,2.681701,-0.044760,0.198795,23.356614,2.044850,-10.538548,483.850739,4.456726,0.000000,41.659035,44.969930,6998.693874,0.709819,-0.008035,-1.000000,-1.000000
27.500000,2.670139,-0.033767,0.210424,23.578320,1.424146,-9.919846,484.138977,4.747925,0.000000,41.659018,44.969950,6998.665560,-0.805608,1.000000,-1.000000,0.947579
27.600000,2.656426,-0.022778,0.219047,23.814274,1.168088,-9.330561,484.388275,4.999969,0.000000,41.659001,44.969970,6998.665560,0.068493,0.502361,0.680778,1.000000
27.700000,2.650938,-0.013675,0.222267,23.950872,0.908033,-8.974331,484.658325,5.272278,0.000000,41.658983,44.969989,6998.635422,0.852229,-1.000000,0.540682,0.562970
27.800000,2.656508,-0.006756,0.216956,23.938065,0.245232,-8.843821,484.888733,5.505219,0.000000,41.658966,44.970008,6998.635422,-0.122675,0.449215,0.991364,-0.901834
27.900000,2.660666,0.000336,0.208094,23.924252,-0.357559,-8.627881,485.052765,5.671936,0.000000,41.658948,44.970027,6998.606362,1.000000,0.030745,0.050325,0.287380
28.000000,2.655621,0.009910,0.197643,23.969643,-1.093501,-8.192605,485.168152,5.790283,0.000000,41.658931,44.970046,6998.606362,1.000000,-0.593020,1.000000,-0.304683
28.100000,2.645892,0.020531,0.184280,24.007366,-2.116833,-7.698720,485.197815,5.823395,0.000000,41.658913,44.970065,6998.578919,1.000000,-0.885438,-0.739083,0.686054
28.200000,2.635786,0.030484,0.168763,24.035790,-2.947419,-7.281663,485.140778,5.770233,0.000000,41.658895,44.970084,6998.578919,0.620471,-0.551856,-0.113443,1.000000
28.300000,2.630683,0.039045,0.149295,24.029968,-3.419652,-7.053716,485.015808,5.649261,0.000000,41.658878,44.970103,6998.553010,-1.000000,0.099865,1.000000,-0.423922
28.400000,2.625096,0.045758,0.131462,24.056710,-3.216259,-6.809554,484.876984,5.517090,0.000000,41.658860,44.970121,6998.553010,-1.000000,-1.000000,0.239741,-0.905532
28.500000,2.608473,0.051208,0.119973,24.192530,-2.165516,-6.264625,484.804291,5.451965,0.000000,41.658843,44.970139,6998.530499,-1.000000,-0.293937,1.000000,-1.000000
28.600000,2.570906,0.056975,0.114387,24.459079,-0.419641,-5.223385,484.878174,5.527740,0.000000,41.658825,44.970157,6998.530499,-1.000000,1.000000,-1.000000,0.012814
28.700000,2.525642,0.061805,0.115297,24.713193,1.165182,-4.036543,485.121796,5.773071,0.000000,41.658807,44.970175,6998.510560,-1.000000,0.863102,1.000000,-0.338824
28.800000,2.485433,0.065043,0.122801,24.873958,2.203995,-2.989148,485.481293,6.134186,0.000000,41.658789,44.970192,6998.510560,-0.437486,0.389222,-1.000000,0.592224
28.900000,2.450946,0.067102,0.134609,24.947821,2.500749,-2.094130,485.927307,6.581848,0.000000,41.658771,44.970209,6998.492195,-0.067479,-0.616238,0.086498,0.374129
29.000000,2.427832,0.067631,0.145294,24.960361,2.556378,-1.465980,486.376312,7.032532,0.000000,41.658753,44.970226,6998.492195,-0.812312,1.000000,0.933043,0.071162
29.100000,2.414797,0.066967,0.153867,24.932884,2.469017,-1.086065,486.798096,7.455994,0.000000,41.658735,44.970243,6998.475240,0.887383,1.000000,0.187481,1.000000
29.200000,2.413793,0.065273,0.159769,24.865330,1.967278,-0.990044,487.207428,7.867065,0.000000,41.658717,44.970260,6998.475240,0.050861,-0.303895,0.095775,1.000000
29.300000,2.429532,0.062270,0.161265,24.786084,1.441258,-1.286957,487.554535,8.215912,0.000000,41.658700,44.970277,6998.455880,-0.158039,-0.006026,-0.110203,0.212917
29.400000,2.454956,0.058639,0.160103,24.700737,1.026016,-1.791490,487.840576,8.503693,0.000000,41.658682,44.970294,6998.455880,1.000000,0.776284,0.697354,0.349452
29.500000,2.488668,0.054937,0.156792,24.560979,0.241771,-2.471586,488.082703,8.747620,0.000000,41.658664,44.970311,6998.433412,0.477437,-1.000000,0.124187,0.627060
29.600000,2.528853,0.051716,0.150898,24.375699,-0.607992,-3.287500,488.240540,8.907196,0.000000,41.658646,44.970327,6998.433412,0.855997,0.426585,0.144190,-0.759306
29.700000,2.566468,0.049652,0.145410,24.185977,-1.217625,-4.031537,488.320984,8.989410,0.000000,41.658628,44.970344,6998.409534,-0.089109,1.000000,0.319863,1.000000
29.800000,2.606327,0.047836,0.141431,23.968709,-1.652046,-4.818493,488.356689,9.026917,0.000000,41.658610,44.970361,6998.409534,-1.000000,0.211291,0.765030,-0.932323
29.900000,2.643556,0.046007,0.141702,23.765744,-1.421475,-5.523065,488.384064,9.056061,0.000000,41.658592,44.970377,6998.383956,-0.726829,-1.000000,0.876300,0.317084
30.000000,2.673159,0.044443,0.148768,23.604739,-0.815693,-6.046219,488.465729,9.139496,0.000000,41.658574,44.970393,6998.383956,-0.379400,0.064875,0.752196,-0.964273
30.100000,2.700674,0.042620,0.161992,23.443762,-0.575493,-6.504199,488.601837,9.277374,0.000000,41.658556,44.970409,6998.356761,-0.401329,-0.814625,-1.000000,1.000000
30.200000,2.729277,0.039651,0.177297,23.265109,-0.425988,-7.000336,488.766022,9.443329,0.000000,41.658537,44.970424,6998.356761,-0.396159,-0.683619,-0.007687,1.000000
30.300000,2.765131,0.034401,0.189825,23.018885,-0.232830,-7.722750,488.945160,9.624237,0.000000,41.658519,44.970439,6998.329650,-0.773514,0.554750,1.000000,0.925433
30.400000,2.815368,0.025812,0.199358,22.630717,0.042459,-8.728238,489.171051,9.851898,0.000000,41.658501,44.970454,6998.329650,-0.025018,0.199872,1.000000,-0.740047
30.500000,2.866190,0.016848,0.207699,22.191378,0.176879,-9.629492,489.420868,10.103485,0.000000,41.658482,44.970469,6998.301460,-0.726119,0.593094,-0.005293,-0.640381
30.600000,2.903542,0.010468,0.218257,21.866027,0.431517,-10.159905,489.674591,10.359039,0.000000,41.658464,44.970484,6998.301460,-1.000000,0.449014,0.283973,-1.000000
30.700000,2.927505,0.006331,0.235758,21.718210,1.452723,-10.379566,490.019653,10.705872,0.000000,41.658445,44.970497,6998.271405,-1.000000,1.000000,-0.544930,-1.000000
30.800000,2.936560,0.004511,0.258782,21.717466,2.188587,-10.284675,490.480072,11.168060,0.000000,41.658427,44.970510,6998.271405,-0.126956,-0.922296,-0.814540,-0.113140
30.900000,2.936728,0.004899,0.280405,21.774294,2.267157,-10.007850,490.955780,11.645477,0.000000,41.658408,44.970523,6998.241392,-1.000000,-0.890636,-0.110613,0.340773
31.000000,2.936485,0.005910,0.299973,21.828567,2.193864,-9.721892,491.478546,12.170013,0.000000,41.658389,44.970535,6998.241392,1.000000,0.826851,-1.000000,-0.284413
31.100000,2.939475,0.007313,0.314888,21.819465,1.583190,-9.438366,491.975098,12.668335,0.000000,41.658370,44.970547,6998.210798,1.000000,0.535490,-1.000000,-1.000000
31.200000,2.939469,0.011456,0.326353,21.830069,0.830422,-9.021196,492.381134,13.076111,0.000000,41.658351,44.970558,6998.210798,-1.000000,-0.532505,0.714953,0.025712
31.300000,2.935779,0.018555,0.336515,21.897744,0.390085,-8.513309,492.761658,13.458435,0.000000,41.658333,44.970570,6998.178629,0.832855,-0.862145,0.542559,-0.042631
31.400000,2.934046,0.025865,0.343460,21.935401,-0.082414,-8.033748,493.110809,13.809326,0.000000,41.658314,44.970580,6998.178629,-0.141385,1.000000,-0.993972,-0.748579
31.500000,2.931147,0.034108,0.347629,21.962265,-0.693427,-7.541540,493.390961,14.091248,0.000000,41.658295,44.970591,6998.146999,0.684555,0.263902,0.372334,1.000000
31.600000,2.932201,0.041662,0.348044,21.955649,-1.180685,-7.161443,493.638489,14.340515,0.000000,41.658276,44.970601,6998.146999,-0.628446,1.000000,-0.786561,1.000000
31.700000,2.943649,0.044757,0.342738,21.901086,-1.121145,-7.091686,493.864014,14.567810,0.000000,41.658257,44.970612,6998.114996,-1.000000,-1.000000,-1.000000,0.290956
31.800000,2.961984,0.043117,0.334212,21.821169,-0.601325,-7.207857,494.110260,14.815857,0.000000,41.658238,44.970621,6998.114996,0.490456,-1.000000,0.203259,-0.329613
31.900000,2.977867,0.041145,0.324296,21.713582,-0.704496,-7.155913,494.383789,15.091156,0.000000,41.658219,44.970630,6998.082785,0.351585,-0.469528,-0.232797,-0.883433
32.000000,2.979934,0.043563,0.315275,21.682890,-1.085767,-6.792789,494.610809,15.319946,0.000000,41.658199,44.970639,6998.082785,-0.469970,1.000000,0.821563,0.656913
32.100000,2.975690,0.047038,0.306362,21.733228,-0.861633,-6.392248,494.803894,15.514771,0.000000,41.658180,44.970647,6998.054264,-0.665885,-1.000000,-1.000000,-0.698941
32.200000,2.968365,0.049861,0.297049,21.814220,-0.291373,-5.946307,495.044189,15.756836,0.000000,41.658161,44.970655,6998.054264,-0.248108,-1.000000,-0.442785,1.000000
32.300000,2.961900,0.050971,0.287464,21.884677,0.318194,-5.557046,495.325470,16.039856,0.000000,41.658142,44.970663,6998.028811,-1.000000,-1.000000,0.151063,-0.391764
32.400000,2.958070,0.050200,0.278503,21.922704,0.762068,-5.229904,495.630615,16.346771,0.000000,41.658123,44.970670,6998.028811,0.469499,-0.333973,1.000000,-0.958834
32.500000,2.950537,0.050075,0.270936,21.953260,0.869400,-4.772799,495.962036,16.679932,0.000000,41.658104,44.970676,6998.005471,-0.883372,-0.487683,-0.838669,0.714649
32.600000,2.941217,0.050613,0.265337,21.984448,0.916875,-4.291373,496.284821,17.004486,0.000000,41.658084,44.970683,6998.005471,0.466597,0.334673,0.473980,-1.000000
32.700000,2.930338,0.051949,0.263141,22.015321,0.992356,-3.758988,496.581604,17.303009,0.000000,41.658065,44.970689,6997.984868,-1.000000,0.300346,0.413353,-0.463651
32.800000,2.911157,0.055928,0.268140,22.073991,1.219317,-3.027812,496.898071,17.621216,0.000000,41.658046,44.970694,6997.984868,-0.184431,0.980878,0.721172,-0.016418
32.900000,2.892251,0.060003,0.278557,22.127464,1.626799,-2.361697,497.243439,17.968323,0.000000,41.658027,44.970700,6997.964638,-0.819082,-0.085054,1.000000,-0.241512
33.000000,2.878638,0.062777,0.290645,22.163184,2.161094,-1.845650,497.599091,18.325684,0.000000,41.658008,44.970704,6997.964638,-1.000000,-1.000000,-0.989450,-0.046950
33.100000,2.869417,0.063825,0.304014,22.222860,3.355245,-1.468624,498.059082,18.787445,0.000000,41.657988,44.970709,6997.941838,-1.000000,0.136491,0.350920,-0.060190
33.200000,2.865989,0.062644,0.315258,22.249329,4.183021,-1.193016,498.620483,19.350586,0.000000,41.657969,44.970712,6997.941838,0.226604,1.000000,1.000000,-0.616000
33.300000,2.865002,0.062050,0.325409,22.218280,4.091315,-0.908107,499.163666,19.895508,0.000000,41.657950,44.970715,6997.917753,-0.762554,-0.004921,0.172599,-0.153976
33.400000,2.865351,0.063267,0.336445,22.186583,3.883343,-0.594347,499.713196,20.444336,0.000000,41.657930,44.970718,6997.917753,0.108567,0.848917,1.000000,-1.000000
33.500000,2.865363,0.066931,0.348568,22.160026,3.580776,-0.239574,500.233368,20.966278,0.000000,41.657911,44.970721,6997.891968,-0.500455,0.482788,-1.000000,0.009493
33.600000,2.866982,0.071690,0.361063,22.145346,3.399514,0.060393,500.692841,21.427460,0.000000,41.657891,44.970723,6997.891968,-0.687444,-0.082435,1.000000,-0.527737
33.700000,2.872230,0.076855,0.374983,22.129900,3.185034,0.341562,501.171722,21.908112,0.000000,41.657872,44.970725,6997.863985,0.697185,-0.676152,0.729582,-1.000000
33.800000,2.875399,0.084789,0.389446,22.084862,2.549298,0.719275,501.603638,22.341827,0.000000,41.657852,44.970726,6997.863985,-0.677072,0.085766,-0.811429,0.598507
33.900000,2.884912,0.090921,0.401213,22.066025,2.229484,0.879814,501.965363,22.705231,0.000000,41.657833,44.970727,6997.835672,-0.902387,0.597911,-0.437347,-0.063827
34.000000,2.908454,0.091652,0.411981,22.086682,2.368649,0.726498,502.356628,23.098236,0.000000,41.657814,44.970728,6997.835672,0.144253,-0.417631,1.000000,0.359084
34.100000,2.943114,0.087960,0.420600,22.063036,1.917645,0.364379,502.740845,23.484161,0.000000,41.657794,44.970728,6997.806487,1.000000,0.775629,1.000000,-0.072951
34.200000,2.984507,0.082057,0.425627,22.003653,1.121190,-0.149259,503.047546,23.792419,0.000000,41.657775,44.970728,6997.806487,-0.590297,-1.000000,0.453891,0.727634
34.300000,3.038466,0.072614,0.425439,21.929617,0.578246,-0.950455,503.316010,24.062592,0.000000,41.657755,44.970728,6997.775520,-1.000000,-1.000000,-0.532643,0.576989
34.400000,3.101696,0.059333,0.417457,21.850732,0.934876,-1.990696,503.586395,24.334686,0.000000,41.657736,44.970728,6997.775520,-0.906389,1.000000,-1.000000,-0.164547
34.500000,3.161792,0.046558,0.405642,21.735286,1.337820,-2.936519,503.900024,24.649872,0.000000,41.657717,44.970727,6997.744844,1.000000,-0.523984,1.000000,0.372447
34.600000,3.223974,0.034789,0.390970,21.522019,0.866856,-3.861366,504.232391,24.983917,0.000000,41.657697,44.970725,6997.744844,0.640512,0.108736,0.771391,0.258542
34.700000,3.287637,0.024101,0.373890,21.241009,0.297285,-4.838764,504.511658,25.264832,0.000000,41.657678,44.970723,6997.713752,-1.000000,-0.845071,0.267463,0.856986
34.800000,3.350520,0.013606,0.356167,20.934616,0.239343,-5.862273,504.752838,25.507568,0.000000,41.657659,44.970721,6997.713752,0.003995,-1.000000,0.018931,0.985144
34.900000,3.422916,0.000692,0.335157,20.503105,0.171972,-7.083152,505.016815,25.773224,0.000000,41.657640,44.970718,6997.683242,-0.008517,-1.000000,-1.000000,1.000000
35.000000,3.498583,-0.012351,0.311904,19.938668,-0.276059,-8.312956,505.251434,26.009491,0.000000,41.657621,44.970715,6997.683242,0.736119,-0.513113,-0.482065,-1.000000
35.100000,3.561489,-0.020887,0.292097,19.398539,-0.911906,-9.189894,505.415649,26.175232,0.000000,41.657602,44.970712,6997.655384,0.344580,1.000000,-1.000000,-0.001136
35.200000,3.608911,-0.023595,0.277936,18.965903,-1.678504,-9.678884,505.515686,26.276917,0.000000,41.657583,44.970709,6997.655384,1.000000,0.537764,-0.875095,-1.000000
35.300000,3.634703,-0.020336,0.271985,18.715993,-2.672293,-9.710723,505.529694,26.292511,0.000000,41.657564,44.970705,6997.629474,1.000000,-1.000000,-0.030090,-0.869185
35.400000,3.637232,-0.011856,0.274523,18.688376,-3.628299,-9.317805,505.453003,26.217346,0.000000,41.657545,44.970702,6997.629474,0.589771,-0.339925,-0.266992,1.000000
35.500000,3.628059,-0.001305,0.281563,18.779989,-4.278639,-8.770431,505.300171,26.066101,0.000000,41.657527,44.970698,6997.605182,-0.150179,-0.950302,1.000000,0.981406
35.600000,3.621811,0.005774,0.286996,18.861036,-4.403019,-8.363062,505.119537,25.887054,0.000000,41.657508,44.970694,6997.605182,-1.000000,-0.284145,-1.000000,-1.000000
35.700000,3.613969,0.010162,0.292411,18.970036,-4.298257,-7.876735,504.960114,25.729156,0.000000,41.657490,44.970690,6997.583998,1.000000,0.011856,-1.000000,-0.281533
35.800000,3.592183,0.015889,0.301442,19.172272,-4.420187,-7.056313,504.785980,25.556549,0.000000,41.657472,44.970685,6997.583998,0.142802,1.000000,0.495151,1.000000
