t,yaw,pitch,roll,speed.x,speed.y,speed.z,altBar,altRad,egt,myloclat,myloclon,weightlb,collective,bank,pitch,rudder
51.300000,4.845384,0.271475,-0.054046,-0.453848,0.277039,0.236220,481.413086,1.718262,0.000000,41.659547,44.966455,6996.380061,1.000000,0.623294,0.942712,0.607319
0.000000,5.375005,0.027157,0.000000,0.000000,0.000000,0.000000,481.204865,1.510040,0.000000,41.659724,44.965707,7008.602206,-0.275327,-0.874271,-0.985271,0.095776
0.100000,5.375059,0.031623,0.000730,-0.092615,0.517165,0.016088,481.239288,1.544464,0.000000,41.659724,44.965707,7004.964901,1.000000,0.195666,1.000000,0.431506
0.200000,5.375629,0.037029,0.001643,-0.065195,0.006817,0.018178,481.263031,1.568207,0.000000,41.659724,44.965707,7004.964901,1.000000,-0.282297,0.214448,-0.368536
0.300000,5.375434,0.039270,0.001495,-0.015400,-0.014507,-0.014134,481.258606,1.563782,0.000000,41.659724,44.965707,7000.556034,0.169829,-0.928398,1.000000,0.626394
0.400000,5.375280,0.038384,0.000549,0.041611,0.036769,-0.011967,481.261475,1.566650,0.000000,41.659724,44.965707,7000.556034,1.000000,0.359138,0.093239,-0.467628
0.500000,5.375575,0.034668,0.000018,0.077902,0.099179,-0.000231,481.267792,1.572968,0.000000,41.659724,44.965707,7000.556034,-1.000000,0.296092,-0.266666,1.000000
0.600000,5.377044,0.029458,-0.000054,0.091905,0.067024,-0.011921,481.277039,1.582214,0.000000,41.659724,44.965707,7000.556034,1.000000,-1.000000,0.563913,0.733218
0.700000,5.382804,0.024889,-0.000303,0.065577,-0.094280,-0.064238,481.276733,1.581909,0.000000,41.659724,44.965707,7000.541649,0.730728,1.000000,0.460085,1.000000
0.800000,5.388004,0.025785,-0.002914,-0.077221,-0.058621,-0.023590,481.265045,1.570251,0.000000,41.659724,44.965707,7000.541649,0.675338,0.223406,-0.215127,0.001341
0.900000,5.390039,0.032257,-0.001908,-0.122403,-0.038276,0.047351,481.261841,1.567017,0.000000,41.659724,44.965707,7000.527596,1.000000,0.231563,0.492243,0.721175
1.000000,5.389823,0.039207,0.000516,-0.097198,-0.061712,0.033298,481.256134,1.561310,0.000000,41.659724,44.965707,7000.527596,1.000000,0.645150,-0.623416,0.113882
1.100000,5.387731,0.042665,0.001267,-0.011707,0.096359,0.033317,481.255524,1.560699,0.000000,41.659724,44.965707,7000.512838,-1.000000,-0.434854,0.150670,-0.660183
1.200000,5.383091,0.043989,0.003549,-0.024550,0.270634,0.028196,481.276733,1.581909,0.000000,41.659724,44.965707,7000.512838,-0.825263,-0.356928,0.634382,0.805113
1.300000,5.379346,0.043968,0.003862,-0.009750,0.059919,0.013341,481.297791,1.602966,0.000000,41.659724,44.965707,7000.496546,1.000000,0.169155,0.165751,-0.168456
1.400000,5.379160,0.042932,0.002738,0.016805,-0.242938,-0.012769,481.290253,1.595428,0.000000,41.659724,44.965707,7000.496546,1.000000,-0.476193,1.000000,-0.172879
1.500000,5.378313,0.042271,0.001270,-0.020092,-0.122408,-0.022908,481.263458,1.568634,0.000000,41.659724,44.965707,7000.480337,0.594160,-0.254257,0.824594,-0.077735
1.600000,5.377720,0.047003,0.000918,-0.079849,0.135133,-0.010207,481.270233,1.575409,0.000000,41.659724,44.965707,7000.480337,-0.493058,1.000000,0.353760,1.000000
1.700000,5.380900,0.050483,0.000331,-0.040324,0.177400,-0.022084,481.283630,1.588806,0.000000,41.659724,44.965707,7000.464004,-0.534197,1.000000,-1.000000,0.909569
1.800000,5.391553,0.051013,0.000103,-0.011747,0.270625,-0.073112,481.308502,1.613678,0.000000,41.659724,44.965707,7000.464004,0.241146,-1.000000,0.331511,0.152137
1.900000,5.409954,0.049600,0.000037,0.014948,0.367566,-0.101901,481.337921,1.643097,0.000000,41.659724,44.965707,7000.446053,-1.000000,0.803876,0.764440,0.539326
2.000000,5.433491,0.046007,0.001102,0.062952,0.737581,-0.147536,481.388611,1.693787,0.000000,41.659724,44.965707,7000.446053,-1.000000,-0.060100,-1.000000,0.976923
2.100000,5.462567,0.039329,0.002357,0.168358,1.652224,-0.219713,481.503174,1.808350,0.000000,41.659724,44.965707,7000.427938,-0.969707,-0.012709,-1.000000,0.177713
2.200000,5.499490,0.027898,0.003130,0.249402,2.320038,-0.272838,481.715759,2.020935,0.000000,41.659724,44.965706,7000.427938,0.419764,1.000000,0.952436,-0.557026
2.300000,5.535837,0.014465,0.003484,0.258000,2.132208,-0.235873,481.947205,2.252380,0.000000,41.659724,44.965706,7000.409366,-0.693487,-0.406901,-0.871542,-1.000000
2.400000,5.561268,0.001422,0.005956,0.281443,1.926924,-0.174902,482.138641,2.443817,0.000000,41.659724,44.965706,7000.409366,-0.299871,-0.782182,-0.454969,1.000000
2.500000,5.586337,-0.013205,0.009847,0.318298,1.674664,-0.183765,482.328094,2.633270,0.000000,41.659724,44.965705,7000.388846,1.000000,0.077058,0.502600,0.129328
2.600000,5.619377,-0.027449,0.010582,0.333832,0.924515,-0.193519,482.462311,2.767487,0.000000,41.659724,44.965705,7000.388846,1.000000,0.412049,0.062398,1.000000
2.700000,5.657801,-0.039463,0.007078,0.354747,0.031427,-0.193973,482.506104,2.811279,0.000000,41.659725,44.965704,7000.366667,-0.987830,-1.000000,-1.000000,-0.064816
2.800000,5.704025,-0.050529,-0.000274,0.415644,-0.568995,-0.195706,482.472351,2.777527,0.000000,41.659725,44.965704,7000.366667,-0.170274,1.000000,1.000000,-0.342666
2.900000,5.746775,-0.060259,-0.004836,0.522448,-0.493181,-0.145845,482.410278,2.715454,0.000000,41.659725,44.965704,7000.342457,-0.514266,-0.098854,-1.000000,-0.811569
3.000000,5.777387,-0.068771,-0.001004,0.631447,-0.465762,-0.077603,482.366150,2.671326,0.000000,41.659726,44.965703,7000.342457,1.000000,0.739138,1.000000,-0.634393
3.100000,5.800675,-0.076839,0.009699,0.732199,-0.875213,-0.006971,482.292755,2.597931,0.000000,41.659726,44.965703,7000.315885,-0.527687,-0.098133,-0.794410,0.139831
3.200000,5.821754,-0.083604,0.022979,0.837794,-1.241922,0.068864,482.177734,2.482910,0.000000,41.659727,44.965703,7000.315885,1.000000,1.000000,-1.000000,-1.000000
3.300000,5.839336,-0.088555,0.036801,0.940846,-1.470017,0.135878,482.039001,2.344177,0.000000,41.659727,44.965702,7000.289644,-0.712906,-0.712968,1.000000,0.778657
3.400000,5.859897,-0.092171,0.049922,1.053386,-1.410396,0.175695,481.876404,2.181580,0.000000,41.659728,44.965702,7000.289644,0.111338,-1.000000,0.233333,0.763177
3.500000,5.886683,-0.093971,0.058599,1.167752,-1.308362,0.190185,481.735352,2.040527,0.000000,41.659729,44.965702,7000.262200,1.000000,0.002213,-0.779316,-0.688789
3.600000,5.913553,-0.093823,0.062799,1.198392,-1.734307,0.188901,481.577087,1.882263,0.000000,41.659730,44.965702,7000.262200,0.523899,-0.281077,0.200228,1.000000
3.700000,5.940487,-0.084208,0.043397,0.547671,-1.109252,-0.365323,481.410309,1.715485,0.000000,41.659731,44.965702,7000.233140,-0.292254,-0.862378,-0.373878,1.000000
3.800000,5.966792,-0.057581,0.012008,-0.282237,0.183275,-0.813739,481.376251,1.681427,0.000000,41.659730,44.965701,7000.233140,-0.981879,1.000000,-0.619351,0.848655
3.900000,5.994925,-0.028775,-0.010419,-0.197303,0.391117,-0.837753,481.407104,1.712280,0.000000,41.659730,44.965700,7000.205946,0.359247,0.288199,0.381501,-0.244367
4.000000,6.024279,-0.001516,-0.026119,-0.127708,0.323000,-0.807906,481.447296,1.752472,0.000000,41.659730,44.965699,7000.205946,-0.175242,0.904154,-0.468416,-1.000000
4.100000,6.041464,0.022674,-0.032842,-0.103269,-0.069790,-0.718252,481.457306,1.762482,0.000000,41.659730,44.965698,7000.181114,0.460026,0.340136,-0.987494,-1.000000
4.200000,6.038420,0.042255,-0.029496,-0.088703,-0.382111,-0.638068,481.432373,1.737549,0.000000,41.659730,44.965697,7000.181114,-0.203770,0.023873,-0.684843,1.000000
4.300000,6.026231,0.059731,-0.019967,-0.094403,-0.787220,-0.631914,481.372437,1.677612,0.000000,41.659729,44.965696,7000.158231,1.000000,0.285864,-0.581017,0.212592
4.400000,6.016941,0.073048,-0.011431,-0.123557,-0.720965,-0.382292,481.279694,1.584869,0.000000,41.659729,44.965696,7000.158231,-0.620185,0.726648,-1.000000,0.680932
4.500000,6.013017,0.076845,-0.016718,0.016238,0.418101,0.072683,481.266388,1.571564,0.000000,41.659729,44.965696,7000.138333,-1.000000,0.239732,-1.000000,0.273217
4.600000,6.015772,0.074506,-0.008095,0.064937,0.641913,0.098570,481.329254,1.634430,0.000000,41.659729,44.965696,7000.138333,1.000000,0.095668,0.388999,0.515204
4.700000,6.021218,0.068680,0.000671,0.037776,0.171502,0.100772,481.372833,1.678009,0.000000,41.659729,44.965696,7000.119844,-0.424426,-0.796654,-0.662573,-0.299849
4.800000,6.025755,0.061175,0.007968,0.026360,-0.169049,0.126477,481.368744,1.673920,0.000000,41.659729,44.965696,7000.119844,-1.000000,0.263734,-0.559054,0.105088
4.900000,6.029180,0.050148,0.016211,0.095245,0.307464,0.121656,481.368530,1.673706,0.000000,41.659729,44.965696,7000.101521,-1.000000,-0.525628,-0.176448,0.277894
5.000000,6.034126,0.034117,0.024024,0.199452,1.078966,0.113991,481.449432,1.754608,0.000000,41.659730,44.965696,7000.101521,-0.056460,0.815184,-0.802799,-1.000000
5.100000,6.032441,0.016349,0.031593,0.236796,1.001053,0.208519,481.554565,1.859741,0.000000,41.659730,44.965697,7000.084027,0.539427,-0.043023,-0.053201,-1.000000
5.200000,6.015543,-0.002701,0.041934,0.251005,0.446244,0.340021,481.627014,1.932190,0.000000,41.659730,44.965697,7000.084027,-0.157017,0.145526,1.000000,1.000000
5.300000,5.994404,-0.021250,0.051298,0.279623,-0.140360,0.409986,481.640778,1.945953,0.000000,41.659730,44.965697,7000.065621,1.000000,-0.643807,-0.477350,-1.000000
5.400000,5.977656,-0.037854,0.057379,0.323922,-0.743385,0.493291,481.595856,1.901031,0.000000,41.659731,44.965698,7000.065621,0.245591,-0.351839,1.000000,0.536093
5.500000,5.961896,-0.053841,0.061329,0.333905,-1.293682,0.510069,481.481750,1.786926,0.000000,41.659731,44.965698,7000.044935,1.000000,1.000000,-0.246236,-0.108732
5.600000,5.947393,-0.058377,0.045160,-0.199590,-0.618601,-0.143979,481.365906,1.671082,0.000000,41.659731,44.965698,7000.044935,1.000000,-0.016540,0.690585,-1.000000
5.700000,5.937966,-0.035678,0.016100,-0.530859,-0.133652,-0.456902,481.345398,1.650574,0.000000,41.659730,44.965698,7000.022549,0.256960,-0.960782,-1.000000,1.000000
5.800000,5.937288,-0.000236,-0.004440,-0.598876,-0.426873,-0.319149,481.316040,1.621216,0.000000,41.659730,44.965698,7000.022549,-0.890108,0.651927,-0.953141,-0.524834
5.900000,5.944867,0.035104,-0.007027,-0.595696,-0.092304,-0.108272,481.284149,1.589325,0.000000,41.659729,44.965698,6999.998256,0.402853,-0.512786,0.093705,0.534476
6.000000,5.954181,0.063328,-0.002565,-0.504964,0.171023,0.065398,481.290894,1.596069,0.000000,41.659729,44.965698,6999.998256,0.195519,-0.155799,0.353209,0.833007
6.100000,5.967281,0.087878,0.000748,-0.453892,0.260677,0.110215,481.303986,1.609161,0.000000,41.659728,44.965698,6999.972347,-1.000000,-0.104933,-0.353238,-1.000000
6.200000,5.979296,0.107169,0.006491,-0.360066,0.451407,0.164925,481.337982,1.643158,0.000000,41.659728,44.965698,6999.972347,1.000000,-0.569750,-1.000000,-0.047130
6.300000,5.981347,0.123382,0.009332,-0.307668,0.202141,0.130989,481.368561,1.673737,0.000000,41.659728,44.965698,6999.947557,0.455895,-1.000000,-1.000000,-0.846958
6.400000,5.977307,0.137274,0.012081,-0.220906,-0.015894,-0.013991,481.369171,1.674347,0.000000,41.659728,44.965699,6999.947557,0.398926,0.771750,0.686474,0.907067
6.500000,5.974319,0.146307,0.008386,-0.070684,0.166272,-0.107898,481.374634,1.679810,0.000000,41.659727,44.965699,6999.923471,0.112437,1.000000,1.000000,-1.000000
6.600000,5.972099,0.149850,0.002937,-0.023038,0.210929,-0.090424,481.391418,1.696594,0.000000,41.659727,44.965698,6999.923471,-1.000000,0.544133,1.000000,0.571195
6.700000,5.968712,0.149117,0.000378,-0.041574,0.664837,-0.105128,481.428558,1.733734,0.000000,41.659727,44.965698,6999.899925,-1.000000,-1.000000,-0.586447,1.000000
6.800000,5.971662,0.143256,-0.000774,-0.056929,1.478320,-0.176081,481.543640,1.848816,0.000000,41.659727,44.965698,6999.899925,-0.217033,0.263115,-0.212941,0.210521
6.900000,5.980497,0.134267,-0.001957,-0.117015,1.671548,-0.195870,481.694244,1.999420,0.000000,41.659727,44.965698,6999.878368,-0.757139,-1.000000,0.454443,-0.860218
7.000000,5.987137,0.122053,-0.001452,-0.164047,2.011956,-0.144558,481.872833,2.178009,0.000000,41.659726,44.965698,6999.878368,-1.000000,0.174656,-0.996763,-1.000000
7.100000,5.979670,0.106243,0.005268,-0.164513,2.737604,-0.077596,482.113251,2.418427,0.000000,41.659726,44.965698,6999.858263,-0.645616,0.289711,0.081669,-0.965517
7.200000,5.960388,0.088084,0.017936,-0.194270,3.074712,-0.049014,482.396515,2.701691,0.000000,41.659726,44.965698,6999.858263,0.142788,1.000000,0.146369,0.426068
7.300000,5.937528,0.067425,0.032518,-0.272215,2.777331,-0.056088,482.696136,3.001312,0.000000,41.659725,44.965698,6999.838364,0.484977,0.914576,-0.127077,0.029055
7.400000,5.920394,0.046882,0.044591,-0.353571,2.104553,-0.042325,482.942780,3.247955,0.000000,41.659725,44.965698,6999.838364,-0.021176,1.000000,0.733780,-0.144879
7.500000,5.907862,0.028418,0.054680,-0.398797,1.549628,0.021657,483.114838,3.420013,0.000000,41.659724,44.965698,6999.817015,0.068998,0.455264,-0.459796,-0.443851
7.600000,5.894972,0.010053,0.068568,-0.416093,0.952695,0.142232,483.242432,3.547607,0.000000,41.659724,44.965699,6999.817015,1.000000,-1.000000,0.221881,-1.000000
7.700000,5.877239,-0.006528,0.087984,-0.408696,0.236167,0.296932,483.298584,3.603760,0.000000,41.659724,44.965699,6999.793551,-1.000000,1.000000,-0.521426,-0.112997
7.800000,5.858562,-0.021345,0.109018,-0.335606,0.043418,0.423833,483.302765,3.607941,0.000000,41.659724,44.965700,6999.793551,-0.992765,0.453825,-0.215419,0.313232
7.900000,5.845250,-0.039734,0.134095,-0.158572,0.453818,0.568903,483.323212,3.628387,0.000000,41.659723,44.965700,6999.767435,0.555259,-0.411101,0.475700,-1.000000
8.000000,5.836853,-0.061136,0.163027,-0.030818,0.423109,0.757248,483.359680,3.664856,0.000000,41.659724,44.965701,6999.767435,-0.912062,0.831165,0.337669,1.000000
8.100000,5.836213,-0.082635,0.188505,0.098815,0.650283,0.905397,483.390228,3.695404,0.000000,41.659724,44.965702,6999.740655,-0.563800,-1.000000,-0.374764,1.000000
8.200000,5.850489,-0.108523,0.210815,0.306118,1.354723,1.017650,483.468719,3.773895,0.000000,41.659724,44.965703,6999.740655,-1.000000,0.475217,0.461122,-0.314974
8.300000,5.874859,-0.136859,0.227508,0.540709,2.334238,1.168745,483.618408,3.923584,0.000000,41.659725,44.965705,6999.712838,-1.000000,-0.205620,1.000000,-1.000000
8.400000,5.895132,-0.161128,0.244620,0.701925,3.068506,1.395594,483.838135,4.143311,0.000000,41.659727,44.965707,6999.712838,0.341692,0.507990,-0.805302,-1.000000
8.500000,5.906884,-0.180606,0.267739,0.872550,3.017116,1.667830,484.085876,4.391052,0.000000,41.659728,44.965709,6999.683032,0.575264,-0.229164,-1.000000,1.000000
8.600000,5.917009,-0.196126,0.289532,1.077010,2.494024,1.897981,484.283722,4.588898,0.000000,41.659730,44.965712,6999.683032,-0.173331,0.226257,0.817564,-0.147180
8.700000,5.935213,-0.210656,0.303349,1.330196,2.180399,2.117421,484.410889,4.716064,0.000000,41.659732,44.965714,6999.653226,-0.827351,-0.315397,-0.197037,-0.410146
8.800000,5.958607,-0.225284,0.314910,1.643546,2.178681,2.377293,484.519989,4.825165,0.000000,41.659734,44.965717,6999.653226,1.000000,0.821647,0.111845,-0.099330
8.900000,5.986463,-0.238637,0.322584,1.970089,1.721391,2.618967,484.583893,4.889069,0.000000,41.659736,44.965720,6999.622757,-0.605922,-1.000000,-1.000000,0.722165
9.000000,6.021633,-0.251647,0.320752,2.346515,1.385860,2.788587,484.587433,4.892609,0.000000,41.659738,44.965723,6999.622757,-0.568873,0.187565,-1.000000,0.838490
9.100000,6.068414,-0.267681,0.301243,2.850070,1.276029,2.901248,484.559937,4.865112,0.000000,41.659741,44.965727,6999.590712,0.279252,-0.465780,0.851644,-0.302760
9.200000,6.120455,-0.284793,0.262896,3.376541,1.191871,2.980586,484.505829,4.811005,0.000000,41.659744,44.965730,6999.590712,-1.000000,0.856417,0.397694,0.247063
9.300000,6.169814,-0.299639,0.218263,3.856278,1.144623,3.013756,484.445587,4.750763,0.000000,41.659747,44.965734,6999.559165,0.576448,-1.000000,-1.000000,0.190355
9.400000,6.224209,-0.313239,0.167868,4.373800,1.025684,3.000841,484.366058,4.671265,0.000000,41.659750,44.965738,6999.559165,-1.000000,1.000000,0.493081,-1.000000
9.500000,6.269488,-0.322965,0.123572,4.877461,1.046436,3.011688,484.271637,4.576813,0.000000,41.659754,44.965742,6999.527742,-0.198982,-1.000000,0.768974,-1.000000
9.600000,0.012866,-0.328527,0.092580,5.301033,1.260206,3.061595,484.194031,4.499207,0.000000,41.659758,44.965747,6999.527742,0.420907,-0.531652,-0.989475,0.951625
9.700000,0.032551,-0.331756,0.065161,5.697262,0.809092,3.053998,484.091339,4.396515,0.000000,41.659763,44.965752,6999.497811,0.136767,-0.301593,0.454713,1.000000
9.800000,0.058152,-0.333150,0.033362,6.102537,0.369763,2.895962,483.932404,4.237579,0.000000,41.659767,44.965756,6999.497811,-1.000000,-1.000000,0.468498,1.000000
9.900000,0.091024,-0.331607,-0.003732,6.478493,0.174646,2.652613,483.758423,4.063629,0.000000,41.659772,44.965761,6999.471653,1.000000,1.000000,0.370569,-0.631215
10.000000,0.125862,-0.325289,-0.040663,6.842935,-0.237578,2.428287,483.543732,3.848907,0.000000,41.659777,44.965766,6999.471653,-0.138672,-0.663973,1.000000,-1.000000
10.100000,0.147103,-0.314407,-0.063011,7.140225,-0.758620,2.346752,483.280121,3.585297,0.000000,41.659782,44.965771,6999.448148,0.238836,-0.151151,0.439313,-0.649036
10.200000,0.149948,-0.299102,-0.064430,7.310147,-0.967141,2.354989,483.004608,3.309784,0.000000,41.659787,44.965776,6999.448148,-0.093904,-0.357465,1.000000,0.063468
10.300000,0.143981,-0.275346,-0.047769,7.381693,-0.777336,2.412315,482.712830,3.018005,0.000000,41.659792,44.965781,6999.425887,-0.490732,1.000000,-0.203154,-1.000000
10.400000,0.130675,-0.242377,-0.013520,7.411103,-0.264103,2.546182,482.475555,2.780762,0.000000,41.659797,44.965786,6999.425887,-0.238146,1.000000,-1.000000,0.828919
10.500000,0.118921,-0.206382,0.026145,7.513707,0.094595,2.667615,482.309174,2.614319,0.000000,41.659803,44.965791,6999.405988,-0.374781,-1.000000,-0.685767,0.266919
10.600000,0.114516,-0.169030,0.065591,7.728669,0.537170,2.710989,482.179230,2.484406,0.000000,41.659809,44.965797,6999.405988,-1.000000,0.124972,1.000000,0.951399
10.700000,0.117408,-0.137013,0.095808,8.025580,1.310050,2.683736,482.129822,2.434998,0.000000,41.659815,44.965802,6999.387209,-0.441562,0.619318,1.000000,-0.774723
10.800000,0.122282,-0.112593,0.117520,8.265497,1.586423,2.707334,482.150024,2.455200,0.000000,41.659822,44.965808,6999.387209,0.573725,-0.915207,-0.851467,0.981988
10.900000,0.131215,-0.091288,0.133916,8.460515,1.273906,2.712782,482.173798,2.478973,0.000000,41.659828,44.965814,6999.368596,-0.847640,0.056029,0.230316,0.824803
11.000000,0.150041,-0.074834,0.136827,8.666310,1.002120,2.617989,482.177216,2.482422,0.000000,41.659835,44.965820,6999.368596,0.320663,-0.040408,-0.084293,-1.000000
11.100000,0.171091,-0.062565,0.127355,8.832478,0.565852,2.578587,482.165619,2.470795,0.000000,41.659842,44.965826,6999.349402,0.615634,-1.000000,-0.164604,-0.982977
11.200000,0.184695,-0.050151,0.111350,8.936824,-0.241930,2.672753,482.099060,2.404236,0.000000,41.659848,44.965832,6999.349402,0.396200,1.000000,0.845415,-0.425189
11.300000,0.187204,-0.037686,0.091803,8.983370,-0.959928,2.810410,481.966797,2.271973,0.000000,41.659855,44.965839,6999.327887,0.235112,-1.000000,-1.000000,0.873306
11.400000,0.188546,-0.026584,0.069726,9.009224,-1.573873,2.839691,481.797852,2.103027,0.000000,41.659862,44.965845,6999.327887,1.000000,-0.454461,1.000000,0.737559
11.500000,0.202034,-0.016328,0.042744,9.044739,-2.499158,2.679239,481.557312,1.862457,0.000000,41.659869,44.965852,6999.303470,1.000000,1.000000,0.747486,1.000000
11.600000,0.230312,-0.006610,0.011394,8.431440,-2.339973,2.095275,481.249817,1.554993,0.000000,41.659875,44.965858,6999.303470,-0.072114,0.060236,-1.000000,-1.000000
11.700000,0.260165,-0.000561,0.011533,5.922043,1.050787,1.229016,481.219482,1.524658,0.000000,41.659880,44.965863,6999.278017,0.179047,0.112971,0.222247,-0.622211
11.800000,0.283142,0.006673,0.016948,5.824449,0.905146,1.150088,481.323181,1.628357,0.000000,41.659885,44.965867,6999.278017,-1.000000,-0.702039,-0.050583,0.346890
11.900000,0.302032,0.010871,0.029743,5.933722,1.321449,1.043836,481.430359,1.735535,0.000000,41.659889,44.965871,6999.251319,-0.832592,-0.436171,1.000000,-0.558756
12.000000,0.316847,0.012201,0.039146,5.988305,2.225575,0.921357,481.604706,1.909851,0.000000,41.659893,44.965875,6999.251319,-0.998863,1.000000,0.842139,-0.829308
12.100000,0.321916,0.014967,0.046594,5.953616,2.665297,0.956662,481.868622,2.173798,0.000000,41.659898,44.965879,6999.224084,0.246891,0.294320,1.000000,-0.566005
12.200000,0.317372,0.021432,0.060980,5.902666,2.434964,1.092629,482.139008,2.444214,0.000000,41.659902,44.965884,6999.224084,0.736558,-1.000000,-0.160188,-0.405479
12.300000,0.310766,0.030160,0.080849,5.873448,1.901369,1.200815,482.352295,2.657471,0.000000,41.659906,44.965888,6999.199376,-0.684384,0.156486,-1.000000,1.000000
12.400000,0.310004,0.040372,0.102215,5.871881,1.536650,1.260706,482.531036,2.836243,0.000000,41.659910,44.965893,6999.199376,-0.445537,1.000000,0.822983,-1.000000
12.500000,0.314206,0.049580,0.122148,5.922431,1.773951,1.333484,482.707153,3.012329,0.000000,41.659914,44.965897,6999.175954,-1.000000,1.000000,0.247970,-1.000000
12.600000,0.316370,0.056582,0.148442,5.964941,2.337619,1.532836,482.913147,3.218292,0.000000,41.659918,44.965902,6999.175954,-0.566804,-0.377879,0.552144,-0.532040
12.700000,0.313154,0.063163,0.186738,5.957370,2.610789,1.738400,483.178345,3.483521,0.000000,41.659922,44.965907,6999.150542,0.497017,0.456947,-0.100778,0.062195
12.800000,0.310437,0.068746,0.221135,5.926579,2.390700,1.948708,483.427795,3.732971,0.000000,41.659926,44.965913,6999.150542,-1.000000,0.696637,-1.000000,-0.946233
12.900000,0.305166,0.073480,0.251374,5.907269,2.145917,2.251524,483.634094,3.939270,0.000000,41.659930,44.965918,6999.124301,0.916870,0.712482,-0.002590,-0.895346
13.000000,0.289913,0.078688,0.282922,5.853528,1.729968,2.692961,483.805450,4.110626,0.000000,41.659933,44.965924,6999.124301,1.000000,-0.529365,-0.490611,-1.000000
13.100000,0.264627,0.084519,0.309656,5.712691,1.029752,3.204818,483.900421,4.205627,0.000000,41.659937,44.965931,6999.096734,0.496462,-1.000000,0.937521,0.089191
13.200000,0.239024,0.088934,0.326467,5.559380,0.447780,3.652120,483.908386,4.213562,0.000000,41.659940,44.965937,6999.096734,-0.132649,-0.900355,-0.151695,1.000000
13.300000,0.220350,0.089152,0.328711,5.446861,0.245685,3.971981,483.862122,4.167297,0.000000,41.659944,44.965944,6999.067176,-0.146928,0.948443,-0.767647,0.328068
13.400000,0.214018,0.083875,0.307434,5.408861,-0.002407,4.200490,483.796539,4.101715,0.000000,41.659947,44.965950,6999.067176,1.000000,0.177542,-0.986683,1.000000
13.500000,0.219941,0.074072,0.275749,5.443928,-0.479568,4.335901,483.696259,4.001434,0.000000,41.659950,44.965957,6999.037577,-0.703088,0.173315,0.805357,0.714054
13.600000,0.238529,0.058047,0.237603,5.580678,-0.736583,4.355856,483.555359,3.860504,0.000000,41.659954,44.965964,6999.037577,-0.761952,-1.000000,-0.459797,-0.324345
13.700000,0.261437,0.037989,0.198131,5.775095,-0.559494,4.319824,483.425049,3.730225,0.000000,41.659957,44.965971,6999.008393,0.299878,-1.000000,0.434277,0.464969
13.800000,0.282419,0.017536,0.163368,5.957253,-0.356542,4.289791,483.321655,3.626831,0.000000,41.659960,44.965978,6999.008393,-1.000000,1.000000,0.034080,-1.000000
13.900000,0.299786,-0.004369,0.131554,6.134974,-0.176817,4.291760,483.237183,3.542358,0.000000,41.659964,44.965986,6998.980494,0.571285,0.330972,-1.000000,0.502109
14.000000,0.312299,-0.025798,0.105645,6.280082,-0.282128,4.320339,483.158203,3.463379,0.000000,41.659967,44.965994,6998.980494,0.523272,-1.000000,-1.000000,-1.000000
14.100000,0.319920,-0.044524,0.086724,6.382067,-0.839748,4.381390,483.045441,3.350647,0.000000,41.659970,44.966001,6998.956035,1.000000,0.935352,1.000000,0.023348
14.200000,0.320326,-0.062067,0.073187,6.468584,-1.631997,4.501203,482.849701,3.154846,0.000000,41.659974,44.966009,6998.956035,0.948650,-1.000000,0.695114,-1.000000
14.300000,0.311722,-0.077168,0.066311,6.535862,-2.391225,4.679391,482.563385,2.868561,0.000000,41.659977,44.966017,6998.934189,-0.187356,0.902922,-1.000000,-0.561210
14.400000,0.292790,-0.088710,0.066719,6.558946,-2.493908,4.888027,482.241974,2.547150,0.000000,41.659980,44.966026,6998.934189,0.416967,-0.594715,1.000000,1.000000
14.500000,0.272128,-0.098163,0.069798,6.573765,-2.574466,5.037636,481.894714,2.199860,0.000000,41.659984,44.966034,6998.913420,0.887249,-0.644965,-1.000000,0.968481
14.600000,0.262615,-0.105967,0.069447,6.317858,-2.770557,4.849432,481.508423,1.813599,0.000000,41.659987,44.966042,6998.913420,1.000000,0.562319,-0.428877,-0.149841
14.700000,0.258422,-0.112400,0.087176,2.613757,0.897607,2.265504,481.312286,1.617462,0.000000,41.659989,44.966048,6998.894516,-1.000000,-0.082007,1.000000,0.387317
14.800000,0.260575,-0.132753,0.120361,0.669538,2.764536,0.568165,481.505737,1.810913,0.000000,41.659990,44.966050,6998.894516,-0.528324,1.000000,0.642558,0.667864
14.900000,0.263556,-0.151278,0.143255,0.775209,2.888682,0.553088,481.774445,2.079590,0.000000,41.659991,44.966052,6998.876856,0.025313,1.000000,-0.519033,-1.000000
15.000000,0.264135,-0.168501,0.161921,0.936689,2.736251,0.686437,482.016876,2.322052,0.000000,41.659991,44.966053,6998.876856,-0.368949,-1.000000,1.000000,-0.431848
15.100000,0.252473,-0.184039,0.182876,1.108511,2.507019,0.866952,482.244385,2.549561,0.000000,41.659992,44.966055,6998.859569,0.087644,-1.000000,1.000000,1.000000
15.200000,0.238221,-0.197842,0.199870,1.288387,2.125589,1.035858,482.434113,2.739288,0.000000,41.659993,44.966058,6998.859569,0.570252,0.954806,1.000000,-1.000000
15.300000,0.224313,-0.209064,0.212271,1.468282,1.616497,1.247209,482.556335,2.861542,0.000000,41.659994,44.966060,6998.843651,-0.232663,0.601549,0.817433,0.681094
15.400000,0.208524,-0.219098,0.222828,1.685290,1.272087,1.470371,482.628601,2.933746,0.000000,41.659995,44.966063,6998.843651,-1.000000,0.186693,1.000000,1.000000
15.500000,0.198915,-0.229256,0.226727,1.940014,1.286484,1.641104,482.677887,2.983063,0.000000,41.659996,44.966065,6998.827483,0.555536,0.278014,-0.108967,0.232541
15.600000,0.198246,-0.239440,0.222947,2.185268,1.086580,1.813736,482.707611,3.012787,0.000000,41.659997,44.966068,6998.827483,0.695508,-1.000000,0.551109,-0.187369
15.700000,0.199937,-0.248484,0.215680,2.434092,0.464321,2.068700,482.685455,2.990631,0.000000,41.659999,44.966072,6998.808746,0.547039,0.293247,0.953934,-1.000000
15.800000,0.195456,-0.253152,0.210184,2.669746,-0.098621,2.318956,482.588043,2.893219,0.000000,41.660000,44.966075,6998.808746,-1.000000,-1.000000,-1.000000,0.993119
15.900000,0.193855,-0.254425,0.199191,2.884889,-0.106238,2.428947,482.462891,2.768066,0.000000,41.660001,44.966079,6998.787811,0.682856,-0.023347,1.000000,0.904270
16.000000,0.204174,-0.253421,0.176321,3.141184,-0.201550,2.480638,482.330963,2.636139,0.000000,41.660003,44.966082,6998.787811,0.574296,-0.426804,-1.000000,0.051743
16.100000,0.225090,-0.250334,0.150358,3.423388,-0.862941,2.540109,482.157990,2.463165,0.000000,41.660005,44.966086,6998.764803,1.000000,-0.269950,-1.000000,0.439338
16.200000,0.250660,-0.245383,0.127205,3.683208,-1.476287,2.538905,481.929474,2.234650,0.000000,41.660007,44.966090,6998.764803,-0.758240,0.530418,-0.215915,0.535428
16.300000,0.280831,-0.235750,0.107568,2.890991,-0.588917,1.690528,481.723145,2.028351,0.000000,41.660008,44.966094,6998.739723,0.458755,-0.874940,1.000000,-1.000000
16.400000,0.305845,-0.222952,0.096122,1.929173,0.343840,0.959506,481.647980,1.953125,0.000000,41.660010,44.966096,6998.739723,1.000000,0.490290,-1.000000,-1.000000
16.500000,0.317254,-0.209597,0.088709,1.262567,0.445837,0.600185,481.651794,1.956970,0.000000,41.660011,44.966098,6998.715347,0.400814,-0.207931,-0.804719,0.589296
16.600000,0.324781,-0.195438,0.078528,0.940285,0.209550,0.397814,481.657471,1.962646,0.000000,41.660011,44.966099,6998.715347,-0.839304,0.843025,-0.195625,0.451050
16.700000,0.335942,-0.182020,0.065438,0.951249,0.242903,0.308817,481.656494,1.961670,0.000000,41.660012,44.966100,6998.692091,-0.362964,0.434895,1.000000,-0.206423
16.800000,0.348658,-0.170670,0.055349,0.998946,0.615102,0.243998,481.678253,1.983398,0.000000,41.660013,44.966101,6998.692091,0.593851,0.526589,0.819615,0.463211
16.900000,0.363828,-0.160362,0.044923,1.149791,0.493292,0.234523,481.715454,2.020630,0.000000,41.660013,44.966102,6998.669954,-0.929263,1.000000,-0.406457,0.085515
17.000000,0.384549,-0.151708,0.038174,1.373004,0.597067,0.232939,481.743561,2.048706,0.000000,41.660014,44.966103,6998.669954,-0.833761,-1.000000,0.264775,-0.161587
17.100000,0.403997,-0.146370,0.038820,1.661832,1.361297,0.209063,481.811737,2.116943,0.000000,41.660015,44.966104,7000.184431,-0.963540,0.756979,-1.000000,1.000000
17.200000,0.428327,-0.146252,0.043476,1.955397,1.946784,0.143050,481.959808,2.264984,0.000000,41.660017,44.966105,7000.184431,1.000000,-1.000000,0.162937,0.648272
17.300000,0.459818,-0.149840,0.046694,2.158707,1.635346,0.074172,482.114380,2.419586,0.000000,41.660018,44.966107,7000.165859,0.924422,0.080469,0.136740,1.000000
17.400000,0.495804,-0.154514,0.045616,2.316003,0.921895,0.019309,482.204437,2.509613,0.000000,41.660020,44.966109,7000.165859,1.000000,0.785454,-0.283224,0.459607
17.500000,0.538544,-0.159625,0.040025,2.476575,0.052969,-0.025391,482.213501,2.518677,0.000000,41.660022,44.966111,7000.147080,0.426076,0.491444,-0.583903,-0.591964
17.600000,0.577961,-0.164184,0.033989,2.644096,-0.624131,-0.019803,482.138367,2.443542,0.000000,41.660024,44.966113,7000.147080,-1.000000,0.161750,0.126991,-0.202237
17.700000,0.608245,-0.167430,0.031587,2.800172,-0.673993,-0.044875,482.027191,2.332367,0.000000,41.660025,44.966115,7000.127306,-1.000000,-1.000000,0.548865,0.930138
17.800000,0.641137,-0.169089,0.030505,2.973491,-0.133596,-0.122249,481.941223,2.246399,0.000000,41.660027,44.966117,7000.127306,0.361737,-0.268708,1.000000,-0.801889
17.900000,0.673808,-0.169328,0.031534,3.147110,-0.158125,-0.156417,481.879852,2.185028,0.000000,41.660029,44.966119,7000.105252,-0.298508,0.371178,0.262525,0.382921
18.000000,0.701207,-0.168262,0.035335,3.301493,-0.430386,-0.166282,481.801208,2.106384,0.000000,41.660031,44.966122,7000.105252,0.675673,0.323864,0.317789,-0.771745
18.100000,0.727887,-0.165620,0.040819,3.361610,-0.720853,-0.174991,481.684967,1.990143,0.000000,41.660033,44.966125,7000.081415,1.000000,0.421759,1.000000,0.436324
18.200000,0.757384,-0.161886,0.023591,2.504379,-0.441402,-0.365820,481.573547,1.878723,0.000000,41.660035,44.966127,7000.081415,-0.372572,1.000000,-1.000000,-0.770854
18.300000,0.780918,-0.159230,0.028550,1.207314,0.549727,-0.283202,481.551544,1.856720,0.000000,41.660036,44.966128,7000.056708,-0.492814,-0.906267,0.448973,0.954780
18.400000,0.808133,-0.159594,0.036595,1.205652,0.973988,-0.297706,481.615265,1.920410,0.000000,41.660037,44.966129,7000.056708,-0.731158,0.254598,-0.934550,-0.540892
18.500000,0.837915,-0.163005,0.042027,1.325690,1.202581,-0.290090,481.711304,2.016479,0.000000,41.660038,44.966131,7000.030425,0.051351,-0.254734,0.131746,-0.654845
18.600000,0.857950,-0.167882,0.049005,1.534522,1.041423,-0.228554,481.800049,2.105225,0.000000,41.660039,44.966132,7000.030425,0.544840,-0.066749,1.000000,0.523285
18.700000,0.877041,-0.173856,0.054270,1.719309,0.401784,-0.198346,481.847473,2.152618,0.000000,41.660040,44.966134,7000.002982,0.789883,-0.832315,0.848188,-0.148881
18.800000,0.898099,-0.179514,0.054406,1.898359,-0.228620,-0.149652,481.820251,2.125427,0.000000,41.660041,44.966135,7000.002982,-0.535072,-0.441862,-1.000000,-1.000000
18.900000,0.910224,-0.183378,0.054665,2.014949,-0.358182,-0.066866,481.753357,2.058533,0.000000,41.660042,44.966137,6999.977736,-0.754801,0.363651,0.333051,0.348030
19.000000,0.919205,-0.186200,0.040686,1.783806,0.457334,-0.120183,481.723755,2.028961,0.000000,41.660043,44.966139,6999.977736,-0.222771,0.925194,-0.443674,-0.587182
19.100000,0.927589,-0.189446,0.020899,2.016777,0.950641,-0.091408,481.759979,2.065155,0.000000,41.660043,44.966141,6999.953982,-1.000000,-0.223162,1.000000,0.287513
19.200000,0.933797,-0.193747,0.006863,2.276360,1.198519,-0.082384,481.825256,2.130432,0.000000,41.660045,44.966143,6999.953982,0.193102,0.283733,0.509241,1.000000
19.300000,0.945619,-0.199713,-0.007868,2.527494,1.013329,-0.121004,481.893738,2.198914,0.000000,41.660046,44.966146,6999.930933,0.005326,0.076495,-1.000000,0.201253
19.400000,0.964541,-0.205731,-0.023478,2.747244,0.493397,-0.174283,481.916016,2.221191,0.000000,41.660047,44.966149,6999.930933,1.000000,-1.000000,0.058778,0.499716
19.500000,0.986305,-0.210504,-0.037546,2.942507,-0.145481,-0.253211,481.875854,2.181030,0.000000,41.660048,44.966152,6999.910123,0.690738,0.045265,-1.000000,1.000000
19.600000,1.014871,-0.214191,-0.049339,2.850331,-0.737670,-0.377075,481.758575,2.063751,0.000000,41.660049,44.966155,6999.910123,1.000000,-1.000000,-0.660361,-0.298459
19.700000,1.036572,-0.221085,-0.030588,1.547905,-0.314389,-0.173849,481.651611,1.956787,0.000000,41.660050,44.966157,6999.889810,0.352459,-0.133832,0.495364,0.191883
19.800000,1.055123,-0.231880,-0.032933,0.119622,0.543195,-0.382211,481.647461,1.952667,0.000000,41.660051,44.966157,6999.889810,1.000000,0.827746,-0.178923,-0.181792
19.900000,1.061533,-0.234895,-0.051922,-0.073964,0.380562,-0.273363,481.701172,2.006348,0.000000,41.660051,44.966157,6999.867466,0.300967,0.333135,-0.013806,-0.416322
20.000000,1.060915,-0.233596,-0.058528,-0.031728,0.004107,-0.072619,481.716675,2.021851,0.000000,41.660051,44.966157,6999.867466,-0.616825,0.415659,0.052526,-0.671147
20.100000,1.052982,-0.230086,-0.055913,0.010383,0.137745,0.131366,481.718567,2.023743,0.000000,41.660051,44.966157,6999.845287,-0.914779,1.000000,-0.773370,-0.370511
20.200000,1.037392,-0.227296,-0.046403,0.097425,0.665338,0.362410,481.756622,2.061768,0.000000,41.660051,44.966158,6999.845287,1.000000,1.000000,0.322920,-0.747759
20.300000,1.012421,-0.225313,-0.028208,0.286629,0.285754,0.488099,481.807434,2.112610,0.000000,41.660051,44.966158,6999.824228,0.372877,0.420889,0.278657,-1.000000
20.400000,0.976904,-0.223439,-0.003605,0.487285,-0.318565,0.563373,481.796417,2.101593,0.000000,41.660051,44.966159,6999.824228,0.467689,-1.000000,-1.000000,1.000000
20.500000,0.940650,-0.220145,0.015620,0.286035,-0.579096,0.565092,481.732117,2.037323,0.000000,41.660050,44.966159,6999.804039,0.867606,-1.000000,-0.188575,1.000000
20.600000,0.924467,-0.208378,0.025305,-0.373378,-0.167037,0.144744,481.698547,2.003723,0.000000,41.660050,44.966160,6999.804039,0.769958,-1.000000,0.693470,-0.957894
20.700000,0.916005,-0.187019,0.016929,-0.597594,-0.372663,-0.073609,481.685944,1.991119,0.000000,41.660050,44.966159,6999.785426,0.781849,0.936791,0.035620,-0.504541
20.800000,0.903603,-0.157936,0.002779,-0.601797,-0.658892,-0.011116,481.641449,1.946625,0.000000,41.660050,44.966158,6999.785426,-0.703167,-0.256699,-0.665006,-0.133652
20.900000,0.892883,-0.121287,-0.000563,-0.480034,-0.569322,0.101836,481.584625,1.889801,0.000000,41.660049,44.966158,6999.766523,-1.000000,-0.284664,0.593345,-0.829071
21.000000,0.878376,-0.089096,0.005424,-0.308845,0.186040,0.109363,481.563965,1.869141,0.000000,41.660049,44.966157,6999.766523,-1.000000,1.000000,-0.331518,1.000000
21.100000,0.864366,-0.062016,0.018009,-0.074866,0.864410,0.089842,481.631653,1.936829,0.000000,41.660049,44.966157,6999.746873,0.512572,1.000000,-0.737899,-1.000000
21.200000,0.851859,-0.041132,0.032797,0.060620,0.619125,0.133740,481.712830,2.018005,0.000000,41.660049,44.966157,6999.746873,0.697995,-0.752831,-0.081517,-0.418917
21.300000,0.834937,-0.024734,0.047803,0.123058,0.076615,0.222126,481.744568,2.049744,0.000000,41.660049,44.966157,6999.728343,-0.092929,-0.064878,1.000000,-0.134578
21.400000,0.815739,-0.009959,0.061907,0.158376,-0.486305,0.301773,481.722076,2.027252,0.000000,41.660049,44.966158,6999.728343,1.000000,0.032156,0.619076,0.724021
21.500000,0.802106,0.002098,0.071189,0.177611,-0.970657,0.369888,481.642273,1.947449,0.000000,41.660048,44.966158,6999.710061,-1.000000,1.000000,1.000000,-1.000000
21.600000,0.792597,0.010949,0.075905,0.206016,-1.066155,0.438621,481.540375,1.845551,0.000000,41.660048,44.966159,6999.710061,1.000000,1.000000,-0.712105,1.000000
21.700000,0.787162,0.017489,0.075786,0.227136,-1.319605,0.487214,481.420074,1.725250,0.000000,41.660048,44.966159,6999.689292,-0.037108,-0.811763,-0.659054,1.000000
21.800000,0.792645,0.021079,0.069397,-0.071906,-0.820736,-0.224255,481.290131,1.595306,0.000000,41.660048,44.966159,6999.689292,0.779060,-1.000000,0.485230,-0.279920
21.900000,0.794510,0.029610,0.031422,-0.185654,-0.200879,-0.795922,481.259674,1.564850,0.000000,41.660048,44.966159,6999.666740,0.917968,0.621774,-0.848331,-0.110991
22.000000,0.793536,0.041226,-0.012890,-0.195023,0.023344,-0.494707,481.237671,1.542847,0.000000,41.660049,44.966158,6999.666740,-1.000000,0.744180,0.420292,0.908090
22.100000,0.796708,0.051282,-0.026869,-0.159827,0.494160,-0.060207,481.266541,1.571716,0.000000,41.660049,44.966158,6999.642323,0.388995,0.350701,-0.313535,1.000000
22.200000,0.804853,0.056584,-0.031418,-0.095899,0.618791,-0.071449,481.323853,1.629028,0.000000,41.660049,44.966158,6999.642323,-1.000000,0.697945,-0.793817,-1.000000
22.300000,0.817442,0.058285,-0.034052,-0.052743,0.881302,-0.091930,481.393707,1.698883,0.000000,41.660049,44.966157,6999.616331,-0.436818,0.488038,0.752219,-1.000000
22.400000,0.822334,0.054693,-0.029032,0.016980,1.457591,-0.085001,481.512939,1.818115,0.000000,41.660049,44.966157,6999.616331,-1.000000,0.012027,-0.599143,1.000000
22.500000,0.825543,0.046229,-0.019349,0.103188,2.319168,-0.162975,481.689972,1.995117,0.000000,41.660049,44.966157,6999.592411,-1.000000,0.625116,-0.154958,0.516984
22.600000,0.838323,0.031619,-0.007408,0.186804,3.333322,-0.276994,481.980225,2.285400,0.000000,41.660049,44.966157,6999.592411,-1.000000,-1.000000,-0.677393,0.835802
22.700000,0.862164,0.012500,0.003788,0.205072,3.749674,-0.373045,482.352173,2.657349,0.000000,41.660050,44.966157,6999.570316,0.829244,0.436950,-0.137953,0.771531
22.800000,0.893898,-0.007011,0.010634,0.165634,3.348703,-0.412308,482.697357,3.002533,0.000000,41.660050,44.966157,6999.570316,-0.569130,-0.221007,-0.790213,0.342966
22.900000,0.934425,-0.027560,0.012941,0.138996,2.753257,-0.420579,483.005951,3.311157,0.000000,41.660050,44.966157,6999.548884,-0.263251,0.011305,0.182134,0.797501
23.000000,0.981431,-0.048085,0.010351,0.179798,2.672541,-0.427788,483.278625,3.583801,0.000000,41.660051,44.966157,6999.548884,-0.831920,-0.374106,0.859269,-1.000000
23.100000,1.024393,-0.067485,0.006885,0.228735,2.534830,-0.357059,483.530334,3.835510,0.000000,41.660051,44.966157,6999.526539,0.415462,-0.849319,0.174173,-0.443597
23.200000,1.058253,-0.087100,0.007449,0.292107,2.100833,-0.260768,483.767700,4.072876,0.000000,41.660052,44.966157,6999.526539,0.514695,-0.660256,-0.675056,-1.000000
23.300000,1.081201,-0.105150,0.012830,0.375160,1.376861,-0.167888,483.941132,4.246307,0.000000,41.660052,44.966158,6999.502205,0.333229,0.213987,-0.269245,-0.302678
23.400000,1.095873,-0.120682,0.020837,0.481265,0.640130,-0.095235,484.033325,4.338501,0.000000,41.660052,44.966158,6999.502205,1.000000,0.545585,-1.000000,1.000000
23.500000,1.114860,-0.135676,0.027355,0.611383,-0.265187,-0.074231,484.046021,4.351166,0.000000,41.660052,44.966159,6999.475425,1.000000,-1.000000,-0.943131,1.000000
23.600000,1.146585,-0.148993,0.026795,0.764886,-1.148514,-0.093793,483.962250,4.267456,0.000000,41.660053,44.966160,6999.475425,0.465914,0.046223,-0.796676,1.000000
23.700000,1.187704,-0.159771,0.019480,0.934336,-1.711352,-0.111804,483.810547,4.115753,0.000000,41.660053,44.966160,6999.448024,-0.001178,1.000000,-0.242477,-1.000000
23.800000,1.232519,-0.168942,0.011232,1.130559,-1.911284,-0.089089,483.606018,3.911194,0.000000,41.660053,44.966161,6999.448024,-1.000000,0.644047,-0.028401,-0.146529
23.900000,1.269822,-0.175549,0.010564,1.326492,-1.849609,-0.058944,483.399445,3.704620,0.000000,41.660053,44.966162,6999.419627,1.000000,-0.648933,0.817396,1.000000
24.000000,1.305949,-0.179450,0.012435,1.500767,-1.953898,-0.078321,483.196594,3.501770,0.000000,41.660054,44.966163,6999.419627,-0.821459,-0.157983,1.000000,-0.811328
24.100000,1.343553,-0.180851,0.016001,1.673355,-2.077908,-0.053641,482.964844,3.270020,0.000000,41.660054,44.966165,6999.390899,1.000000,-0.821053,0.670982,-1.000000
24.200000,1.365753,-0.178826,0.026327,1.835872,-2.294367,0.079301,482.716949,3.022125,0.000000,41.660054,44.966166,6999.390899,1.000000,1.000000,-0.343935,-1.000000
24.300000,1.366986,-0.173918,0.042121,1.977851,-2.670827,0.265208,482.447754,2.752899,0.000000,41.660054,44.966168,6999.363994,-0.072022,1.000000,-0.439861,-1.000000
24.400000,1.348474,-0.165137,0.062624,2.096854,-2.940645,0.497395,482.127838,2.433014,0.000000,41.660054,44.966170,6999.363994,1.000000,0.451329,1.000000,-0.614101
24.500000,1.316895,-0.152606,0.081930,2.183084,-3.403377,0.720456,481.773987,2.079163,0.000000,41.660054,44.966172,6999.338790,0.757941,1.000000,1.000000,1.000000
24.600000,1.292057,-0.139070,0.071622,0.748822,-2.507452,0.279274,481.438202,1.743378,0.000000,41.660053,44.966173,6999.338790,-0.033324,-0.224365,0.006514,0.186465
24.700000,1.285192,-0.104776,0.037706,-0.892935,0.491945,-0.759795,481.383789,1.688965,0.000000,41.660054,44.966173,6999.315160,-0.375024,-1.000000,0.871521,-0.412907
24.800000,1.284953,-0.057171,0.001547,-0.752427,0.537713,-0.693076,481.441925,1.747101,0.000000,41.660054,44.966172,6999.315160,-0.444213,-0.739729,0.315208,-0.354709
24.900000,1.278175,-0.019481,-0.017467,-0.598774,0.684801,-0.666042,481.503143,1.808319,0.000000,41.660055,44.966171,6999.294516,-0.315856,0.839349,-0.608552,-0.166722
25.000000,1.266356,0.013496,-0.028687,-0.455790,0.942040,-0.685751,481.581116,1.886292,0.000000,41.660055,44.966170,6999.294516,-1.000000,-0.253575,0.488926,0.809739
25.100000,1.255808,0.039830,-0.034459,-0.359810,1.065711,-0.725759,481.685852,1.991028,0.000000,41.660056,44.966169,6999.275944,0.533380,0.033184,0.318251,-1.000000
25.200000,1.244071,0.060186,-0.035650,-0.331031,0.761689,-0.726020,481.773193,2.078369,0.000000,41.660057,44.966169,6999.275944,0.368126,1.000000,-0.255609,-0.285284
25.300000,1.224010,0.078166,-0.031952,-0.347712,0.145344,-0.712610,481.813812,2.118988,0.000000,41.660057,44.966168,6999.258574,0.266681,-1.000000,0.100680,-0.032818
25.400000,1.202980,0.092779,-0.025125,-0.372632,-0.277993,-0.735664,481.796661,2.101868,0.000000,41.660058,44.966167,6999.258574,-0.889786,0.838466,0.712054,1.000000
25.500000,1.190610,0.102487,-0.016259,-0.348862,0.054691,-0.806478,481.775299,2.080475,0.000000,41.660058,44.966167,6999.242158,-1.000000,0.022050,0.695896,0.599305
25.600000,1.189674,0.106773,-0.004751,-0.310104,0.738867,-0.890307,481.820801,2.125977,0.000000,41.660059,44.966166,6999.242158,0.550469,1.000000,-0.315192,0.899301
25.700000,1.198824,0.106449,0.005359,-0.366221,0.467840,-0.908172,481.884247,2.189423,0.000000,41.660060,44.966165,6999.223669,1.000000,-0.191967,0.595049,-0.788238
25.800000,1.210363,0.103735,0.013370,-0.445035,-0.105010,-0.858085,481.897614,2.202789,0.000000,41.660060,44.966165,6999.223669,-0.406494,-0.878919,0.301227,0.229500
25.900000,1.221985,0.098507,0.021234,-0.495250,-0.415014,-0.814012,481.861176,2.166321,0.000000,41.660061,44.966164,6999.201864,-0.869748,0.964750,-0.214977,0.203278
26.000000,1.240029,0.089292,0.028408,-0.476531,0.083042,-0.815766,481.837006,2.142151,0.000000,41.660062,44.966163,6999.201864,-0.526920,-0.302703,-0.049130,1.000000
26.100000,1.266273,0.076193,0.033802,-0.462011,0.578195,-0.825830,481.870453,2.175629,0.000000,41.660062,44.966163,6999.178483,-0.759266,0.110681,-0.414571,0.973253
26.200000,1.306300,0.058571,0.035174,-0.459473,0.978503,-0.838950,481.948029,2.253174,0.000000,41.660063,44.966162,6999.178483,-0.698203,0.735478,-1.000000,1.000000
26.300000,1.358163,0.037893,0.030480,-0.463204,1.314679,-0.828386,482.070313,2.375488,0.000000,41.660064,44.966161,6999.153320,0.258821,-0.675626,-0.642556,-1.000000
26.400000,1.409564,0.017642,0.021669,-0.500389,0.996338,-0.727415,482.186340,2.491516,0.000000,41.660064,44.966160,6999.153320,0.491556,-0.249298,-0.945077,-1.000000
26.500000,1.455699,-0.002653,0.011636,-0.521596,0.347152,-0.569580,482.255157,2.560333,0.000000,41.660065,44.966160,6999.125835,0.122816,-0.084139,1.000000,-0.733521
26.600000,1.488041,-0.021448,0.005153,-0.488196,-0.128879,-0.448065,482.262451,2.567627,0.000000,41.660065,44.966159,6999.125835,-1.000000,0.050086,1.000000,0.340891
26.700000,1.517751,-0.038776,0.001580,-0.388666,0.130709,-0.433969,482.257965,2.563141,0.000000,41.660066,44.966159,6999.097853,-0.831286,0.288850,-1.000000,0.229499
26.800000,1.560082,-0.058589,-0.001832,-0.215976,1.068566,-0.497418,482.320862,2.626038,0.000000,41.660066,44.966158,6999.097853,-1.000000,0.441568,1.000000,0.992551
26.900000,1.614018,-0.080386,-0.007024,-0.062251,1.809739,-0.547027,482.474518,2.779694,0.000000,41.660067,44.966159,6999.068959,0.765029,-0.300125,0.539140,-1.000000
27.000000,1.669145,-0.100756,-0.013633,0.023613,1.681807,-0.524459,482.646240,2.951416,0.000000,41.660067,44.966159,6999.068959,0.424174,-1.000000,-1.000000,0.582851
27.100000,1.726490,-0.120255,-0.021396,0.107374,1.032444,-0.523764,482.783936,3.089081,0.000000,41.660067,44.966159,6999.038199,0.605652,1.000000,-0.631562,-0.089854
27.200000,1.789533,-0.136624,-0.033885,0.207130,0.226245,-0.528655,482.844696,3.149872,0.000000,41.660068,44.966160,6999.038199,1.000000,0.248010,-0.152218,-1.000000
27.300000,1.841450,-0.149190,-0.043648,0.330974,-0.430793,-0.462575,482.825745,3.130951,0.000000,41.660068,44.966160,6999.007730,-0.526891,0.613253,1.000000,-1.000000
27.400000,1.880700,-0.160343,-0.043584,0.497330,-0.778606,-0.401453,482.753510,3.058685,0.000000,41.660068,44.966161,6999.007730,0.555471,0.306100,-0.607304,0.274019
27.500000,1.913543,-0.169331,-0.034828,0.677444,-0.978205,-0.386681,482.653381,2.958557,0.000000,41.660068,44.966161,6998.976556,-0.479519,0.134077,0.474851,-0.950192
27.600000,1.942438,-0.175783,-0.021768,0.853926,-0.884536,-0.385803,482.545319,2.850494,0.000000,41.660068,44.966162,6998.976556,-1.000000,-0.352075,-0.190565,1.000000
27.700000,1.975984,-0.180440,-0.006536,1.053644,-0.319303,-0.444530,482.469696,2.774872,0.000000,41.660068,44.966163,6998.944304,0.211824,-0.698281,1.000000,-0.336277
27.800000,2.013244,-0.183299,0.004593,1.253445,-0.154030,-0.496830,482.432159,2.737366,0.000000,41.660068,44.966165,6998.944304,0.251848,-0.927442,0.220844,-1.000000
27.900000,2.041259,-0.184375,0.013575,1.426016,-0.598217,-0.437640,482.375580,2.680756,0.000000,41.660068,44.966166,6998.914870,0.846018,0.278686,-0.346749,-1.000000
28.000000,2.052334,-0.183303,0.025483,1.607410,-1.060975,-0.330554,482.260437,2.565613,0.000000,41.660068,44.966168,6998.914870,-0.900246,-0.559195,-0.367103,0.587772
28.100000,2.055458,-0.179455,0.035413,1.783133,-0.795404,-0.309307,482.131104,2.436249,0.000000,41.660067,44.966170,6998.888298,0.293913,0.939208,0.618712,-0.679734
28.200000,2.057454,-0.173249,0.041769,1.954083,-0.593229,-0.271057,482.041016,2.346191,0.000000,41.660066,44.966171,6998.888298,-0.228270,0.970077,-0.674354,-1.000000
28.300000,2.049845,-0.164336,0.049159,2.144083,-0.302912,-0.162482,481.953033,2.258179,0.000000,41.660065,44.966173,6998.863881,-0.947729,1.000000,-0.007626,-0.368339
28.400000,2.031800,-0.154058,0.059053,2.363063,0.169099,-0.062204,481.919037,2.224213,0.000000,41.660064,44.966176,6998.863881,1.000000,-0.820601,-0.878025,0.683983
28.500000,2.015622,-0.144419,0.064430,2.532416,-0.153916,-0.002626,481.887756,2.192932,0.000000,41.660063,44.966178,6998.842490,-0.357770,-0.889629,0.114327,1.000000
28.600000,2.009108,-0.134487,0.059526,2.682690,-0.613669,0.000283,481.811249,2.116425,0.000000,41.660062,44.966181,6998.842490,1.000000,0.966715,0.467757,0.802152
28.700000,2.015191,-0.124341,0.044818,2.807434,-0.880795,-0.044970,481.697021,2.002167,0.000000,41.660061,44.966183,6998.822923,-0.837327,-1.000000,0.391843,0.743950
28.800000,2.031150,-0.113686,0.025580,2.805725,-0.685739,-0.157136,481.580811,1.885986,0.000000,41.660060,44.966186,6998.822923,-0.354234,-1.000000,-0.398546,0.501692
28.900000,2.057505,-0.099764,-0.002721,2.663593,0.381377,-0.350207,481.539246,1.844452,0.000000,41.660058,44.966189,6998.803481,-1.000000,1.000000,-1.000000,-0.399019
29.000000,2.086478,-0.086891,-0.018664,2.848518,0.716766,-0.464840,481.577179,1.882355,0.000000,41.660057,44.966192,6998.803481,0.980762,-0.950189,1.000000,1.000000
