t,yaw,pitch,roll,speed.x,speed.y,speed.z,altBar,altRad,egt,myloclat,myloclon,weightlb,collective,bank,pitch,rudder
0.100000,5.374699,0.031624,0.000931,-0.097073,0.517387,0.032737,481.239288,1.544464,0.000000,41.659724,44.965707,7004.964901,0.210098,-1.000000,-1.000000,-0.615841
0.200000,5.370258,0.037298,0.004907,-0.074816,0.106349,0.058808,481.265533,1.570709,0.000000,41.659724,44.965707,7004.964901,-0.075388,-0.394846,0.160325,0.339956
0.300000,5.367622,0.040939,0.007221,-0.047226,0.132678,-0.007281,481.274109,1.579285,0.000000,41.659724,44.965707,7000.556034,-0.183918,-0.891961,0.178153,-0.262575
0.400000,5.367104,0.043522,0.004288,-0.025213,0.237026,-0.066856,481.293518,1.598694,0.000000,41.659724,44.965707,7000.556034,-0.366822,0.413509,-0.919406,0.827082
0.500000,5.369038,0.043980,0.002154,0.006864,0.245575,-0.081392,481.319489,1.624664,0.000000,41.659724,44.965707,7000.556034,-0.000802,-1.000000,1.000000,-0.637321
0.600000,5.370966,0.042769,0.000414,0.019257,0.027213,-0.067795,481.336700,1.641876,0.000000,41.659724,44.965707,7000.556034,0.856730,-0.149463,-0.799978,-0.911971
0.700000,5.366896,0.040664,0.000012,0.005546,-0.598242,-0.019915,481.308990,1.614166,0.000000,41.659724,44.965707,7000.541649,0.305499,0.763951,-0.404546,0.596263
0.800000,5.363367,0.039287,0.000283,-0.022410,-0.138285,0.013467,481.252411,1.557556,0.000000,41.659724,44.965707,7000.541649,-1.000000,-1.000000,-1.000000,-0.475447
0.900000,5.363194,0.038165,0.001649,0.053293,0.352203,0.033206,481.270111,1.575287,0.000000,41.659724,44.965707,7000.526891,0.561714,0.271930,-1.000000,0.111262
1.000000,5.363255,0.035035,0.002421,0.075060,0.157613,0.025941,481.301514,1.606689,0.000000,41.659724,44.965707,7000.526891,-0.065410,0.966091,0.124664,0.659426
1.100000,5.367859,0.030677,0.001785,0.090023,-0.202912,0.029786,481.297241,1.602417,0.000000,41.659724,44.965707,7000.510101,0.128209,1.000000,-0.098687,-1.000000
1.200000,5.370595,0.027386,0.002792,0.054619,0.067876,0.041127,481.285248,1.590424,0.000000,41.659724,44.965707,7000.510101,-0.904635,-1.000000,0.513221,-0.859203
1.300000,5.365397,0.024633,0.009784,0.120788,0.497427,0.121313,481.313934,1.619141,0.000000,41.659725,44.965707,7000.490037,-0.197210,1.000000,0.280576,-0.510484
1.400000,5.353297,0.019838,0.021553,0.190132,0.798830,0.153403,481.381897,1.687073,0.000000,41.659725,44.965707,7000.490037,-0.861240,-0.183163,-0.047007,1.000000
1.500000,5.345148,0.013188,0.032841,0.258655,0.927357,0.143058,481.466064,1.771271,0.000000,41.659725,44.965707,7000.468522,0.008386,-1.000000,-1.000000,-0.708499
1.600000,5.343632,0.003799,0.043244,0.329813,0.935880,0.164837,481.562592,1.867767,0.000000,41.659725,44.965707,7000.468522,-0.601329,1.000000,0.162560,-0.645260
1.700000,5.343676,-0.007347,0.053809,0.418899,1.202218,0.203260,481.663269,1.968445,0.000000,41.659726,44.965706,7000.445307,-1.000000,-1.000000,1.000000,0.747196
1.800000,5.350026,-0.020345,0.063484,0.548376,2.028336,0.185874,481.813049,2.118225,0.000000,41.659726,44.965706,7000.445307,-1.000000,-1.000000,-0.994372,0.844861
1.900000,5.370226,-0.037978,0.071389,0.708831,3.033979,0.117956,482.069397,2.374573,0.000000,41.659727,44.965706,7000.420061,-1.000000,-1.000000,-1.000000,1.000000
2.000000,5.405867,-0.059539,0.074293,0.859228,3.929398,0.061487,482.420166,2.725342,0.000000,41.659728,44.965705,7000.420061,-1.000000,0.246217,1.000000,-0.344434
2.100000,5.445709,-0.081461,0.072540,0.951018,4.298036,0.081102,482.814362,3.119537,0.000000,41.659729,44.965705,7000.394027,-0.047373,0.534542,-0.011338,-1.000000
2.200000,5.482446,-0.103210,0.070904,1.037865,4.261041,0.187138,483.237610,3.542786,0.000000,41.659730,44.965704,7000.394027,-1.000000,-0.509518,-0.744270,-0.620997
2.300000,5.510941,-0.122832,0.072645,1.135760,3.954761,0.265614,483.643585,3.948761,0.000000,41.659731,44.965704,7000.366584,0.989028,0.807274,0.907671,0.304619
2.400000,5.539203,-0.139370,0.074309,1.235818,3.321829,0.319392,483.973511,4.278656,0.000000,41.659733,44.965703,7000.366584,0.532101,-0.198262,1.000000,-0.524661
2.500000,5.572086,-0.154455,0.075096,1.360085,2.395314,0.387327,484.239655,4.544830,0.000000,41.659734,44.965702,7000.337193,1.000000,0.854917,-0.491648,0.202978
2.600000,5.607325,-0.166757,0.075084,1.522207,1.519385,0.440350,484.406219,4.711395,0.000000,41.659736,44.965702,7000.337193,-1.000000,-0.138047,-1.000000,0.022264
2.700000,5.646154,-0.176659,0.073055,1.726465,1.030190,0.438851,484.493195,4.798370,0.000000,41.659737,44.965701,7000.307718,0.689222,-0.765611,-1.000000,1.000000
2.800000,5.696623,-0.186232,0.065885,1.964765,0.607246,0.386195,484.541168,4.846344,0.000000,41.659739,44.965701,7000.307718,0.182201,-0.214203,0.205146,1.000000
2.900000,5.758787,-0.193924,0.050127,2.198846,0.108405,0.274356,484.531281,4.836426,0.000000,41.659741,44.965700,7000.277539,-0.316743,-0.220109,0.155188,0.997508
3.000000,5.825818,-0.198540,0.027375,2.434697,0.017196,0.117103,484.487915,4.793091,0.000000,41.659743,44.965700,7000.277539,-1.000000,1.000000,-0.037097,0.591902
3.100000,5.900741,-0.200602,-0.000526,2.731679,0.817658,-0.105725,484.469025,4.774200,0.000000,41.659745,44.965699,7000.246448,-1.000000,1.000000,0.053607,-0.112919
3.200000,5.974790,-0.201634,-0.027426,3.043437,1.586978,-0.319035,484.540741,4.845917,0.000000,41.659748,44.965698,7000.246448,0.103800,-0.753600,0.319796,-0.474150
3.300000,6.033762,-0.201772,-0.047333,3.263013,1.407452,-0.439860,484.624084,4.929260,0.000000,41.659751,44.965697,7000.215978,0.692977,-1.000000,0.039509,-0.485577
3.400000,6.081991,-0.200337,-0.060510,3.463879,0.832900,-0.530864,484.663239,4.968384,0.000000,41.659754,44.965696,7000.215978,-0.603621,-0.489118,0.990454,-0.938418
3.500000,6.114977,-0.197885,-0.063224,3.677071,0.446643,-0.601428,484.647461,4.952637,0.000000,41.659757,44.965695,7000.185965,-1.000000,-1.000000,-1.000000,1.000000
3.600000,6.141210,-0.195127,-0.058861,3.894176,0.417136,-0.730948,484.616241,4.921417,0.000000,41.659761,44.965694,7000.185965,1.000000,0.343756,-0.200065,-0.293787
3.700000,6.170651,-0.191444,-0.052244,4.092844,0.009733,-0.867930,484.555206,4.860382,0.000000,41.659764,44.965693,7000.156905,-0.947393,-0.173087,-0.309870,0.206713
3.800000,6.199259,-0.186960,-0.044283,4.285596,-0.254353,-1.006180,484.453918,4.759094,0.000000,41.659768,44.965692,7000.156905,0.561580,0.186952,-0.660419,0.170113
3.900000,6.228877,-0.181986,-0.037883,4.448510,-0.593851,-1.162435,484.336853,4.642029,0.000000,41.659772,44.965691,7000.128840,0.630887,0.199921,-0.229893,1.000000
4.000000,6.264054,-0.175588,-0.035436,4.584708,-1.310295,-1.342364,484.154572,4.459747,0.000000,41.659775,44.965690,7000.128840,0.466138,0.135940,1.000000,0.272692
4.100000,0.018152,-0.167862,-0.037007,4.695516,-1.829483,-1.525764,483.907288,4.212463,0.000000,41.659779,44.965689,7000.102143,-0.007397,0.923785,0.650827,0.661043
4.200000,0.053145,-0.159125,-0.038681,4.778113,-2.017738,-1.693884,483.640381,3.945557,0.000000,41.659783,44.965688,7000.102143,-1.000000,-1.000000,0.868337,-1.000000
4.300000,0.082080,-0.148060,-0.031309,4.868878,-1.176449,-1.765547,483.387695,3.692871,0.000000,41.659788,44.965688,7000.076689,-1.000000,-0.683078,1.000000,0.305695
4.400000,0.098237,-0.135993,-0.009825,5.053683,0.449431,-1.812155,483.279510,3.584686,0.000000,41.659792,44.965687,7000.076689,0.634381,0.198292,-1.000000,1.000000
4.500000,0.104560,-0.126755,0.012506,5.282681,1.076596,-1.855662,483.299347,3.604523,0.000000,41.659797,44.965686,7000.054428,-1.000000,-0.321804,0.356009,0.592201
4.600000,0.111534,-0.119447,0.028585,5.480685,1.053637,-1.911442,483.340729,3.645874,0.000000,41.659802,44.965686,7000.054428,-0.328895,-0.477128,1.000000,0.353073
4.700000,0.120630,-0.114676,0.038239,5.687427,1.349442,-1.940248,483.402679,3.707855,0.000000,41.659808,44.965685,7000.034405,-1.000000,-1.000000,-0.546617,-1.000000
4.800000,0.125060,-0.112216,0.045378,5.869505,1.425103,-1.909396,483.484528,3.789703,0.000000,41.659813,44.965685,7000.034405,0.660714,0.343451,0.212300,1.000000
4.900000,0.128755,-0.110599,0.048051,6.010228,0.910870,-1.877492,483.548248,3.853424,0.000000,41.659819,44.965685,7000.015294,0.198292,-1.000000,0.508845,0.347091
5.000000,0.138167,-0.108901,0.042613,6.114337,0.148633,-1.870252,483.543365,3.848541,0.000000,41.659824,44.965685,7000.015294,1.000000,-0.520477,0.594160,-0.359565
5.100000,0.146134,-0.106501,0.033818,6.201615,-0.697146,-1.802889,483.461151,3.766327,0.000000,41.659830,44.965684,6999.994898,1.000000,-1.000000,0.419978,-0.717486
5.200000,0.144909,-0.102711,0.025328,6.303512,-1.581938,-1.666693,483.280579,3.585754,0.000000,41.659836,44.965684,6999.994898,-1.000000,1.000000,-1.000000,-0.454443
5.300000,0.132115,-0.097745,0.020112,6.425940,-1.943107,-1.472531,483.034851,3.340027,0.000000,41.659841,44.965685,6999.972181,-0.964833,-0.660830,-0.809771,-1.000000
5.400000,0.110597,-0.092008,0.020990,6.567811,-1.344713,-1.270332,482.813080,3.118256,0.000000,41.659847,44.965685,6999.972181,-0.912744,-0.824164,-1.000000,0.540253
5.500000,0.088706,-0.085627,0.027284,6.777073,0.222031,-1.156447,482.698273,3.003448,0.000000,41.659853,44.965685,6999.946852,-1.000000,-0.163386,1.000000,0.558961
5.600000,0.077888,-0.081828,0.032613,7.024441,1.382865,-1.144279,482.730225,3.035400,0.000000,41.659859,44.965686,6999.946852,-0.933641,-0.999979,0.659946,0.965760
5.700000,0.079328,-0.081867,0.034903,7.204989,1.826113,-1.165337,482.839447,3.144623,0.000000,41.659866,44.965687,6999.921979,-0.131377,0.344910,0.632900,-0.536833
5.800000,0.088417,-0.083800,0.036200,7.339585,1.748249,-1.191592,482.968109,3.273285,0.000000,41.659873,44.965687,6999.921979,-0.066292,0.414356,-0.041841,0.564620
5.900000,0.102525,-0.086405,0.036802,7.429469,1.159953,-1.238507,483.059052,3.364227,0.000000,41.659879,44.965688,6999.896194,0.839881,-0.642612,0.765896,0.214689
6.000000,0.122728,-0.088681,0.035091,7.492481,0.427954,-1.343670,483.077301,3.382477,0.000000,41.659886,44.965689,6999.896194,0.431459,0.412865,-0.211970,1.000000
6.100000,0.153370,-0.090616,0.029490,7.549514,-0.225091,-1.531838,483.019043,3.324219,0.000000,41.659893,44.965690,6999.868295,-0.779002,-1.000000,0.174501,-0.107774
6.200000,0.191121,-0.092063,0.021322,7.618876,-0.177009,-1.790752,482.924042,3.229187,0.000000,41.659900,44.965690,6999.868295,-1.000000,-0.491143,1.000000,-0.274653
6.300000,0.227984,-0.093374,0.015375,7.716689,0.710640,-2.068410,482.881042,3.186249,0.000000,41.659907,44.965691,6999.839981,-0.773538,-0.403170,0.074320,0.855442
6.400000,0.270812,-0.095791,0.009701,7.813040,1.311780,-2.390000,482.922028,3.227203,0.000000,41.659914,44.965692,6999.839981,1.000000,0.407957,-1.000000,-1.000000
6.500000,0.311250,-0.098740,0.006453,7.854970,0.994399,-2.609780,482.968781,3.273956,0.000000,41.659921,44.965694,6999.810755,0.571247,0.251237,-0.245630,-0.102183
6.600000,0.341426,-0.101128,0.008362,7.888092,0.416809,-2.748352,482.961212,3.266388,0.000000,41.659928,44.965695,6999.810755,-0.234750,0.275388,-0.149540,-0.393433
6.700000,0.371952,-0.103348,0.013243,7.926655,-0.043751,-2.928944,482.898987,3.204132,0.000000,41.659936,44.965697,6999.780161,0.328249,0.153368,1.000000,1.000000
6.800000,0.408705,-0.105253,0.018318,7.948466,-0.209318,-3.191527,482.800568,3.105743,0.000000,41.659943,44.965698,6999.780161,-1.000000,-0.347748,0.055886,1.000000
6.900000,0.452146,-0.107013,0.021899,7.971114,0.342527,-3.541547,482.725342,3.030548,0.000000,41.659951,44.965700,6999.749692,-0.742905,-1.000000,-0.482036,-0.513763
7.000000,0.500750,-0.110331,0.025747,8.033460,1.346231,-3.919916,482.734833,3.040009,0.000000,41.659959,44.965702,6999.749692,-1.000000,-0.070410,-0.846037,0.903666
7.100000,0.550288,-0.116981,0.029250,8.104064,2.206897,-4.322042,482.833466,3.138641,0.000000,41.659967,44.965704,6999.718684,-0.836234,1.000000,-0.416044,0.945277
7.200000,0.603052,-0.126932,0.030394,8.109481,2.949011,-4.754446,482.999603,3.304779,0.000000,41.659975,44.965707,6999.718684,-0.857324,-0.873677,-1.000000,-1.000000
7.300000,0.659235,-0.140121,0.030070,8.063330,3.484317,-5.166882,483.233398,3.538574,0.000000,41.659983,44.965710,6999.686597,-0.591232,-0.875484,0.500231,1.000000
7.400000,0.712494,-0.155019,0.027318,8.003392,3.969356,-5.556745,483.503662,3.808838,0.000000,41.659992,44.965713,6999.686597,-0.946187,1.000000,0.980885,-0.140208
7.500000,0.762385,-0.170323,0.022418,7.938695,4.732439,-5.910342,483.802307,4.107483,0.000000,41.660001,44.965716,6999.656998,-1.000000,-1.000000,0.014803,-0.191153
7.600000,0.812016,-0.187581,0.018716,7.873764,5.664894,-6.260205,484.193604,4.498779,0.000000,41.660009,44.965720,6999.656998,-1.000000,0.567139,-1.000000,0.360971
7.700000,0.860364,-0.205485,0.016467,7.771494,6.069219,-6.602450,484.645660,4.950836,0.000000,41.660019,44.965725,6999.627565,0.499358,-1.000000,0.009303,-0.152550
7.800000,0.904505,-0.221377,0.014117,7.640683,5.812787,-6.882922,485.056946,5.362122,0.000000,41.660028,44.965730,6999.627565,-1.000000,0.347601,-0.987172,-0.306251
7.900000,0.948199,-0.236571,0.012000,7.541427,5.548865,-7.157010,485.453308,5.758514,0.000000,41.660037,44.965735,6999.596516,0.375553,-1.000000,0.471437,0.264672
8.000000,0.991520,-0.250292,0.009542,7.461553,5.309856,-7.440504,485.814117,6.119293,0.000000,41.660046,44.965740,6999.596516,-0.922120,0.171975,1.000000,1.000000
8.100000,1.036584,-0.261946,0.004980,7.375044,5.212357,-7.747660,486.125275,6.430450,0.000000,41.660055,44.965746,6999.565714,0.020627,0.892619,-0.853100,-0.230601
8.200000,1.087334,-0.273292,0.000344,7.273113,5.204717,-8.078255,486.441467,6.746643,0.000000,41.660065,44.965752,6999.565714,-1.000000,-0.114122,0.256544,-1.000000
8.300000,1.135214,-0.283814,-0.000486,7.203949,5.394201,-8.386023,486.755066,7.060272,0.000000,41.660074,44.965758,6999.534333,-0.363527,0.544238,1.000000,1.000000
8.400000,1.178499,-0.293277,0.002497,7.142119,5.435789,-8.700961,487.063202,7.368378,0.000000,41.660083,44.965765,6999.534333,0.934590,-0.427685,-1.000000,0.523288
8.500000,1.227675,-0.301996,0.002910,7.017420,4.932933,-9.052684,487.360840,7.666016,0.000000,41.660093,44.965772,6999.501584,-1.000000,-0.162874,-1.000000,0.302973
8.600000,1.277118,-0.308957,0.000129,6.908934,4.569510,-9.360483,487.605621,7.910797,0.000000,41.660102,44.965780,6999.501584,0.087041,0.772336,1.000000,-0.367475
8.700000,1.316535,-0.314836,-0.000596,6.891850,4.573920,-9.563507,487.819366,8.124542,0.000000,41.660111,44.965788,6999.469539,-1.000000,-0.840120,0.738337,-1.000000
8.800000,1.342290,-0.320765,0.005607,7.022700,4.553427,-9.673411,488.042755,8.347931,0.000000,41.660120,44.965796,6999.469539,0.194843,0.087380,-1.000000,0.397214
8.900000,1.356167,-0.326770,0.015653,7.264783,4.367697,-9.715399,488.253845,8.559021,0.000000,41.660130,44.965805,6999.438489,-0.670965,1.000000,-0.580034,-1.000000
9.000000,1.357893,-0.332450,0.028467,7.585538,4.004628,-9.639238,488.425232,8.730408,0.000000,41.660139,44.965814,6999.438489,0.706615,-0.237123,0.586400,-0.398624
9.100000,1.342206,-0.337434,0.046792,8.062752,3.314103,-9.417240,488.551971,8.857147,0.000000,41.660148,44.965823,6999.408558,0.544766,-0.604198,0.007818,1.000000
9.200000,1.321663,-0.340864,0.060740,8.580631,2.580328,-9.175121,488.597290,8.902466,0.000000,41.660156,44.965833,6999.408558,-0.825150,-0.749206,-0.605642,-0.906687
9.300000,1.297812,-0.343009,0.070899,9.141679,2.426943,-8.842824,488.586029,8.891205,0.000000,41.660165,44.965843,6999.382525,-0.044392,-0.991295,1.000000,-0.877621
9.400000,1.254830,-0.343809,0.088128,9.883746,2.478614,-8.270675,488.563934,8.869110,0.000000,41.660174,44.965853,6999.382525,1.000000,0.141058,0.441949,-0.048355
9.500000,1.201088,-0.342150,0.108476,10.638487,1.950003,-7.606400,488.499481,8.804657,0.000000,41.660183,44.965864,6999.358895,-0.140134,-0.540356,0.189643,1.000000
9.600000,1.153985,-0.338775,0.121829,11.297119,1.504122,-6.987962,488.375946,8.681122,0.000000,41.660191,44.965874,6999.358895,-1.000000,-1.000000,-0.155823,-0.788016
9.700000,1.104600,-0.333675,0.132701,11.997859,1.682758,-6.275465,488.210175,8.515350,0.000000,41.660200,44.965885,6999.336841,-0.738564,-1.000000,0.438637,0.179448
9.800000,1.051146,-0.327463,0.145281,12.713918,2.347424,-5.493724,488.078430,8.383606,0.000000,41.660208,44.965897,6999.336841,0.072487,0.378621,-0.121708,0.935733
9.900000,1.003985,-0.321236,0.155680,13.289982,2.224791,-4.747026,487.960999,8.266174,0.000000,41.660217,44.965910,6999.317233,0.493240,-1.000000,-0.142709,-0.852134
10.000000,0.957135,-0.313434,0.165214,13.815939,1.630843,-3.934802,487.783020,8.088196,0.000000,41.660225,44.965922,6999.317233,0.976149,0.832773,-0.130647,1.000000
10.100000,0.915836,-0.304616,0.172012,14.275736,0.932892,-3.195086,487.525848,7.831024,0.000000,41.660234,44.965935,6999.298412,-0.016320,1.000000,-0.463843,1.000000
10.200000,0.889745,-0.297364,0.171159,14.650257,0.451737,-2.710970,487.219849,7.525024,0.000000,41.660242,44.965948,6999.298412,-0.310935,-1.000000,0.779480,1.000000
10.300000,0.877707,-0.291913,0.162034,15.016100,0.488026,-2.435954,486.862854,7.168030,0.000000,41.660251,44.965961,6999.278846,-0.314527,0.156673,-0.815274,0.804699
10.400000,0.878917,-0.288569,0.147298,15.348488,0.646114,-2.340638,486.511810,6.816986,0.000000,41.660259,44.965974,6999.278846,-0.138153,1.000000,1.000000,-0.489308
10.500000,0.883874,-0.285779,0.134847,15.642263,0.825895,-2.253476,486.185944,6.491119,0.000000,41.660268,44.965988,6999.257662,-0.548572,1.000000,0.699125,0.118345
10.600000,0.886409,-0.281883,0.127687,15.950175,0.868461,-2.132476,485.849854,6.155029,0.000000,41.660277,44.966003,6999.257662,0.671679,-1.000000,-0.148887,1.000000
10.700000,0.893782,-0.277911,0.121842,16.233272,0.621967,-2.129234,485.492004,5.797180,0.000000,41.660285,44.966018,6999.234696,-1.000000,0.951547,-1.000000,0.062170
10.800000,0.906920,-0.274374,0.116425,16.494285,0.804801,-2.233562,485.148132,5.453308,0.000000,41.660294,44.966033,6999.234696,-0.912544,-0.197852,-0.543134,0.304850
10.900000,0.924397,-0.270460,0.113223,16.784469,1.932007,-2.453509,484.845032,5.150208,0.000000,41.660303,44.966049,6999.210072,-1.000000,0.034714,0.940452,0.857917
11.000000,0.948574,-0.266804,0.111983,17.068116,2.816496,-2.791340,484.659668,4.964844,0.000000,41.660312,44.966065,6999.210072,0.673700,1.000000,-0.754218,0.162771
11.100000,0.975420,-0.263653,0.113088,17.294454,2.706968,-3.128087,484.515747,4.820923,0.000000,41.660321,44.966082,6999.185655,-1.000000,0.995071,0.242256,0.062350
11.200000,1.003759,-0.260350,0.118224,17.525658,2.630938,-3.479344,484.349365,4.654541,0.000000,41.660330,44.966099,6999.185655,-1.000000,-0.453306,-0.372941,0.140413
11.300000,1.030889,-0.257738,0.127647,17.796692,3.518900,-3.848745,484.226898,4.532104,0.000000,41.660339,44.966117,6999.161238,-1.000000,-0.725871,-1.000000,-0.169173
11.400000,1.053736,-0.256612,0.141321,18.072282,4.431028,-4.158022,484.208588,4.513733,0.000000,41.660349,44.966136,6999.161238,-0.785864,1.000000,-1.000000,-1.000000
11.500000,1.069952,-0.256176,0.160991,18.364530,4.711873,-4.329795,484.256195,4.561371,0.000000,41.660357,44.966156,6999.136033,1.000000,-1.000000,-0.827370,0.540974
11.600000,1.081665,-0.255832,0.179479,18.610612,4.176154,-4.399953,484.288422,4.593597,0.000000,41.660366,44.966176,6999.136033,0.606477,1.000000,-1.000000,-0.171550
11.700000,1.093162,-0.255196,0.192322,18.825950,3.557715,-4.432123,484.260651,4.565857,0.000000,41.660375,44.966196,6999.109916,-0.487005,-0.282415,1.000000,0.170867
11.800000,1.104970,-0.254162,0.203296,19.072172,3.209953,-4.432207,484.181763,4.486908,0.000000,41.660384,44.966216,6999.109916,-0.387970,1.000000,-0.913984,-0.297523
11.900000,1.115920,-0.253173,0.212962,19.338634,3.199742,-4.415508,484.091522,4.396698,0.000000,41.660392,44.966237,6999.082515,-0.116837,0.774296,0.877879,0.243907
12.000000,1.125167,-0.252084,0.220813,19.583520,3.048254,-4.351174,483.997894,4.303070,0.000000,41.660401,44.966258,6999.082515,-0.025475,0.180874,0.111892,-0.830042
12.100000,1.128737,-0.249387,0.229835,19.880381,3.011452,-4.123180,483.879944,4.185120,0.000000,41.660409,44.966279,6999.053123,-0.669658,-0.708540,-1.000000,-0.750562
12.200000,1.119612,-0.244091,0.241601,20.234562,3.185154,-3.647422,483.766968,4.072144,0.000000,41.660417,44.966301,6999.053123,-0.117305,-1.000000,1.000000,1.000000
12.300000,1.108515,-0.238641,0.250099,20.553100,3.178572,-3.184600,483.667175,3.972351,0.000000,41.660425,44.966324,6999.023731,-0.120201,0.137749,0.399265,-0.715009
12.400000,1.099047,-0.233013,0.253798,20.854467,2.887989,-2.686506,483.541565,3.846741,0.000000,41.660433,44.966347,6999.023731,1.000000,-0.652203,-1.000000,-0.675034
12.500000,1.085109,-0.225199,0.255565,21.121137,2.073977,-2.042972,483.355988,3.661163,0.000000,41.660441,44.966370,6998.993511,0.806926,0.768996,-0.927559,0.861894
12.600000,1.072890,-0.216940,0.252224,21.345969,1.203572,-1.486578,483.096252,3.401428,0.000000,41.660448,44.966393,6998.993511,0.568402,0.613301,0.903305,0.070937
12.700000,1.063681,-0.208756,0.242194,21.584309,0.631676,-0.982382,482.747559,3.052734,0.000000,41.660456,44.966416,6998.962917,-0.391792,-1.000000,-0.690218,-1.000000
12.800000,1.045528,-0.198873,0.233247,21.824373,0.313782,-0.223636,482.360809,2.665985,0.000000,41.660463,44.966439,6998.962917,1.000000,-1.000000,-0.702883,-0.944341
12.900000,1.011844,-0.186015,0.230916,22.009594,-0.078774,0.849995,481.962250,2.267426,0.000000,41.660470,44.966463,6998.934852,-0.272026,0.066202,1.000000,-0.204566
13.000000,0.975939,-0.176592,0.195133,20.123566,1.275410,1.449609,481.592499,1.897644,0.000000,41.660477,44.966486,6998.934852,-0.871431,0.644006,1.000000,-0.628194
13.100000,0.968419,-0.190654,0.108530,16.868606,4.363318,1.162169,481.528412,1.833588,0.000000,41.660483,44.966506,6998.909523,-0.133179,1.000000,-1.000000,-0.280075
13.200000,0.973254,-0.218530,0.055153,16.093265,5.346378,1.284999,481.684998,1.990173,0.000000,41.660488,44.966525,6998.909523,1.000000,-1.000000,0.486113,-0.164500
13.300000,0.974531,-0.246597,0.025543,16.153056,5.223537,1.483587,481.825317,2.130493,0.000000,41.660494,44.966544,6998.886308,-1.000000,-1.000000,-0.386400,-0.153687
13.400000,0.972163,-0.271317,0.009831,16.306288,5.127513,1.636382,481.906097,2.211273,0.000000,41.660499,44.966563,6998.886308,0.687576,-0.108497,0.620234,0.679787
13.500000,0.970472,-0.291969,0.002742,16.474574,4.921831,1.727605,481.933624,2.238800,0.000000,41.660505,44.966582,6998.866244,-0.137984,-0.671866,-0.911953,-1.000000
13.600000,0.964357,-0.310767,0.004990,16.528459,4.759576,1.872914,481.895020,2.200195,0.000000,41.660510,44.966601,6998.866244,-1.000000,0.330914,1.000000,-0.638295
13.700000,0.948928,-0.332840,0.018239,15.536846,5.997031,2.023002,481.896912,2.202087,0.000000,41.660515,44.966620,6998.847630,-0.355106,-0.795036,0.583322,0.420307
13.800000,0.937705,-0.357385,0.023477,15.399619,6.742483,2.136405,481.971924,2.277100,0.000000,41.660520,44.966639,6998.847630,-0.601189,-0.173236,-0.534698,-0.129204
13.900000,0.929437,-0.382999,0.031167,15.582777,7.473706,2.225814,482.067047,2.372223,0.000000,41.660526,44.966658,6998.828644,-1.000000,-1.000000,0.255672,-0.402402
14.000000,0.919961,-0.406381,0.046985,15.852163,8.291159,2.274885,482.186401,2.491577,0.000000,41.660531,44.966678,6998.828644,-0.412535,-0.906234,-0.458754,1.000000
14.100000,0.915829,-0.426232,0.063794,16.104874,8.539202,2.231208,482.298126,2.603333,0.000000,41.660537,44.966698,6998.809741,0.829219,-0.564825,-1.000000,-1.000000
14.200000,0.914592,-0.443799,0.082537,16.378601,8.092365,2.183541,482.354431,2.659607,0.000000,41.660543,44.966718,6998.809741,0.730599,-0.051342,0.874990,0.598936
14.300000,0.913617,-0.457059,0.102372,16.696195,7.324782,2.170889,482.304962,2.610138,0.000000,41.660549,44.966739,6998.789552,-0.832101,-0.673923,-0.039242,-1.000000
14.400000,0.912255,-0.465780,0.121494,16.849312,7.023601,2.165638,482.169800,2.474976,0.000000,41.660554,44.966759,6998.789552,0.534905,-1.000000,1.000000,-0.479152
14.500000,0.924711,-0.488402,0.123375,14.678434,8.322774,1.603815,482.081848,2.387024,0.000000,41.660560,44.966779,6998.766420,-1.000000,-0.369611,-1.000000,0.873989
14.600000,0.965838,-0.524955,0.083091,13.299061,9.406003,1.028405,482.187958,2.493134,0.000000,41.660565,44.966797,6998.766420,-1.000000,-1.000000,0.021949,0.506627
14.700000,1.019597,-0.555600,0.034452,13.560092,9.736150,0.597952,482.311493,2.616669,0.000000,41.660570,44.966815,6998.741920,0.157310,1.000000,-0.836596,1.000000
14.800000,1.089255,-0.581077,-0.022761,13.849853,9.735838,-0.044575,482.395508,2.700684,0.000000,41.660575,44.966834,6998.741920,-0.131424,0.447924,1.000000,1.000000
14.900000,1.171022,-0.594780,-0.086433,13.884324,9.552950,-0.871331,482.420837,2.726013,0.000000,41.660580,44.966853,6998.716301,-1.000000,-0.335336,-0.658014,-1.000000
15.000000,1.248714,-0.595584,-0.141543,14.071058,9.869984,-1.688164,482.421692,2.726868,0.000000,41.660586,44.966872,6998.716301,-0.439597,-1.000000,1.000000,1.000000
15.100000,1.323600,-0.589147,-0.184166,14.244215,10.002725,-2.629717,482.417969,2.723145,0.000000,41.660591,44.966891,6998.688443,0.082249,-0.579087,0.943504,0.312909
15.200000,1.392020,-0.582927,-0.214856,13.805732,9.786246,-3.456357,482.398102,2.703278,0.000000,41.660597,44.966911,6998.688443,0.752895,1.000000,-0.126966,-0.547964
15.300000,1.443255,-0.586581,-0.236731,12.680795,9.584101,-3.811947,482.383179,2.688354,0.000000,41.660602,44.966929,6998.660171,0.425104,0.637184,1.000000,1.000000
15.400000,1.490575,-0.603680,-0.269992,11.147149,9.651649,-3.799228,482.411011,2.716187,0.000000,41.660607,44.966947,6998.660171,0.286708,-0.731970,0.911125,0.130241
15.500000,1.535609,-0.632021,-0.320560,9.867028,9.904694,-3.597104,482.483215,2.788391,0.000000,41.660612,44.966963,6998.631194,-0.133862,-1.000000,-0.836589,0.836618
15.600000,1.579844,-0.660522,-0.376906,9.094173,9.977228,-3.463273,482.561584,2.866760,0.000000,41.660616,44.966979,6998.631194,1.000000,-1.000000,0.951258,1.000000
15.700000,1.642795,-0.675770,-0.390651,9.030531,9.507427,-3.353742,482.625427,2.930603,0.000000,41.660620,44.966994,6998.601595,-0.133227,-0.548239,-0.573246,0.641363
15.800000,1.732747,-0.693430,-0.390682,8.237269,9.199936,-4.232584,482.617310,2.922485,0.000000,41.660624,44.967009,6998.601595,-0.921886,0.281400,1.000000,-0.799813
15.900000,1.822278,-0.700896,-0.428525,7.216748,9.234331,-4.732306,482.637360,2.942535,0.000000,41.660627,44.967024,6998.574732,0.302975,-0.175100,0.658457,0.076782
16.000000,1.903329,-0.703356,-0.469489,6.703287,9.217609,-5.050683,482.663025,2.968201,0.000000,41.660631,44.967038,6998.574732,-0.927926,0.714048,0.228024,-0.335563
16.100000,1.978648,-0.699521,-0.512318,6.307044,9.410264,-5.467106,482.674988,2.980164,0.000000,41.660634,44.967052,6998.550854,-1.000000,0.265455,-1.000000,0.078584
16.200000,2.045434,-0.690156,-0.550606,6.291146,9.905899,-5.900060,482.693298,2.998474,0.000000,41.660637,44.967067,6998.550854,-0.881599,-1.000000,0.522117,1.000000
16.300000,2.112735,-0.672886,-0.580343,6.349133,10.049847,-6.734948,482.684784,2.989960,0.000000,41.660640,44.967082,6998.529131,-0.354426,1.000000,0.531328,0.309299
16.400000,2.179939,-0.650195,-0.614475,6.158510,9.960399,-7.247478,482.641846,2.947021,0.000000,41.660643,44.967098,6998.529131,-0.259295,0.075126,-0.500328,0.411019
16.500000,2.246655,-0.630882,-0.688537,5.218129,10.181040,-6.883406,482.599762,2.904938,0.000000,41.660647,44.967113,6998.509772,-0.441108,-1.000000,0.855991,0.071968
16.600000,2.325320,-0.614811,-0.801098,4.368960,10.507895,-6.061170,482.579956,2.885132,0.000000,41.660650,44.967128,6998.509772,0.453731,1.000000,1.000000,0.725098
16.700000,2.425570,-0.600611,-0.904814,4.095201,10.459256,-5.738021,482.549896,2.855072,0.000000,41.660652,44.967143,6998.489169,-1.000000,1.000000,-0.644769,-0.476932
16.800000,2.523950,-0.582486,-1.048130,2.485693,10.948305,-5.004271,482.489502,2.794678,0.000000,41.660655,44.967157,6998.489169,-0.614932,-0.096724,1.000000,0.311236
16.900000,2.616675,-0.549536,-1.141744,2.678734,11.081386,-4.999926,482.405365,2.710541,0.000000,41.660657,44.967172,6998.465622,1.000000,-0.556051,0.596274,0.429617
17.000000,2.713590,-0.510604,-1.256437,2.005189,10.971884,-4.580260,482.239136,2.544312,0.000000,41.660659,44.967186,6998.465622,-1.000000,-1.000000,0.191071,-1.000000
17.100000,2.816543,-0.452951,-1.383508,0.722811,10.714265,-3.582030,482.078186,2.383362,0.000000,41.660661,44.967199,6999.975124,0.281751,-0.582764,1.000000,-0.666185
17.200000,2.914232,-0.377712,-1.478036,-0.249052,10.457225,-3.299400,481.884918,2.190094,0.000000,41.660663,44.967212,6999.975124,1.000000,-0.453470,-0.212919,0.355169
17.300000,2.998679,-0.293871,-1.553293,-1.150956,10.128587,-3.096270,481.654480,1.959656,0.000000,41.660665,44.967224,6312.000000,0.118574,-0.492311,-0.243808,-1.000000
17.400000,3.067858,-0.209245,-1.613187,-1.939190,9.775523,-2.889089,481.398865,1.704010,0.000000,41.660666,44.967236,6312.000000,0.062954,0.387493,1.000000,1.000000
17.500000,3.145617,-0.112882,-1.742766,-2.821323,9.497495,-1.894665,481.098511,1.403687,0.000000,41.660668,44.967247,6868.662626,-1.000000,-0.994855,0.308576,-0.181963
17.600000,3.235688,0.001682,-1.895519,-3.815957,8.808122,-0.490751,480.783661,1.088837,0.000000,41.660670,44.967258,6868.662626,-1.000000,0.288181,-0.862076,0.900876
17.700000,3.322718,0.113671,-2.058737,-4.741263,8.299685,0.654952,480.442780,0.747955,0.000000,41.660671,44.967269,6868.635556,-0.542331,0.456660,-0.989811,0.255853
17.800000,3.415393,0.236437,-2.255872,-5.615777,7.354871,2.054230,480.028748,0.333923,0.000000,41.660673,44.967279,6868.635556,-0.560279,0.132171,0.555773,0.086893
17.900000,3.497937,0.339248,-2.513909,-2.786458,0.359614,5.542850,479.715240,0.020416,0.000000,41.660674,44.967288,6868.611346,-0.156756,1.000000,-0.148889,1.000000
18.000000,3.476046,0.319988,-2.737940,-1.876706,-1.470271,4.942320,479.986389,0.291565,0.000000,41.660675,44.967294,6868.611346,1.000000,-0.732342,-1.000000,0.184437
18.100000,3.427878,0.304213,-2.867807,-1.921444,-1.176709,4.508097,480.198761,0.503937,0.000000,41.660675,44.967299,6868.588338,-1.000000,1.000000,0.851651,0.224217
18.200000,3.369595,0.284899,-2.971874,-1.755753,-0.856464,4.178639,480.336060,0.641235,0.000000,41.660676,44.967305,6868.588338,-0.424617,-0.415274,-0.161456,-0.089241
18.300000,3.304944,0.259637,-3.042559,-1.537158,-0.364772,3.994153,480.399078,0.704254,0.000000,41.660676,44.967310,6868.568730,0.014225,1.000000,1.000000,-0.559072
18.400000,3.225597,0.221745,-3.087544,-1.182572,0.248201,3.835580,480.399597,0.704742,0.000000,41.660676,44.967315,6868.568730,-0.597930,1.000000,-1.000000,0.908647
18.500000,3.134902,0.169547,-3.108909,-0.699605,0.877077,3.622611,480.339050,0.644226,0.000000,41.660677,44.967319,6312.000000,0.549513,-1.000000,-0.394339,0.160066
18.600000,3.039034,0.105449,-3.115299,-0.188712,1.466866,3.350240,480.230316,0.535492,0.000000,41.660677,44.967324,6312.000000,-1.000000,-1.000000,0.737220,0.604788
18.700000,2.928215,0.020498,-3.115385,0.294603,2.038599,2.998522,480.059296,0.364471,0.000000,41.660676,44.967327,6312.000000,1.000000,0.354818,-0.461131,-0.267340
18.800000,2.816112,-0.082884,-3.113343,0.630721,2.546882,2.749613,479.830719,0.135895,0.000000,41.660676,44.967331,6312.000000,-0.300036,0.333212,0.076004,-0.228959
18.900000,2.715046,-0.194427,-3.104485,0.521730,0.006460,2.711760,479.694611,-0.000183,0.000000,41.660677,44.967334,6312.000000,0.920654,0.691908,0.586766,0.104512
19.000000,2.609967,-0.305425,-3.040891,0.573464,-0.029258,1.724974,479.694763,-0.000061,0.000000,41.660677,44.967337,6312.000000,-0.000195,0.444860,-0.864719,-0.681362
19.100000,2.590450,-0.338216,-3.006785,-0.234655,-1.601923,0.447395,479.832275,0.137482,0.000000,41.660677,44.967338,6312.000000,0.022594,-1.000000,0.198508,0.495467
19.200000,2.600047,-0.328957,-3.049136,-0.401238,-1.096971,0.353833,479.968140,0.273315,0.000000,41.660677,44.967338,6312.000000,-0.529797,0.119974,-0.886614,-0.257156
19.300000,2.606206,-0.306844,-3.079147,-0.481086,-0.820041,0.220573,480.075378,0.380524,0.000000,41.660677,44.967338,6312.000000,0.443566,-1.000000,-0.295947,0.140721
19.400000,2.611876,-0.280872,-3.098614,-0.340755,-0.589678,0.111071,480.155609,0.460785,0.000000,41.660677,44.967338,6312.000000,-1.000000,-1.000000,0.547110,-1.000000
19.500000,2.614666,-0.259866,-3.110271,-0.316372,-0.460818,0.111328,480.214508,0.519684,0.000000,41.660677,44.967338,6312.000000,0.167083,0.064547,-0.395653,-0.428995
19.600000,2.616358,-0.233934,-3.120818,-0.328892,-0.386797,0.084245,480.266479,0.571655,0.000000,41.660677,44.967338,6312.000000,-1.000000,1.000000,0.765154,-1.000000
19.700000,2.618729,-0.204231,-3.129271,-0.293266,-0.309491,0.053709,480.310028,0.615204,0.000000,41.660678,44.967338,6312.000000,0.747762,0.410316,0.065979,0.573911
19.800000,2.620703,-0.172787,-3.135139,-0.292362,-0.272716,0.035815,480.345245,0.650391,0.000000,41.660678,44.967338,6312.000000,-1.000000,-0.995914,-0.188152,0.778885
19.900000,2.621384,-0.133005,-3.141003,-0.354708,-0.227488,0.017786,480.379547,0.684753,0.000000,41.660678,44.967338,6312.000000,-1.000000,-0.537221,1.000000,0.439474
20.000000,2.620523,-0.096207,3.140217,-0.317156,-0.221309,0.000490,480.405304,0.710480,0.000000,41.660678,44.967338,6312.000000,-0.825782,1.000000,0.459627,0.342259
20.100000,2.619879,-0.061362,3.139001,-0.303738,-0.174340,0.011535,480.427063,0.732208,0.000000,41.660679,44.967338,6312.000000,-0.693650,-1.000000,1.000000,-0.348929
20.200000,2.618494,-0.029254,3.138004,-0.241402,-0.136460,0.011399,480.443970,0.749115,0.000000,41.660679,44.967338,6312.000000,1.000000,0.057387,-0.754243,0.382070
20.300000,2.617322,-0.003831,3.137186,-0.186125,-0.105240,0.008243,480.456573,0.761749,0.000000,41.660679,44.967338,6312.000000,1.000000,-0.726067,1.000000,-0.979681
20.400000,2.616529,0.014397,3.136576,-0.137846,-0.079149,0.005926,480.465302,0.770477,0.000000,41.660679,44.967338,6312.000000,-0.398583,0.151880,-0.525895,0.879085
20.500000,2.615961,0.028035,3.136056,-0.089590,-0.053570,0.004254,480.471771,0.776947,0.000000,41.660679,44.967338,6312.000000,-0.198080,-0.315565,-0.192590,0.860696
20.600000,2.615655,0.036331,3.135729,-0.050009,-0.039745,-0.000362,480.476196,0.781372,0.000000,41.660679,44.967338,6312.000000,1.000000,0.248403,-1.000000,1.000000
20.700000,2.615407,0.041751,3.135337,-0.060961,-0.073776,0.025881,480.480835,0.786011,0.000000,41.660679,44.967338,6312.000000,0.632300,1.000000,0.711072,0.465632
20.800000,2.614734,0.050131,3.134157,-0.070623,-0.039475,0.005117,480.485931,0.791107,0.000000,41.660679,44.967338,6312.000000,-0.866025,-0.616199,1.000000,0.720962
20.900000,2.614655,0.057187,3.133677,-0.051480,-0.024791,0.000350,480.488708,0.793884,0.000000,41.660679,44.967338,6312.000000,-1.000000,-1.000000,1.000000,1.000000
21.000000,2.614549,0.061906,3.133593,-0.031516,-0.016008,0.002489,480.490601,0.795776,0.000000,41.660679,44.967338,6312.000000,-0.890972,0.542312,-0.097023,-0.229360
21.100000,2.614439,0.064901,3.133203,-0.016700,-0.012671,0.002948,480.491852,0.797028,0.000000,41.660679,44.967338,6312.000000,0.533182,0.553644,-0.351104,0.468462
21.200000,2.614381,0.066519,3.132843,-0.008357,-0.009484,0.002809,480.492889,0.798065,0.000000,41.660679,44.967338,6312.000000,1.000000,1.000000,1.000000,-1.000000
21.300000,2.614349,0.067329,3.132530,-0.004152,-0.007291,0.002535,480.493652,0.798828,0.000000,41.660679,44.967338,6312.000000,1.000000,1.000000,0.052031,-1.000000
21.400000,2.614327,0.067773,3.132249,-0.001815,-0.005465,0.002081,480.494263,0.799438,0.000000,41.660679,44.967338,6312.000000,0.174856,0.552826,1.000000,-1.000000
21.500000,2.614312,0.067987,3.132025,-0.000673,-0.003990,0.001603,480.494720,0.799896,0.000000,41.660679,44.967338,6312.000000,0.953016,0.666752,0.567262,0.069687
21.600000,2.614303,0.068079,3.131863,-0.000165,-0.003004,0.001230,480.495056,0.800232,0.000000,41.660679,44.967338,6312.000000,0.245197,-0.046197,-0.913468,0.260329
21.700000,2.614297,0.068117,3.131734,0.000072,-0.002210,0.000905,480.495300,0.800476,0.000000,41.660679,44.967338,6312.000000,0.018775,0.169427,-1.000000,0.076051
21.800000,2.614292,0.068126,3.131639,0.000155,-0.001594,0.000648,480.495514,0.800690,0.000000,41.660679,44.967338,6312.000000,-1.000000,1.000000,0.586697,-1.000000
21.900000,2.614288,0.068122,3.131575,0.000168,-0.001189,0.000474,480.495636,0.800812,0.000000,41.660679,44.967338,6312.000000,-0.039723,0.531563,1.000000,-0.118617
22.000000,2.614285,0.068113,3.131525,0.000152,-0.000868,0.000334,480.495728,0.800903,0.000000,41.660679,44.967338,6312.000000,-1.000000,0.792440,0.625226,-0.209184
22.100000,2.614282,0.068104,3.131490,0.000126,-0.000623,0.000232,480.495819,0.800995,0.000000,41.660679,44.967338,6312.000000,-0.458569,1.000000,1.000000,0.838303
22.200000,2.614280,0.068096,3.131466,0.000102,-0.000464,0.000165,480.495880,0.801056,0.000000,41.660679,44.967338,6312.000000,-1.000000,-1.000000,0.328860,1.000000
22.300000,2.614279,0.068088,3.131449,0.000079,-0.000336,0.000114,480.495911,0.801086,0.000000,41.660679,44.967338,6312.000000,-1.000000,0.874790,-1.000000,1.000000
22.400000,2.614277,0.068082,3.131437,0.000060,-0.000242,0.000077,480.495941,0.801117,0.000000,41.660679,44.967338,6312.000000,1.000000,-0.051282,1.000000,-0.429928
22.500000,2.614275,0.068078,3.131429,0.000046,-0.000180,0.000054,480.495972,0.801147,0.000000,41.660679,44.967338,6312.000000,0.746201,0.781819,0.337595,0.331341
22.600000,2.614274,0.068074,3.131423,0.000034,-0.000131,0.000036,480.495972,0.801147,0.000000,41.660679,44.967338,6312.000000,0.885420,0.852280,-1.000000,-0.524630
22.700000,2.614273,0.068071,3.131419,0.000025,-0.000095,0.000024,480.495972,0.801147,0.000000,41.660679,44.967338,6312.000000,-0.244553,1.000000,0.604384,1.000000
22.800000,2.614271,0.068069,3.131417,0.000019,-0.000070,0.000016,480.496002,0.801178,0.000000,41.660679,44.967338,6312.000000,-0.721149,1.000000,1.000000,-0.879564
22.900000,2.614270,0.068068,3.131415,0.000014,-0.000052,0.000011,480.496002,0.801178,0.000000,41.660679,44.967338,6312.000000,-0.451533,0.572108,0.678591,-0.292455
23.000000,2.614269,0.068067,3.131414,0.000010,-0.000037,0.000006,480.496002,0.801178,0.000000,41.660679,44.967338,6312.000000,-0.865496,0.098922,1.000000,-0.693120
23.100000,2.614268,0.068066,3.131413,0.000008,-0.000028,0.000004,480.496002,0.801178,0.000000,41.660679,44.967338,6312.000000,-0.730199,-0.057671,0.097421,0.455955
23.200000,2.614267,0.068065,3.131413,0.000006,-0.000021,0.000003,480.496002,0.801178,0.000000,41.660679,44.967338,6312.000000,-1.000000,0.028949,0.411912,-0.545027
23.300000,2.614265,0.068064,3.131412,0.000005,-0.000015,0.000002,480.496002,0.801178,0.000000,41.660679,44.967338,6312.000000,-1.000000,-1.000000,0.316701,-1.000000
23.400000,2.614264,0.068064,3.131412,0.000003,-0.000011,0.000001,480.496002,0.801178,0.000000,41.660679,44.967338,6312.000000,0.767142,-0.290297,1.000000,-0.527743
23.500000,2.614263,0.068064,3.131412,0.000003,-0.000009,0.000000,480.496002,0.801208,0.000000,41.660679,44.967338,6312.000000,-0.223361,-0.105747,-1.000000,-0.251934
23.600000,2.614262,0.068064,3.131412,0.000002,-0.000005,0.000000,480.496002,0.801147,0.000000,41.660679,44.967338,6312.000000,1.000000,-0.663332,0.770411,0.133107
23.700000,2.614261,0.068063,3.131412,0.000002,-0.000004,-0.000000,480.496002,0.801178,0.000000,41.660679,44.967338,6312.000000,-0.639488,-1.000000,0.678205,-0.112614
23.800000,2.614259,0.068063,3.131412,0.000001,-0.000004,-0.000000,480.496002,0.801178,0.000000,41.660679,44.967338,6312.000000,0.986111,1.000000,0.272643,1.000000
23.900000,2.614258,0.068063,3.131412,0.000001,-0.000002,-0.000000,480.496002,0.801178,0.000000,41.660679,44.967338,6312.000000,-0.171894,0.798149,-1.000000,1.000000
24.000000,2.614257,0.068063,3.131411,0.000001,-0.000002,0.000000,480.496002,0.801208,0.000000,41.660679,44.967338,6312.000000,-0.693605,-0.940627,1.000000,1.000000
24.100000,2.614256,0.068063,3.131411,0.000001,-0.000001,-0.000000,480.496002,0.801178,0.000000,41.660679,44.967338,6312.000000,-0.964066,-0.574866,0.493257,1.000000
24.200000,2.614255,0.068063,3.131411,0.000001,-0.000001,-0.000000,480.496002,0.801178,0.000000,41.660679,44.967338,6312.000000,-0.786499,0.506179,-0.135247,1.000000
24.300000,2.614254,0.068063,3.131411,0.000001,-0.000000,-0.000000,480.496002,0.801178,0.000000,41.660679,44.967338,6312.000000,0.465355,-0.660322,-0.133315,-1.000000
24.400000,2.614252,0.068062,3.131411,0.000001,0.000002,-0.000001,480.496002,0.801178,0.000000,41.660679,44.967338,6312.000000,-0.078065,1.000000,0.902500,-0.474624
24.500000,2.614251,0.068062,3.131411,0.000002,-0.000001,-0.000000,480.496002,0.801178,0.000000,41.660679,44.967338,6312.000000,0.004281,-1.000000,-0.250549,1.000000
24.600000,2.614250,0.068062,3.131411,0.000001,-0.000001,0.000000,480.496002,0.801178,0.000000,41.660679,44.967338,6312.000000,-1.000000,-1.000000,0.155490,0.389509
24.700000,2.614249,0.068062,3.131411,0.000000,0.000001,-0.000000,480.496002,0.801147,0.000000,41.660679,44.967338,6312.000000,-0.209240,-0.568095,0.729457,0.272375
24.800000,2.614248,0.068062,3.131411,-0.000000,-0.000000,-0.000000,480.496002,0.801178,0.000000,41.660679,44.967338,6312.000000,0.695888,-0.015596,-1.000000,-1.000000
24.900000,2.614247,0.068062,3.131411,-0.000000,-0.000000,-0.000000,480.496002,0.801178,0.000000,41.660679,44.967338,6312.000000,-1.000000,-0.119147,-0.288211,-1.000000
25.000000,2.614245,0.068062,3.131411,0.000000,-0.000001,0.000000,480.496002,0.801239,0.000000,41.660679,44.967338,6312.000000,-1.000000,-0.464991,-1.000000,0.047385
25.100000,2.614244,0.068062,3.131411,0.000001,0.000000,0.000000,480.496002,0.801178,0.000000,41.660679,44.967338,6312.000000,0.274625,-0.448837,-1.000000,0.015103
25.200000,2.614243,0.068062,3.131411,0.000002,0.000000,0.000000,480.496002,0.801178,0.000000,41.660679,44.967338,6312.000000,-0.473326,-1.000000,-0.443219,-0.059949
25.300000,2.614242,0.068062,3.131411,0.000002,0.000000,-0.000000,480.496002,0.801208,0.000000,41.660679,44.967338,6312.000000,1.000000,-0.021818,-0.348828,-1.000000
25.400000,2.614241,0.068061,3.131411,0.000001,-0.000001,-0.000000,480.496002,0.801208,0.000000,41.660679,44.967338,6312.000000,0.497100,-0.430790,1.000000,0.719998
25.500000,2.614239,0.068061,3.131411,0.000001,-0.000001,-0.000000,480.496002,0.801178,0.000000,41.660679,44.967338,6312.000000,1.000000,1.000000,0.154803,1.000000
25.600000,2.614238,0.068061,3.131410,0.000000,-0.000000,-0.000000,480.496002,0.801178,0.000000,41.660679,44.967338,6312.000000,0.420874,-0.988014,1.000000,0.886935
25.700000,2.614237,0.068061,3.131411,0.000001,-0.000000,-0.000001,480.496002,0.801178,0.000000,41.660679,44.967338,6312.000000,-1.000000,0.433297,0.531805,0.180159
25.800000,2.614236,0.068061,3.131411,0.000000,-0.000000,-0.000001,480.496002,0.801178,0.000000,41.660679,44.967338,6312.000000,-1.000000,-0.857226,-0.071206,0.448314
25.900000,2.614235,0.068061,3.131411,-0.000000,0.000000,-0.000001,480.496002,0.801147,0.000000,41.660679,44.967338,6312.000000,0.315270,1.000000,-0.083673,-1.000000
26.000000,2.614234,0.068061,3.131411,0.000000,0.000001,-0.000003,480.496002,0.801178,0.000000,41.660679,44.967338,6312.000000,-0.745926,0.140603,0.760778,0.250583
26.100000,2.614233,0.068061,3.131411,0.000002,-0.000001,-0.000000,480.496002,0.801178,0.000000,41.660679,44.967338,6312.000000,-1.000000,0.375002,0.587594,1.000000
26.200000,2.614232,0.068061,3.131411,0.000001,-0.000001,-0.000000,480.496002,0.801178,0.000000,41.660679,44.967338,6312.000000,-1.000000,-0.333970,-0.166256,-0.319802
26.300000,2.614231,0.068061,3.131411,0.000001,-0.000001,-0.000000,480.496002,0.801178,0.000000,41.660679,44.967338,6312.000000,-0.042759,-0.372834,-0.637480,0.255735
26.400000,2.614230,0.068060,3.131411,0.000001,-0.000000,-0.000001,480.496002,0.801178,0.000000,41.660679,44.967338,6312.000000,1.000000,0.257883,-1.000000,0.011051
26.500000,2.614228,0.068060,3.131411,0.000000,-0.000001,-0.000001,480.496002,0.801178,0.000000,41.660679,44.967338,6312.000000,0.563359,-0.135216,0.419986,1.000000
26.600000,2.614227,0.068060,3.131411,0.000001,0.000000,-0.000002,480.496002,0.801178,0.000000,41.660679,44.967338,6312.000000,-1.000000,1.000000,-0.255107,-0.114821
26.700000,2.614226,0.068060,3.131411,0.000001,-0.000001,-0.000001,480.496002,0.801178,0.000000,41.660679,44.967338,6312.000000,0.314748,-1.000000,0.654589,-0.213448
26.800000,2.614225,0.068060,3.131411,0.000000,-0.000001,-0.000001,480.496002,0.801178,0.000000,41.660679,44.967338,6312.000000,-0.995644,-0.610036,0.100279,0.194234
26.900000,2.614224,0.068060,3.131411,0.000002,0.000000,-0.000001,480.496002,0.801147,0.000000,41.660679,44.967338,6312.000000,-1.000000,0.093738,1.000000,-0.598591
27.000000,2.614223,0.068060,3.131411,0.000001,-0.000000,-0.000001,480.496002,0.801178,0.000000,41.660679,44.967338,6312.000000,-0.444598,1.000000,0.869856,-0.147783
27.100000,2.614222,0.068060,3.131411,0.000000,0.000000,-0.000001,480.496002,0.801208,0.000000,41.660679,44.967338,6312.000000,1.000000,-0.719915,-0.775386,-0.865897
27.200000,2.614221,0.068060,3.131411,-0.000000,-0.000000,-0.000001,480.496002,0.801178,0.000000,41.660679,44.967338,6312.000000,0.966678,0.150055,0.498899,0.200738
27.300000,2.614220,0.068060,3.131411,0.000001,-0.000000,-0.000001,480.496002,0.801208,0.000000,41.660679,44.967338,6312.000000,-0.074505,-1.000000,1.000000,-0.273703
27.400000,2.614218,0.068060,3.131411,0.000001,-0.000002,-0.000000,480.496002,0.801178,0.000000,41.660679,44.967338,6312.000000,-1.000000,1.000000,0.680310,0.451421
27.500000,2.614217,0.068059,3.131411,0.000002,-0.000000,-0.000000,480.496002,0.801178,0.000000,41.660679,44.967338,6312.000000,-1.000000,1.000000,0.269937,-0.204336
27.600000,2.614216,0.068059,3.131411,0.000001,-0.000000,-0.000000,480.496002,0.801178,0.000000,41.660679,44.967338,6312.000000,-1.000000,0.495340,-0.891196,0.135196
27.700000,2.614215,0.068059,3.131411,0.000001,0.000000,-0.000000,480.496002,0.801178,0.000000,41.660679,44.967338,6312.000000,0.162211,-1.000000,1.000000,-0.351402
27.800000,2.614214,0.068059,3.131411,0.000000,-0.000000,-0.000000,480.496002,0.801178,0.000000,41.660679,44.967338,6312.000000,-0.837170,-0.249629,-0.955215,-0.229411
27.900000,2.614213,0.068059,3.131411,0.000001,-0.000000,0.000001,480.496002,0.801178,0.000000,41.660679,44.967338,6312.000000,-1.000000,-0.354222,-0.007592,-0.839445
28.000000,2.614211,0.068059,3.131411,0.000001,0.000001,-0.000000,480.496002,0.801147,0.000000,41.660679,44.967338,6312.000000,0.530617,-0.360690,0.873270,0.296086
28.100000,2.614210,0.068059,3.131411,0.000001,0.000000,0.000000,480.496002,0.801178,0.000000,41.660679,44.967338,6312.000000,-1.000000,0.489403,-1.000000,1.000000
28.200000,2.614209,0.068059,3.131411,0.000002,0.000000,0.000001,480.496002,0.801178,0.000000,41.660679,44.967338,6312.000000,0.114652,0.515776,-0.316808,0.323541
28.300000,2.614208,0.068059,3.131410,0.000003,0.000001,0.000000,480.496002,0.801208,0.000000,41.660679,44.967338,6312.000000,0.373465,-0.283331,1.000000,1.000000
28.400000,2.614207,0.068058,3.131410,0.000001,-0.000000,0.000000,480.496002,0.801178,0.000000,41.660679,44.967338,6312.000000,-0.841412,-0.272143,0.489788,1.000000
28.500000,2.614205,0.068058,3.131410,0.000000,-0.000000,0.000000,480.496002,0.801178,0.000000,41.660679,44.967338,6312.000000,-0.282375,-0.076183,-1.000000,-0.705555
28.600000,2.614204,0.068058,3.131410,0.000000,-0.000001,0.000001,480.496002,0.801178,0.000000,41.660679,44.967338,6312.000000,1.000000,0.564397,-1.000000,1.000000
28.700000,2.614203,0.068058,3.131410,0.000001,-0.000000,0.000000,480.496002,0.801178,0.000000,41.660679,44.967338,6312.000000,0.732749,-0.609005,0.704363,-0.379669
28.800000,2.614202,0.068058,3.131410,0.000001,-0.000000,0.000000,480.496002,0.801147,0.000000,41.660679,44.967338,6312.000000,-0.517023,0.185533,1.000000,0.346000
28.900000,2.614200,0.068058,3.131409,0.000002,0.000000,0.000000,480.496002,0.801178,0.000000,41.660679,44.967338,6312.000000,1.000000,-0.466591,-1.000000,-0.391330
29.000000,2.614199,0.068058,3.131410,0.000002,0.000000,0.000000,480.496002,0.801147,0.000000,41.660679,44.967338,6312.000000,-0.828640,1.000000,1.000000,1.000000
29.100000,2.614198,0.068057,3.131409,0.000003,-0.000001,0.000000,480.496002,0.801178,0.000000,41.660679,44.967338,6312.000000,-0.321118,0.757616,-0.134713,0.458563
29.200000,2.614197,0.068057,3.131409,0.000001,0.000000,0.000000,480.496002,0.801178,0.000000,41.660679,44.967338,6312.000000,0.721478,0.200124,1.000000,1.000000
29.300000,2.614195,0.068057,3.131409,-0.000000,-0.000001,0.000001,480.496002,0.801208,0.000000,41.660679,44.967338,6312.000000,1.000000,1.000000,-1.000000,-0.085013
29.400000,2.614194,0.068057,3.131409,0.000000,0.000000,-0.000000,480.496002,0.801178,0.000000,41.660679,44.967338,6312.000000,-0.502803,1.000000,0.077378,0.826503
29.500000,2.614193,0.068057,3.131409,0.000000,0.000000,0.000000,480.496002,0.801178,0.000000,41.660679,44.967338,6312.000000,-1.000000,-1.000000,-1.000000,-1.000000
29.600000,2.614192,0.068057,3.131409,0.000001,0.000001,-0.000001,480.496002,0.801178,0.000000,41.660679,44.967338,6312.000000,-0.334586,-1.000000,0.136870,-0.538849
29.700000,2.614191,0.068057,3.131409,0.000002,0.000001,-0.000001,480.496002,0.801178,0.000000,41.660679,44.967338,6312.000000,-0.511738,-0.719098,0.318175,0.451945
29.800000,2.614189,0.068057,3.131409,0.000001,0.000000,-0.000001,480.496002,0.801178,0.000000,41.660679,44.967338,6312.000000,0.685435,-0.376633,-1.000000,-0.094645
29.900000,2.614188,0.068057,3.131409,-0.000001,-0.000000,-0.000001,480.496002,0.801178,0.000000,41.660679,44.967338,6312.000000,-0.388079,0.736997,-0.951367,0.158714
30.000000,2.614187,0.068057,3.131409,-0.000001,0.000001,-0.000002,480.496002,0.801178,0.000000,41.660679,44.967338,6312.000000,-0.449033,0.492825,0.777037,-0.172213
30.100000,2.614186,0.068057,3.131409,-0.000001,0.000001,-0.000002,480.496002,0.801208,0.000000,41.660679,44.967338,6312.000000,-0.912394,-0.524528,-1.000000,0.431516
30.200000,2.614185,0.068057,3.131410,-0.000001,0.000000,-0.000002,480.496002,0.801178,0.000000,41.660679,44.967338,6312.000000,0.466150,-0.358518,0.077586,-0.229877
30.300000,2.614184,0.068057,3.131410,-0.000000,-0.000000,-0.000001,480.496002,0.801178,0.000000,41.660679,44.967338,6312.000000,0.872043,0.389596,-0.132533,0.165861
30.400000,2.614183,0.068057,3.131410,-0.000000,-0.000001,-0.000001,480.496002,0.801178,0.000000,41.660679,44.967338,6312.000000,0.115297,-0.157956,0.236974,-1.000000
30.500000,2.614182,0.068057,3.131410,0.000001,-0.000001,-0.000001,480.496002,0.801178,0.000000,41.660679,44.967338,6312.000000,1.000000,-0.711058,0.384812,1.000000
30.600000,2.614181,0.068057,3.131409,0.000001,-0.000000,-0.000002,480.496002,0.801178,0.000000,41.660679,44.967338,6312.000000,-1.000000,0.911700,0.903068,0.025463
30.700000,2.614180,0.068057,3.131410,-0.000000,-0.000001,-0.000001,480.496002,0.801178,0.000000,41.660679,44.967338,6312.000000,0.169565,0.659288,-1.000000,0.570149
30.800000,2.614178,0.068057,3.131410,-0.000001,0.000000,-0.000002,480.496002,0.801178,0.000000,41.660679,44.967338,6312.000000,-0.457328,-1.000000,0.139550,-0.354914
30.900000,2.614178,0.068057,3.131410,-0.000001,0.000001,-0.000003,480.496002,0.801178,0.000000,41.660679,44.967338,6312.000000,0.880456,0.471714,0.236573,-0.654565
31.000000,2.614176,0.068057,3.131410,-0.000001,-0.000001,-0.000002,480.496002,0.801147,0.000000,41.660679,44.967338,6312.000000,-0.122193,0.369495,1.000000,0.817384
